name,subway,distance,service_rating,price,environment_rating,overall_rating,location_lat,location_lng
晴朗部落,金洲,797,3.8,50,3.9,4.4,22.805573,113.54635
洛奇先生餐吧,沙涌,896,2.2,117,3.3,4.5,23.095549,113.25915
专爱法式甜品(沙渡路店),沙涌,752,3.4,150,3.4,4.5,23.088764,113.2609
蠔一煲潮州海鲜砂锅粥,沙涌,944,2.4,54,1.9,4.4,23.093927,113.26134
叹域九号沙滩吧,沙涌,840,3,44,3.1,4.4,23.094976,113.25904
南粤嘉宴大酒楼,沙涌,971,2.9,53,2.6,4.3,23.095596,113.26019
葡庭红酒主题西餐厅,沙涌,743,2.7,79,3,4.3,23.093658,113.25911
倾吧,沙涌,786,3.85,61,3.85,4.3,23.09388,113.25946
顺德松记分店,沙涌,694,2.3,93,2.5,4.2,23.083084,113.25375
一心一境,沙涌,818,4.25,83,4.5,4.2,23.094921,113.25877
喜色(太古仓店),沙涌,769,4.35,92,4.4,4.1,23.094097,113.25903
The one 浪漫码头,沙涌,870,2.7,200,2.8,4.1,23.095345,113.25901
粥旺庄(芳村店),沙涌,386,2.2,52,2.3,4,23.086798,113.25615
唐苑酒家(太古仓店),沙涌,896,3,104,3.4,4,23.095793,113.25881
吉兆手握寿司(太古仓店),沙涌,805,0,85,0,4,23.094164,113.25944
红帆渔港,沙涌,880,2.2,54,2.3,4,23.093143,113.261116
拉斯维加斯式自助餐厅(太古仓分店),沙涌,908,4.5,108,4.5,4,23.095709,113.259125
欣荣酒家,沙涌,252,2.2,55,2.2,3.9,23.09156,113.253075
意泰极,沙涌,744,0,94,0,3.8,23.093817,113.25897
2号码头餐吧,沙涌,782,2.8,70,3.3,3.6,23.09466,113.258575
太古仓珠澋游艇会,沙涌,896,3,100,3,3.5,23.095793,113.25881
一味烧烤,芳村,342,2.8,41,2.8,5,23.106476,113.244545
全合回味馆,芳村,641,3,40,3,5,23.098553,113.24243
爱客多蛋糕店(芳村店),芳村,27,0,67,0,5,23.104183,113.24239
肥佬林景林美食酒楼,芳村,571,1.9,70,2,4.8,23.099178,113.24243
德生楼私房菜,芳村,966,2.6,40,2,4.6,23.095886,113.244484
抱抱芝士蛋糕(芳村店),芳村,81,3.9,133,3.65,4.6,23.104656,113.24287
鱼之鱼醉,芳村,776,3,50,3,4.5,23.097414,113.243324
佬湘楼(白鹅潭店),芳村,537,3,60,2.6,4.5,23.106344,113.24693
必胜客(荣兴路),芳村,765,3.2,42,3.2,4.4,23.0999,113.23642
雪贝尔艺术蛋糕坊(芳村大道中店),芳村,164,2,138,3.2,4.4,23.104124,113.24376
森道寿司(芳村店),芳村,116,3.7,45,3.7,4.3,23.103806,113.24316
臣福龙小东北(芳村分店),芳村,867,2.1,46,1.9,4.3,23.098576,113.23642
老潮,芳村,449,2.9,80,3,4.3,23.105925,113.23814
石头咕(芳村店),芳村,308,3.7,61,3.8,4.2,23.102987,113.24482
竹园风味庄(分店),芳村,271,3,58,3,4.2,23.106379,113.24358
汕头福合埕牛肉(花蕾店),芳村,648,3.2,57,3,4.2,23.09848,113.242294
大汗炭烧羊腿烧烤城,芳村,680,3.8,97,3.7,4.2,23.098204,113.2418
翠城酒家,芳村,605,2.6,55,2.8,4.1,23.09938,113.23964
鸿记煌三汁焖锅(芳村店),芳村,348,3.75,67,3.65,4.1,23.107449,113.242226
夼好挪威三文鱼(芳村花地店),芳村,693,3.7,74,3.55,4.1,23.098108,113.24148
洁荣美食,越秀公园,833,2.9,40,2.8,5,23.141226,113.27366
咖啡磨自助餐厅,越秀公园,316,3.5,225,4.5,5,23.145641,113.26476
大可以饭店(人民北店),越秀公园,740,3.3,85,3.6,4.8,23.14161,113.2627
文记海鲜砂锅粥盘福分店,越秀公园,514,3.1,63,3,4.6,23.141867,113.26667
东海海鲜酒家(流花店),越秀公园,717,3.1,129,3.8,4.6,23.146072,113.260735
绿岛西餐酒廊流花公园店,越秀公园,787,2.5,78,3.3,4.6,23.144964,113.2602
中国大酒店-四季厅,越秀公园,152,3.3,177,3.4,4.6,23.146,113.26631
南国宴乐,越秀公园,263,2.8,60,3.3,4.6,23.145618,113.265305
和风中华居食屋,越秀公园,544,3.2,58,2.5,4.5,23.1415,113.26802
THECOFFEECLUB卡啡客(FTC店),越秀公园,211,2.6,56,2.7,4.5,23.146912,113.265755
文客西餐厅,越秀公园,946,0,52,0,4.5,23.148096,113.258675
同人咖啡阁,越秀公园,632,4.5,99,4.5,4.5,23.146141,113.26156
澳门街(东方店),越秀公园,414,2.7,81,2.8,4.4,23.145126,113.26392
味稻皇(总店),越秀公园,877,2.1,62,2.5,4.4,23.147655,113.25928
中国大酒店扒房,越秀公园,152,3.6,287,3.8,4.4,23.146006,113.26631
城市酒吧,越秀公园,614,2.7,104,3,4.4,23.150885,113.27125
东方厅,越秀公园,316,2.5,115,3.3,4.3,23.145641,113.26476
筋头巴脑牛锅,越秀公园,697,2.9,57,2.8,4.3,23.140125,113.26808
中国大酒店-宴会厅,越秀公园,117,2.5,327,2.5,4.3,23.146029,113.26667
Ol S Cake鲜荟(东风中路店),越秀公园,983,3.3,51,3.2,4.3,23.137642,113.269196
琶洲威斯汀COHIBA,琶洲,439,3.85,100,3.85,5,23.102053,113.369804
广州香格里拉大酒店妙趣咖啡厅,琶洲,573,4.45,255,4.55,4.8,23.108536,113.37668
中国元素中餐厅,琶洲,444,3,198,3.1,4.7,23.101894,113.36989
赤沙大围渔王农庄,琶洲,837,3.7,62,3.65,4.7,23.098011,113.369026
Ming Court明阁,琶洲,627,3.1,160,3.2,4.6,23.103773,113.36709
星巴克(琶洲会展中心店),琶洲,355,3,40,3,4.5,23.106964,113.37095
知味全日,琶洲,444,3.4,232,3.4,4.4,23.101894,113.36989
香格里拉大酒店广州宴会厅,琶洲,573,4.5,600,3.4,4.4,23.10858,113.37661
香格里拉大堂酒廊,琶洲,551,3.1,90,3.1,4.4,23.108635,113.37617
威斯汀行政酒廊,琶洲,444,3.1,120,2.3,4.4,23.101894,113.36989
沛德福牛扒家宴总店,琶洲,577,3.7,224,3.7,4.3,23.10138,113.37768
The Open Kitchen豪厨,琶洲,634,3.4,299,3.5,4.3,23.103771,113.36702
LAVAZZA Espression,琶洲,624,3.1,40,2.5,4.2,23.104296,113.367065
妙趣咖啡厅,琶洲,551,3.5,265,3.8,4.1,23.108635,113.37617
皇室宴会,琶洲,930,3.2,77,4,3.9,23.103983,113.3641
夏宫中餐厅,琶洲,551,3.4,485,4,3.9,23.108635,113.37617
米芝饼店(琶洲店),琶洲,64,3.55,50,3.1,3.9,23.103937,113.37305
滩万日本料理,琶洲,551,3.3,370,3.7,3.7,23.108635,113.37617
大围农庄,琶洲,549,3.65,67,3.6,3.6,23.099741,113.37176
舞日本餐厅,琶洲,426,3.2,250,3.4,3.6,23.102095,113.36993
大树吧,祖庙,484,3.8,42,3.8,5,23.0354,113.12254
渔板长,祖庙,472,4.2,82,4.05,4.8,23.029408,113.121544
盈盛,祖庙,873,2.8,88,2.8,4.8,23.025103,113.12049
曼佗罗印度餐厅,祖庙,380,3.85,91,3.85,4.7,23.033815,113.115204
柏龙德国餐厅,祖庙,484,3.4,80,3.4,4.7,23.03543,113.12253
其乐宫,祖庙,398,3.3,79,3.3,4.6,23.030725,113.11558
三养堂(垂虹路店),祖庙,678,3,50,3,4.6,23.02685,113.120255
好巴食文苑总店,祖庙,358,1.9,44,2,4.6,23.029589,113.11913
今品酒业红酒馆,祖庙,484,2.9,50,2.9,4.6,23.028536,113.11975
后街唐厨,祖庙,572,3.3,72,3.4,4.5,23.036219,113.122925
蒸坊黄鳝饭私房菜,祖庙,660,4.5,42,4.5,4.5,23.02687,113.11925
大切外带寿司,祖庙,519,3.75,61,3.7,4.5,23.03614,113.11521
Koyama小山日本料理,祖庙,620,3.2,202,3.3,4.5,23.035797,113.12386
杯子红西餐厅(汾江店),祖庙,763,2.8,60,2.9,4.5,23.029972,113.11195
名仕阁美食公馆,祖庙,781,4.5,50,4.5,4.5,23.02989,113.1118
岭南天地马哥孛罗酒店-大堂酒廊,祖庙,495,0,190,0,4.5,23.03709,113.12004
味稻一号,祖庙,403,3.2,81,3.4,4.4,23.035519,113.12136
御海湾大酒楼,祖庙,959,1.8,62,2.5,4.4,23.024511,113.121376
nikuya home 肉之家,祖庙,643,3.55,121,3.7,4.4,23.03585,113.12409
鲍国演义(禅城店),祖庙,461,3.2,253,3.2,4.4,23.030758,113.11483
品致尊快餐,动物园,858,4.5,40,4.5,5,23.134388,113.31873
百乐门喜宴(东峻广场店),动物园,337,2,59,3,4.8,23.137608,113.31353
辉记潮州海鲜砂锅粥(广州大道中),动物园,822,2,89,2.2,4.8,23.138498,113.3215
佬湘楼(中山一路店),动物园,676,2.9,63,2.2,4.6,23.13516,113.316696
河南老家(香江园西北),动物园,996,2.8,70,2.1,4.5,23.144123,113.304825
拾壹餐饮(天龙店),动物园,891,3.75,54,3.75,4.5,23.142126,113.322365
东如家厨,动物园,589,2.8,44,2.8,4.5,23.14579,113.31514
食赣佳江西味道餐厅,动物园,818,4,70,4.4,4.5,23.137285,113.30667
凤园椰珍椰子鸡主题餐厅,动物园,244,4.2,108,4.55,4.4,23.140884,113.311424
聚彩酒家,动物园,492,0,60,0,4.4,23.140917,113.30898
点都德喜粤楼,动物园,787,2,59,2.6,4.3,23.133615,113.31478
素和敬素食餐厅,动物园,829,3,73,2.9,4.3,23.137169,113.30662
碧泉金潮香食府,动物园,202,3.75,123,3.75,4.3,23.140335,113.311844
银翔酒家,动物园,860,2.6,40,3,4.3,23.142788,113.30572
东山一号茗苑海鲜酒家,动物园,980,3,64,3.1,4.3,23.136118,113.305565
槟城马来西亚餐厅,动物园,420,3.4,87,3.4,4.3,23.140854,113.30969
湘字号湘汇华府,动物园,921,3.55,56,3.55,4.3,23.135586,113.30665
原汁原味农家鸡(环巿东店),动物园,162,2.2,59,2,4.2,23.141317,113.31239
金招牌茶餐厅(东风东店),动物园,391,2.6,45,3.1,4.2,23.138432,113.31679
五哥酸菜鱼(中山一路店),动物园,856,2.4,57,2.3,4.2,23.13505,113.31957
oggi意大利餐厅,猎德,918,4.5,90,4,5,23.120623,113.3469
汤工房（兴盛路店）,猎德,320,0,83,0,5,23.12664,113.33699
广州富力丽思卡尔顿酒店宴会厅,猎德,557,4.5,1454,2.5,5,23.12208,113.33401
爱意意大利餐厅酒吧,猎德,222,3.3,98,3.4,5,23.125628,113.340546
The Ascott Lounge,猎德,994,3,76,3,5,23.124344,113.32914
Ings Cafe(兴盛路店),猎德,208,3.6,67,3.6,5,23.126211,113.33883
哈哈镜鸭脖子(广州总店),猎德,185,3,40,3,4.9,23.126003,113.33888
春夏秋冬韩国料理,猎德,330,3.3,85,3.2,4.8,23.126814,113.33709
香天下清油火锅(珠江新城店),猎德,61,4.2,99,4.5,4.8,23.12379,113.33887
佰鲜汇,猎德,976,3.4,943,3.5,4.8,23.123316,113.32939
Hello Kitty咖啡厅,猎德,796,4.5,100,4,4.8,23.123512,113.33113
广州富力丽思卡尔顿酒店-邱吉尔吧,猎德,568,3.2,166,3.3,4.8,23.121908,113.333984
食了来,猎德,250,3.1,61,3,4.7,23.126566,113.338524
徐博馆养生私房菜,猎德,603,3.4,242,3.5,4.7,23.119781,113.33566
稻菊日本料理,猎德,530,3.4,115,3.5,4.7,23.127445,113.33494
May Make Cake(美倾烘焙),猎德,417,4.05,55,4.05,4.7,23.12808,113.33922
表妹靓点餐厅(维家思店),猎德,889,3.8,53,4.1,4.6,23.131056,113.334145
广粤会,猎德,797,2.9,500,2.9,4.6,23.120468,113.345436
欧吉比萨店(广粤天地店),猎德,935,3.2,100,3.4,4.6,23.12043,113.34698
宴遇中餐厅,猎德,543,3.9,228,4.45,4.6,23.127626,113.33494
披萨房(新林路店),南浦,939,3.2,44,3.2,4.4,23.040852,113.30913
渔民新村(丽江店),南浦,587,3.2,88,3.4,4.3,23.044186,113.30351
坚记厨房,南浦,331,3.3,49,3.5,4.3,23.037504,113.29825
老根土鸡,南浦,346,3.2,90,3.2,4.3,23.037085,113.29885
一品湘（广碧店）,南浦,314,3.1,44,2.9,4.3,23.037317,113.299065
好汉阁,南浦,264,3,45,3,4.2,23.038021,113.298584
千鲜惠(丽江花园店),南浦,741,3,50,2,4.2,23.040176,113.307236
南浦鹅庄,南浦,175,1.9,48,2.3,4.1,23.038643,113.29913
淼鑫猪肚鸡(碧桂大道店),南浦,138,3.7,49,3.65,4,23.03877,113.29994
品上品,南浦,218,3.1,57,3.2,4,23.041573,113.30129
黄记煌三汁焖锅(南浦店),南浦,217,0,77,0,4,23.038076,113.29972
故欣韩国料理,南浦,203,3.2,56,3.2,4,23.038198,113.29975
醉农庄,南浦,449,2.8,50,3,4,23.03971,113.2956
澜庭阁中西餐厅,南浦,328,3.85,67,4,4,23.037182,113.299065
高佬鱼庄,南浦,182,3.55,49,3.4,3.9,23.038666,113.298965
绿茵阁咖啡厅莱茵江畔分店,南浦,859,2.2,71,3,3.9,23.046879,113.30384
金筷子川菜馆,南浦,304,2.2,41,2.1,3.7,23.04088,113.30281
新尚宫韩国料理,南浦,274,3.1,58,3.1,3.4,23.037935,113.29854
源旺客家王,南浦,424,2.8,69,2.7,3.2,23.043413,113.30188
广州阳光酒店 宴会厅,员村,802,3.2,200,3.2,5,23.127758,113.37441
广州阳光酒店-大堂吧,员村,803,4.5,120,3,5,23.128515,113.37251
美林会所-三江会,员村,735,0,500,0,5,23.120636,113.37754
星园潮汕砂锅粥,员村,746,3.55,40,3.55,4.8,23.121984,113.36314
诸葛烤鱼(员村店),员村,383,3,58,3,4.7,23.118113,113.37013
增城人家,员村,588,3,100,2.9,4.7,23.116371,113.3716
广州阳光酒店自助餐厅,员村,872,4.5,262,4,4.7,23.12917,113.372444
榕意中国菜馆,员村,758,4.2,94,4.4,4.5,23.116795,113.37573
孙氏龙虾馆,员村,251,4.05,71,3.85,4.5,23.119286,113.37034
港兴海鲜舫,员村,619,0,45,0,4.5,23.117107,113.36677
邦记牛杂火锅专门店(员村四横路分店),员村,734,3.65,50,3.55,4.4,23.120998,113.37758
老郭田鸡(员村店),员村,654,3.1,53,3,4.4,23.121822,113.376816
VSA意尚咖啡,员村,805,3.55,48,3.65,4.4,23.123472,113.36283
广州酒家(利口福员村站分店),员村,383,3.4,52,3.45,4.3,23.1249,113.369514
三个菜,员村,829,2.2,44,2.1,4.3,23.125086,113.37756
金汇潮庭,员村,647,2.8,189,3.1,4.3,23.115732,113.37069
鸿鑫川菜馆,员村,780,3,51,3.1,4.3,23.121428,113.362785
澄园茶坊,员村,572,0,124,0,4.3,23.118385,113.37484
表叔港式怀旧茶餐厅(员村店),员村,617,2,50,2.6,4.2,23.118292,113.37531
1982酒荟,员村,903,3.7,71,3.65,4.2,23.124779,113.36231
阳山大排档,澜石,466,3.65,40,3.55,4.5,22.994112,113.11452
永生海鲜酒楼,澜石,894,3.2,100,3.2,4.3,22.995277,113.10718
水库人家餐馆,澜石,500,3.65,50,3.65,3.8,22.99441,113.11462
渝湘楼,番禺广场,840,1.9,40,1.8,5,22.94741,113.386284
重庆农夫烤鱼,番禺广场,885,0,49,0,5,22.947857,113.38617
绿岛咖啡厅(广场西路店),番禺广场,320,2.8,67,2.9,4.6,22.939749,113.38969
滋粥楼顺德特色美食,番禺广场,334,4.1,93,4.2,4.5,22.939108,113.3932
龙庭湖石锅鱼猪肚鸡,番禺广场,801,3.65,43,3.6,4.4,22.947392,113.38685
兴记海鲜火锅,番禺广场,877,3.6,98,3.35,4.4,22.938803,113.39975
南岗喜宴,番禺广场,365,2.8,69,3,4.3,22.941221,113.388336
科尔海悦酒店（大堂星吧）,番禺广场,262,3.75,64,3.8,4.3,22.94114,113.3894
尚品,番禺广场,445,3.6,50,3.6,4.3,22.93855,113.389366
海峡情缘台湾涮涮锅(汇珑店),番禺广场,738,3.1,52,3.1,4.2,22.942198,113.384636
爱品客蛋糕(石基2店),番禺广场,932,3.45,68,3.45,4.2,22.943077,113.40085
肯德基(番禺东兴店),番禺广场,927,3,50,3,4.1,22.934341,113.3958
柏顿西餐厅(清河东路店),番禺广场,261,2.7,84,3.9,4.1,22.941135,113.389404
金湾原味椰子鸡,番禺广场,540,1.7,73,1.8,4,22.94663,113.392715
科尔海悦酒店-水晶厅,番禺广场,261,2.6,50,2.7,4,22.941135,113.389404
万州烤鱼,番禺广场,852,3.5,42,3.5,4,22.947578,113.386314
麦茜哥牛扒城(中银店),番禺广场,118,2.3,73,3.1,3.9,22.940798,113.39205
番禺大厦中餐厅,番禺广场,517,3,60,3,3.9,22.945578,113.388824
波记餐厅,番禺广场,627,2.8,63,2.8,3.9,22.94608,113.39588
瑞萱韩式自助烧烤,番禺广场,850,3.2,48,3.1,3.9,22.942898,113.38361
广州富力丽思卡尔顿酒店宴会厅,海心沙,620,4.5,1454,2.5,5,23.12208,113.33401
The Ascott Lounge,海心沙,804,3,76,3,5,23.124344,113.32914
佰鲜汇,海心沙,687,3.4,943,3.5,4.8,23.123316,113.32939
大诚苑燕翅鲍,海心沙,601,2.9,200,3,4.8,23.120249,113.32597
Hello Kitty咖啡厅,海心沙,692,4.5,100,4,4.8,23.123512,113.33113
广州富力丽思卡尔顿酒店-邱吉尔吧,海心沙,603,3.2,166,3.3,4.8,23.121908,113.333984
徐博馆养生私房菜,海心沙,561,3.4,242,3.5,4.7,23.119781,113.33566
富Top火锅城,海心沙,713,3.3,87,3.4,4.6,23.123135,113.32801
天吧,海心沙,705,3.3,228,3.4,4.6,23.123549,113.32979
四季酒店中庭酒吧,海心沙,687,3.4,229,3.5,4.6,23.123316,113.32939
广州塔-赏点点心,海心沙,561,4.1,67,4,4.5,23.112236,113.33099
海皇轩食府国门店,海心沙,987,2.8,88,3.1,4.5,23.124475,113.32521
江户日本料理,海心沙,625,3.5,272,3.7,4.5,23.122406,113.32835
Love Bay Cafe,海心沙,753,3.2,88,3.2,4.5,23.124062,113.331085
广州富力丽思卡尔顿酒店-丽轩中餐厅,海心沙,605,3.2,403,3.3,4.5,23.121908,113.33401
珍珠酒廊,海心沙,600,3.3,199,3.3,4.5,23.1219,113.33394
珠江新城致盛美食店（分店）,海心沙,840,3.2,104,3,4.4,23.121744,113.32425
愉粤轩,海心沙,703,4.2,432,4.55,4.4,23.123583,113.3302
意珍,海心沙,687,3.4,290,3.5,4.4,23.123316,113.32939
千寿司(珠江新城店),海心沙,870,4.1,101,4.15,4.4,23.121695,113.32385
大树吧,普君北路,721,3.8,42,3.8,5,23.0354,113.12254
誉宴(普君店),普君北路,281,3,54,3.2,4.8,23.031908,113.13142
渔板长,普君北路,914,4.2,82,4.05,4.8,23.029408,113.121544
好串韩式自助串烧,普君北路,250,3.2,79,3.5,4.7,23.032892,113.131645
柏龙德国餐厅,普君北路,724,3.4,80,3.4,4.7,23.03543,113.12253
贵人来泰国餐厅(普君新城店),普君北路,243,3.1,50,3.2,4.6,23.03289,113.13158
华之屋恒香食品有限公司佛平店,普君北路,922,3.75,48,3.8,4.6,23.041113,113.13292
后街唐厨,普君北路,717,3.3,72,3.4,4.5,23.036219,113.122925
Koyama小山日本料理,普君北路,610,3.2,202,3.3,4.5,23.035797,113.12386
第六频道红酒音乐,普君北路,702,3.45,55,3.5,4.5,23.033848,113.13615
味稻一号,普君北路,841,3.2,81,3.4,4.4,23.035519,113.12136
nikuya home 肉之家,普君北路,592,3.55,121,3.7,4.4,23.03585,113.12409
力樽寿司,普君北路,406,2.9,50,3,4.4,23.031021,113.1322
Hello Kitty Cafe,普君北路,762,3.2,53,3.4,4.4,23.03627,113.122475
探鱼(岭南新天地店),普君北路,565,4.35,74,4.5,4.3,23.035625,113.12427
太艮堡毋米粥,普君北路,774,3.2,100,3.4,4.3,23.03584,113.122154
芽荘越式料理,普君北路,747,3.2,79,3.3,4.3,23.035545,113.12233
波意利,普君北路,594,0,95,0,4.3,23.035475,113.12389
花甜汇,普君北路,584,3.95,42,4.05,4.3,23.035454,113.123985
Zen23采蝶餐吧,普君北路,622,4.25,77,4.45,4.2,23.036251,113.123985
绿雅居农庄,新城东,557,3.65,50,3.7,4.1,22.96601,113.1411
万达希尔顿酒店白云宴会厅,白云公园,733,4.5,800,4.5,5,23.181738,113.27502
明记砂锅粥,白云公园,999,0,47,0,5,23.196966,113.27723
聚酒,白云公园,866,3,80,3,4.8,23.180637,113.27449
元祖(白云万达店),白云公园,923,3,131,3.1,4.6,23.18017,113.27427
亚米餐厅,白云公园,570,3.3,68,3.4,4.5,23.189098,113.27189
嘴嘴香(万达广场店),白云公园,978,3,55,3,4.5,23.17994,113.27345
九毛九山西面馆(5号停机坪店),白云公园,593,2.4,51,2.3,4.4,23.186766,113.271675
海利来渔港,白云公园,896,2.8,86,2.5,4.4,23.18233,113.28359
百岁鱼黑鱼馆,白云公园,916,3.3,80,3.2,4.4,23.181046,113.27249
万达希尔顿酒店感趣自助餐厅,白云公园,724,3.5,211,3,4.3,23.181871,113.274864
湘亲门(万达广场店),白云公园,930,2.8,56,2.9,4.3,23.180466,113.27333
潮苑酒家,白云公园,720,3.1,95,3.1,4.3,23.186342,113.27051
汉和食府,白云公园,794,2.6,52,2.4,4.3,23.18809,113.26956
农夫石锅鱼(广州新市店),白云公园,919,2.9,71,2.9,4.3,23.196243,113.27696
一品泰泰越料理,白云公园,572,3.1,60,3.2,4.2,23.188047,113.271736
酝聚酒廊,白云公园,724,3.2,50,3.3,4.2,23.181871,113.274864
悦好味,白云公园,770,2.8,40,2.8,4.1,23.18719,113.28483
Vi-good味可,白云公园,585,4.5,40,4.5,4.1,23.188486,113.27164
黄记煌三汁焖锅(万达广场店),白云公园,946,3.2,73,3.2,4,23.180199,113.27357
大鹅湾酒楼,白云公园,347,3,57,3,4,23.185366,113.279205
SunnyPark咖啡店,市二宫,806,3.3,47,3.4,4.7,23.117369,113.28184
丹哥私房菜,市二宫,782,0,56,0,4.6,23.1077,113.27041
红酒大使,市二宫,980,2.9,225,2.9,4.6,23.12104,113.276276
新兴饭店(前进路),市二宫,977,2.6,73,2.4,4.5,23.106936,113.2839
黄鳝世家(同福东店),市二宫,504,2.1,50,1.8,4.5,23.112951,113.2714
狂赏,市二宫,508,3.85,64,3.65,4.5,23.113356,113.28109
聚三宝,市二宫,799,0,51,0,4.5,23.107882,113.2825
粤潮牛肉火锅店(江南大道店),市二宫,142,2.4,50,2.2,4.4,23.110981,113.2766
呼伦贝尔碳烤羊腿,市二宫,944,3.4,73,3.2,4.4,23.105476,113.27067
锅匠川粤品味,市二宫,552,4.3,58,4.1,4.3,23.114197,113.28123
聚友居美食店,市二宫,575,2.8,40,2.8,4.3,23.117378,113.27579
多口福,市二宫,754,3,40,2.9,4.3,23.118238,113.27969
蓝嘉贝手工曲奇,市二宫,394,3.1,64,3.1,4.3,23.109573,113.27883
红蝙蝠1988,市二宫,999,2.9,40,2.9,4.3,23.114565,113.26684
致青春茶餐厅,市二宫,29,2.6,43,2.8,4.2,23.112001,113.27612
點都德,市二宫,760,4.05,60,4.15,4.2,23.114737,113.283195
鲜入为煮肥牛海鲜火锅,市二宫,792,2.2,82,2.8,4.2,23.115826,113.269585
必胜客(宏宇广场店),市二宫,906,2.5,62,2.8,4.2,23.107252,113.26925
简单生活越南美食吧,市二宫,953,4.1,44,3.7,4.2,23.103659,113.27597
桃源西餐厅,市二宫,997,3.3,131,3.2,4.2,23.120996,113.27425
必胜客(棠下餐厅),科韵路,718,3.5,40,3.6,5,23.131699,113.38462
湘攸大碗菜,科韵路,891,3.45,48,3.45,5,23.133284,113.384315
美林会所-三江会,科韵路,833,0,500,0,5,23.120636,113.37754
程大龙虾,科韵路,678,3.2,107,3.1,4.8,23.129946,113.388214
湘滋味,科韵路,832,3.55,51,3.55,4.6,23.132273,113.38683
筑梦咖啡厅,科韵路,607,3,56,3.1,4.6,23.125067,113.38989
久久丫鸭颈王(骏景花园店),科韵路,994,2.9,40,2.8,4.5,23.12879,113.39289
金河半岛鲍翅酒家,科韵路,669,4,76,4.2,4.4,23.124428,113.390434
邦记牛杂火锅专门店(员村四横路分店),科韵路,806,3.65,50,3.55,4.4,23.120998,113.37758
老郭田鸡(员村店),科韵路,824,3.1,53,3,4.4,23.121822,113.376816
重庆烤活鱼石锅鱼,科韵路,943,3.45,40,3.45,4.4,23.133732,113.384636
兰桂坊粤泰美食,科韵路,860,2.7,86,3,4.3,23.132086,113.38794
三个菜,科韵路,654,2.2,44,2.1,4.3,23.125086,113.37756
车田情酒家,科韵路,812,3.1,66,3.2,4.3,23.131723,113.38023
二郎田鸡(棠下分店),科韵路,620,2.3,55,2.1,4.3,23.129433,113.38799
仙踪林(棠利大厦店),科韵路,815,2.7,46,2.8,4.3,23.132387,113.38587
御禾酒家,科韵路,416,2.8,64,2.8,4.2,23.12575,113.37991
山东老家饮食连锁NO.15,科韵路,809,3.3,71,3.8,4.2,23.1317,113.38024
棒!约翰(广州信息港店),科韵路,765,3.2,58,3.2,4.2,23.131157,113.38007
鸽王轩食鸽专门店,科韵路,688,3,48,3,4.2,23.123434,113.377525
广州市越秀区沸腾久久餐厅,纪念堂,763,0,45,0,5,23.131403,113.27023
洁荣美食,纪念堂,513,2.9,40,2.8,5,23.141226,113.27366
咖啡磨自助餐厅,纪念堂,969,3.5,225,4.5,5,23.145641,113.26476
大可以饭店(人民北店),纪念堂,817,3.3,85,3.6,4.8,23.14161,113.2627
小肥羊(小北店),纪念堂,922,2.5,81,2.7,4.7,23.141691,113.27802
香港羽寿司北京路店,纪念堂,992,3.9,70,3.8,4.7,23.130962,113.275406
转角遇到爱(起义路店),纪念堂,959,3,44,2.9,4.7,23.129644,113.27048
文记海鲜砂锅粥盘福分店,纪念堂,513,3.1,63,3,4.6,23.141867,113.26667
南国宴乐,纪念堂,939,2.8,60,3.3,4.6,23.145618,113.265305
中国大酒店-四季厅,纪念堂,932,3.3,177,3.4,4.6,23.146,113.26631
臻苑,纪念堂,786,2.7,40,3.5,4.6,23.131939,113.27327
CLK咖啡酒廊,纪念堂,699,3,64,3,4.6,23.135145,113.275764
和苑酒家(时代店),纪念堂,886,4.5,95,4.5,4.5,23.136927,113.27836
龙庭酒家,纪念堂,517,3.4,121,3.5,4.5,23.13606,113.27428
芝仕堡意粉餐厅(广大路店),纪念堂,764,3.95,48,3.95,4.5,23.132645,113.274124
和风中华居食屋,纪念堂,404,3.2,58,2.5,4.5,23.1415,113.26802
澳门街(东方店),纪念堂,972,2.7,81,2.8,4.4,23.145126,113.26392
合得人富林酒家(人民北路店),纪念堂,923,2.2,50,2.4,4.4,23.139732,113.26092
卡朋西餐(越富店),纪念堂,953,3.2,51,3.2,4.4,23.135447,113.261
聚谊阁,纪念堂,700,3.2,120,3,4.4,23.135126,113.275764
尚北八旗味道,汉溪长隆,343,0,54,0,5,22.997898,113.33974
白虎自助餐厅,汉溪长隆,879,3.4,240,3.9,4.4,23.007092,113.33522
帕图斯扒房,汉溪长隆,998,3.2,541,3.2,4.2,23.008018,113.33434
茂园,汉溪长隆,933,3,42,2.9,3.7,22.994772,113.32908
丰泽轩醉鹅,汉溪长隆,415,3.75,66,3.55,3.6,22.995638,113.33602
古堡餐厅,汉溪长隆,774,2.9,47,3,3.4,23.00628,113.33657
我家小厨,汉溪长隆,811,2.8,46,2.8,3.3,23.001696,113.344246
汉隆大酒楼,汉溪长隆,891,2.7,72,2.8,3.2,22.994675,113.32965
椰林餐厅,汉溪长隆,628,2.9,300,2.9,3.2,23.00495,113.33632
不差客,汉溪长隆,985,3.5,66,4.5,3,23.004309,113.34471
鳄鱼吧,汉溪长隆,995,2.9,102,2.9,2.9,23.007994,113.33437
海皇轩食府(广晟店),花城大道,678,3.2,70,3.4,5,23.130857,113.33021
汤工房（兴盛路店）,花城大道,617,0,83,0,5,23.12664,113.33699
广州富力丽思卡尔顿酒店宴会厅,花城大道,413,4.5,1454,2.5,5,23.12208,113.33401
The Ascott Lounge,花城大道,225,3,76,3,5,23.124344,113.32914
麦考利爱尔兰餐厅,花城大道,818,0,70,0,5,23.124573,113.32329
爱意意大利餐厅酒吧,花城大道,950,3.3,98,3.4,5,23.125628,113.340546
Ings Cafe(兴盛路店),花城大道,786,3.6,67,3.6,5,23.126211,113.33883
哈哈镜鸭脖子(广州总店),花城大道,787,3,40,3,4.9,23.126003,113.33888
春夏秋冬韩国料理,花城大道,632,3.3,85,3.2,4.8,23.126814,113.33709
香天下清油火锅(珠江新城店),花城大道,784,4.2,99,4.5,4.8,23.12379,113.33887
富田菊铁板皇尚料理(富力盈信大厦店),花城大道,755,3.4,130,3.5,4.8,23.131027,113.32824
佰鲜汇,花城大道,257,3.4,943,3.5,4.8,23.123316,113.32939
希望日本料理,花城大道,855,3.1,230,3.2,4.8,23.122934,113.32317
大诚苑燕翅鲍,花城大道,745,2.9,200,3,4.8,23.120249,113.32597
Hello Kitty咖啡厅,花城大道,147,4.5,100,4,4.8,23.123512,113.33113
广州富力丽思卡尔顿酒店-邱吉尔吧,花城大道,426,3.2,166,3.3,4.8,23.121908,113.333984
徐博馆养生私房菜,花城大道,718,3.4,242,3.5,4.7,23.119781,113.33566
稻菊日本料理,花城大道,472,3.4,115,3.5,4.7,23.127445,113.33494
食了来,花城大道,765,3.1,61,3,4.7,23.126566,113.338524
幸福和房,花城大道,869,3.9,197,3.9,4.7,23.126554,113.32299
HONEY B(中大店),中大,464,0.8,40,0.8,5,23.097746,113.30406
川湘阁,中大,656,3.6,46,3.6,4.7,23.097712,113.30594
都德(凤凰楼店),中大,525,4.15,59,4.25,4.5,23.09405,113.29733
旺金鸽酒楼江怡路店,中大,882,3.7,66,3.65,4.4,23.106228,113.300095
食冒堂(中大轻纺城店),中大,621,3.55,52,3.55,4.4,23.0944,113.30391
千味涮(轻纺城店),中大,621,3.3,69,3.3,4.3,23.09441,113.30392
红头船美食坊(新港西路店),中大,807,1.9,82,2,4.1,23.101503,113.292465
旺金鸽驰名药膳鸽汤雅豪乐店,中大,884,2.8,40,2.8,4.1,23.106253,113.300095
茗园酒家,中大,582,3.05,60,3.2,4.1,23.101082,113.29473
红头船美食坊(怡乐路店),中大,754,2.7,82,2.6,4,23.104937,113.29797
必胜客(中大科技园餐厅),中大,258,2.7,65,2.9,4,23.099287,113.29727
川渝四川特色美食店,中大,487,2.9,42,2.8,3.9,23.100168,113.29524
同升同喜,中大,926,3.7,54,3.5,3.9,23.106548,113.29819
金源韩国料理,中大,670,3,49,2.9,3.8,23.09777,113.30609
天水素食厨房,中大,455,2.4,70,4,3.8,23.097736,113.30397
康乐园,中大,160,2.4,53,2.5,3.7,23.099669,113.30008
天茂海鲜酒家(海珠店),中大,577,3,52,3,3.7,23.100882,113.294655
大欢喜饭店(江怡路店),中大,893,2.5,41,2,3.7,23.10618,113.301315
仙踪林(中大科技园店),中大,265,3,45,3.2,3.7,23.09934,113.297226
大头仔茶餐厅,中大,77,2.9,60,2.9,3.6,23.09807,113.29885
明记砂锅粥,白云文化广场,497,0,47,0,5,23.196966,113.27723
湖北家常菜,白云文化广场,969,3.5,74,3.5,4.7,23.198387,113.272835
澳门街(白云店),白云文化广场,515,2.7,91,3.2,4.5,23.192904,113.28557
甜心啡语(齐富路店),白云文化广场,455,3.5,40,3.6,4.4,23.199816,113.27994
潮式汕头福合埕牛肉火锅店,白云文化广场,812,3.7,60,3.65,4.3,23.203192,113.279724
农夫石锅鱼(广州新市店),白云文化广场,516,2.9,71,2.9,4.3,23.196243,113.27696
赤焰烤吧,白云文化广场,982,3.35,51,3.35,4.3,23.19748,113.27251
金唐海鲜酒家,白云文化广场,611,3.2,53,3.4,4.2,23.200949,113.27899
三姐川菜馆,白云文化广场,954,3.65,40,3.6,4.2,23.197329,113.27276
阿曼尼酒吧,白云文化广场,531,2.9,303,2.9,4.1,23.199528,113.27829
潮韵海鲜酒家,白云文化广场,581,3,89,3,4,23.19974,113.27784
Juice Language 汁言片语,白云文化广场,512,3.8,49,3.95,4,23.200335,113.279816
岭南东方酒店北座,白云文化广场,441,4.5,500,4.5,4,23.196104,113.28634
家和养生食府,白云文化广场,793,3.35,61,3.55,3.9,23.189198,113.28355
麻辣小龙虾,白云文化广场,513,3.1,63,3,3.9,23.196571,113.277016
狮头鹅美食店,白云文化广场,1000,3.4,42,3.4,3.9,23.200888,113.27366
顺德渔村,白云文化广场,996,2.9,70,2.9,3.5,23.200235,113.273315
柒品川菜馆,白云文化广场,608,3.5,46,3.5,3.4,23.196346,113.27606
米走鸡饭店(云城东路总店),白云文化广场,710,2.5,57,2.3,3.3,23.200338,113.28731
紫缘轩私房菜,白云文化广场,965,0,60,0,3.2,23.188673,113.286736
渔板长,同济路,853,4.2,82,4.05,4.8,23.029408,113.121544
盈盛,同济路,570,2.8,88,2.8,4.8,23.025103,113.12049
汫田日本料理,同济路,895,3.2,55,3.2,4.7,23.016703,113.114174
其乐宫,同济路,670,3.3,79,3.3,4.6,23.030725,113.11558
三养堂(垂虹路店),同济路,593,3,50,3,4.6,23.02685,113.120255
好巴食文苑总店,同济路,690,1.9,44,2,4.6,23.029589,113.11913
坏猴子酒吧,同济路,225,2.8,45,2.4,4.6,23.0227,113.1148
今品酒业红酒馆,同济路,649,2.9,50,2.9,4.6,23.028536,113.11975
餸朝海鲜酒家(简村店),同济路,557,3.2,52,3.3,4.5,23.020264,113.11245
蒸坊黄鳝饭私房菜,同济路,501,4.5,42,4.5,4.5,23.02687,113.11925
杯子红西餐厅(汾江店),同济路,658,2.8,60,2.9,4.5,23.029972,113.11195
名仕阁美食公馆,同济路,657,4.5,50,4.5,4.5,23.02989,113.1118
渝香小居,同济路,931,2.9,40,2.8,4.5,23.020271,113.12265
清心轩,同济路,514,3.65,47,3.8,4.5,23.024982,113.10991
御海湾大酒楼,同济路,659,1.8,62,2.5,4.4,23.024511,113.121376
鲍国演义(禅城店),同济路,670,3.2,253,3.2,4.4,23.030758,113.11483
小小火锅,同济路,399,3.6,42,3.45,4.4,23.027254,113.117714
珍妮花西餐,同济路,669,4.5,54,4.5,4.4,23.03074,113.114815
平沢寿司店,同济路,800,3,62,3,4.4,23.025105,113.12275
馥澜吧,同济路,856,3.2,45,3,4.4,23.032352,113.1138
盛歌Club,东圃,892,4.5,63,4.5,5,23.123701,113.40689
蓝带酒屋,东圃,873,4.5,60,4.5,5,23.123549,113.407074
祥记猪肚子（东圃美食街店）,东圃,747,3,50,3,4.5,23.122383,113.40922
拾芳苑茶点居(东圃大马路店),东圃,859,3.8,43,3.85,4.4,23.123398,113.406876
南酥香,东圃,922,3.55,70,3.45,4.1,23.112883,113.416534
雪锅新语,东圃,873,2,51,2,4,23.12355,113.407074
木桶饭(东圃二分店),东圃,855,4.5,50,3.5,4,23.123394,113.40899
美林农庄,东圃,580,2,42,3.5,3.8,23.115982,113.413734
三毛川菜馆,东圃,903,3,83,3.1,3.7,23.123814,113.40915
兄弟厨房(东圃店),东圃,173,3.45,43,3.45,3,23.117247,113.40759
台湾雪锅新语(东圃),东圃,873,0,68,0,-1,23.12355,113.407074
香港湾仔甜品,白云大道北,763,0,56,0,5,23.226732,113.31232
潮海渔舫,白云大道北,675,3.9,59,3.1,4.7,23.23307,113.30928
美好食光,白云大道北,694,3.8,43,3.85,4.6,23.224743,113.31057
好客之家(丛云路店),白云大道北,903,3.2,58,3.1,4.4,23.22028,113.304634
重庆人家,白云大道北,583,3,42,3,4.3,23.223272,113.306305
猪肚包鸡(白云大道北辅路),白云大道北,430,3,55,3,4.3,23.224983,113.303085
许个愿吧马卡龙,白云大道北,862,0,62,0,4.3,23.225628,113.31295
皇悦海鲜酒家,白云大道北,780,2.3,57,2.4,4.2,23.22812,113.29743
皇鸽饭屋(白云大道北店),白云大道北,429,2.9,65,2.1,4.2,23.22484,113.30342
湘西湘西,白云大道北,599,3,41,3,4.2,23.226328,113.299644
裕竹渔家,白云大道北,854,3.2,46,3.1,4.2,23.223616,113.31161
淼鑫猪肚鸡(永泰店),白云大道北,877,3.65,56,3.65,4.1,23.225578,113.31308
广州酒家利口福(白云大道北店),白云大道北,179,3.75,57,3.75,4,23.228233,113.303314
朝天门(同泰路店),白云大道北,632,3.4,60,3,4,23.226467,113.31089
龙马蒸神海鲜火锅酒家,白云大道北,648,3.7,78,3.7,4,23.226402,113.31103
唐苑酒家(白云店),白云大道北,556,3.3,97,4,3.9,23.224762,113.30132
爱尚烤活鱼,白云大道北,782,3.7,51,3.65,3.9,23.227098,113.31259
乡下农家美食园,白云大道北,689,3.55,49,3.5,3.8,23.233364,113.3091
台山明珠黄鳝饭,白云大道北,469,2.1,57,1.7,3.8,23.224237,113.30429
一鼎红香辣蟹(泰兴路),白云大道北,850,3.7,47,3.75,3.8,23.224169,113.312
Angela Cake(赤岗店),赤岗,40,3.6,77,3.6,5,23.102398,113.34181
WE烧烤餐厅,赤岗,858,3.2,50,3.4,4.9,23.106342,113.33454
简简家厨,赤岗,282,3.55,64,3.4,4.8,23.102009,113.3388
香天下清油火锅,赤岗,444,4.1,97,4.5,4.7,23.10158,113.33725
洞庭土菜旗舰店(赤岗店),赤岗,285,3.3,200,3.4,4.4,23.099566,113.34121
同湘会(直营第12分店),赤岗,305,3.4,62,3.4,4.4,23.103662,113.34403
海记汕头牛肉(新港中路店),赤岗,600,3,68,3,4.4,23.102304,113.33569
湘水名居,赤岗,768,3.45,46,3.45,4.3,23.095203,113.34174
心动西餐厅,赤岗,869,2.1,86,3,4.3,23.1058,113.33407
鸿盛食府,赤岗,954,3,49,3,4.3,23.093649,113.34315
渝风楼重庆风味酒楼(赤岗店),赤岗,954,3.3,61,3.3,4.2,23.101763,113.33224
金鸽苑饭店,赤岗,487,0,58,0,4.2,23.098095,113.33964
御信客家王赤岗分店,赤岗,803,2.5,52,2.5,4.1,23.104591,113.33418
琶洲酒店艺术咖啡吧,赤岗,456,3.2,45,3.25,4.1,23.10486,113.34487
随园大排档,赤岗,333,2.9,143,3,4,23.10503,113.34231
清心鸡沙田乳鸽店(赤岗总店),赤岗,969,2.2,60,2.2,4,23.096388,113.334404
淼鑫猪肚鸡(海珠旗舰店),赤岗,510,0,62,0,4,23.102156,113.33657
湘攸木桶饭,赤岗,977,3.45,47,3.45,4,23.093458,113.34323
玫瑰园意式西餐厅,赤岗,813,3.2,52,3.2,3.9,23.100574,113.333786
陕西私房菜,赤岗,869,1.9,47,2.4,3.9,23.1058,113.33407
香港湾仔甜品,永泰,75,0,56,0,5,23.226732,113.31232
潮海渔舫,永泰,837,3.9,59,3.1,4.7,23.23307,113.30928
美好食光,永泰,293,3.8,43,3.85,4.6,23.224743,113.31057
重庆人家,永泰,752,3,42,3,4.3,23.223272,113.306305
许个愿吧马卡龙,永泰,75,0,62,0,4.3,23.225628,113.31295
皇鸽饭屋(白云大道北店),永泰,981,2.9,65,2.1,4.2,23.22484,113.30342
裕竹渔家,永泰,326,3.2,46,3.1,4.2,23.223616,113.31161
淼鑫猪肚鸡(永泰店),永泰,83,3.65,56,3.65,4.1,23.225578,113.31308
朝天门(同泰路店),永泰,205,3.4,60,3,4,23.226467,113.31089
龙马蒸神海鲜火锅酒家,永泰,190,3.7,78,3.7,4,23.226402,113.31103
甜心客艺术蛋糕店(永泰店),永泰,485,3.7,50,3.7,4,23.224386,113.317154
爱尚烤活鱼,永泰,92,3.7,51,3.65,3.9,23.227098,113.31259
乡下农家美食园,永泰,875,3.55,49,3.5,3.8,23.233364,113.3091
台山明珠黄鳝饭,永泰,908,2.1,57,1.7,3.8,23.224237,113.30429
一鼎红香辣蟹(泰兴路),永泰,254,3.7,47,3.75,3.8,23.224169,113.312
永平信记中餐厅,永泰,467,2.1,103,2.4,3.6,23.226562,113.30833
邓妈餐厅,永泰,329,3.6,44,3.6,3.6,23.228382,113.310585
金华安大酒楼(白云店),永泰,945,2.7,77,2.5,3.3,23.22528,113.30371
顺记渔庄,永泰,208,2.9,55,2.9,3.2,23.224754,113.31176
叁千代回转寿司料理,永泰,130,3,61,3,2.8,23.226034,113.31165
王品台塑牛排(环市东路店),淘金,518,4.5,342,4.5,5,23.144844,113.28863
广州市越秀区晓薇西餐厅,淘金,604,3.65,70,3.65,5,23.13756,113.29121
IMissYouLounge,淘金,440,3,53,2.9,5,23.14283,113.28883
银翔酒家,淘金,975,4.5,88,4.5,5,23.143164,113.302666
爱来吧面点,淘金,880,0.8,43,1.8,5,23.142694,113.28453
HUNTING亨庭特调鸡尾酒沙发馆,淘金,291,3.4,50,3.4,5,23.1417,113.2905
潮福轩酒家,淘金,501,2.7,130,2.5,4.9,23.13942,113.29651
小街风情意大利西餐厅,淘金,256,4.1,122,4.1,4.8,23.143082,113.290665
板井寿司,淘金,383,4.35,88,4.45,4.8,23.145725,113.29494
1920咖啡厅(建设六马路店),淘金,581,3.1,141,3.6,4.8,23.137726,113.29137
必胜客(区庄店),淘金,718,2.4,59,2,4.7,23.143139,113.30015
吉兆手握寿司(保利中环店),淘金,555,0,83,0,4.7,23.144205,113.287964
东山日本料理,淘金,192,0,119,0,4.7,23.142994,113.29499
八森町居酒屋(淘金店),淘金,761,4.1,72,3.8,4.7,23.149446,113.29441
袍哥,淘金,421,4.6,104,4.45,4.7,23.139788,113.2905
白云宾馆意大利餐厅,淘金,138,3.5,110,3.5,4.7,23.143808,113.29252
中心皇冠假日酒店大堂酒廊,淘金,488,3.2,152,3.3,4.7,23.144743,113.28891
兰泉红酒庄(淘金东路),淘金,916,2.9,42,2.9,4.7,23.148518,113.299484
鹅仔饭店第五分店,淘金,730,3.2,57,3.2,4.6,23.147505,113.28827
云顶阁旋转餐厅,淘金,717,3.6,241,3.6,4.6,23.144766,113.28649
黑绵羊主题餐吧,横沙,485,3.7,43,3.65,4.4,23.160625,113.21654
湘村馆(金沙洲店),横沙,346,3.1,64,3.1,4.3,23.165018,113.21642
前奏音乐咖啡,横沙,226,3.1,75,3,4.3,23.162148,113.21456
星州大椰(金沙洲店),横沙,594,3.1,55,3.2,4.2,23.160631,113.21796
文华西饼,横沙,364,3.7,50,3.7,4.1,23.160952,113.211555
东北饺子馆(环洲三路店),横沙,141,3.45,50,3.45,3.8,23.16255,113.21319
金汇景海鲜酒家,横沙,814,2.1,46,2.6,3.8,23.166466,113.22072
湖北佬,横沙,197,3.5,49,3.45,3.7,23.162346,113.21437
千骨味海鲜肥牛自助火锅,横沙,113,0,59,0,3.6,23.1638,113.2144
枫情阁西餐厅,横沙,139,3,43,3,3.4,23.163984,113.214645
羊之道-蒙古美食（金沙洲店）,横沙,323,3.3,92,3.3,3.4,23.16145,113.21513
金品居,横沙,966,2.8,48,2.8,3.3,23.155558,113.210335
老坛酸菜鱼,横沙,484,3.25,43,3.5,3.3,23.166483,113.21703
悦香烧腊,横沙,348,3.4,40,3.4,3,23.16107,113.21165
金顺景酒楼,横沙,346,3.1,59,3.2,2.7,23.16501,113.216415
六小福猪杂粥 金沙洲店,横沙,726,2.7,64,2.7,2.5,23.157957,113.21015
富粥一世,横沙,849,2.9,58,2.8,2,23.166836,113.22093
润汇酒家,横沙,559,0,55,0,1,23.161024,113.21785
2233韩国料理,横沙,144,0,58,0,-1,23.164007,113.21469
平安堂凉茶(总统大酒店东),华师,928,0,40,0,5,23.139423,113.346664
纳西腊排骨火锅,华师,241,3.9,53,3,4.8,23.144518,113.35046
同湘会(直营第4分店),华师,487,2.8,60,2.9,4.6,23.147297,113.34722
北雪湘园(五山店),华师,954,2.3,63,2.3,4.6,23.154642,113.353905
蜀风流火锅城(石牌店),华师,707,2.8,65,2.3,4.6,23.140388,113.34921
丽柏国际酒店中餐厅,华师,731,3.3,50,3.4,4.6,23.142357,113.3461
名人汇西餐厅,华师,763,3,82,3,4.6,23.141245,113.34677
潮源农庄,华师,241,2.7,47,2.7,4.5,23.144512,113.350464
湘之园酒家(天河北店),华师,500,2.7,41,2.6,4.5,23.147984,113.347336
比格兄弟餐吧,华师,143,3.85,66,4,4.5,23.145426,113.3508
阿福海产,华师,706,4.4,58,4.35,4.5,23.150293,113.34651
绅吧LORD,华师,121,4,84,4,4.5,23.145893,113.350746
韩啦啦韩国年糕火锅,华师,966,0,45,0,4.5,23.139908,113.34542
万岁寿司(天河店),华师,840,2.4,72,2.7,4.5,23.140907,113.34606
彝寨米线(石牌东路店),华师,873,0,60,0,4.5,23.13865,113.34976
唐寿司,华师,923,3.8,40,3.1,4.5,23.140106,113.3458
一级棒美食大本营,华师,843,3.8,70,4,4.5,23.140867,113.34606
峰乐蛋糕(峰乐知心),华师,956,3.9,43,2,4.5,23.137903,113.3497
蒙肥羊自助餐厅(岗顶店),华师,923,0,45,0,4.4,23.140106,113.3458
维罗纳意大利餐厅酒吧,华师,538,3.5,134,3.5,4.4,23.148785,113.34736
御品膳食府,宝岗大道,759,2.5,70,3,5,23.098982,113.27693
红芥末寿司店,宝岗大道,986,3.3,55,3,5,23.100574,113.279305
萌记美食,宝岗大道,517,4.5,40,4.5,5,23.09505,113.280136
湘缘家常菜馆,宝岗大道,882,1.9,45,1.9,5,23.08466,113.2789
潮公馆潮州食府,宝岗大道,831,3.65,40,3.65,5,23.097,113.28238
这夜···,宝岗大道,877,2.8,500,2.7,5,23.09117,113.28466
林海土蜂蜜(礼岗路分店),宝岗大道,626,0,70,0,4.8,23.093094,113.282196
维拉酒吧,宝岗大道,744,0,65,0,4.8,23.098858,113.27549
广州酒家(广州酒家20),宝岗大道,442,0,85,0,4.7,23.09439,113.279755
亨宝挪威三文鱼,宝岗大道,935,3.2,60,3.2,4.7,23.097616,113.269165
九毛九山西面馆(燕汇广场店),宝岗大道,866,0,51,0,4.6,23.088509,113.283615
挪威三文鱼,宝岗大道,534,4.1,42,3.95,4.6,23.094112,113.280945
玖井日式料理店,宝岗大道,734,4.2,42,4.15,4.6,23.098747,113.2753
粉好美食,宝岗大道,873,3,40,2.9,4.6,23.085426,113.28051
猫之时间,宝岗大道,879,4.25,46,4.25,4.6,23.100094,113.27593
江湖边·小生活,宝岗大道,946,2.7,50,2.8,4.6,23.100609,113.2775
奇异酒吧,宝岗大道,735,2.9,60,2.9,4.6,23.090027,113.269356
LA CAFFERIA,宝岗大道,826,3.95,41,3.9,4.6,23.095947,113.28313
Masa玛莎,宝岗大道,875,2.8,50,2.8,4.6,23.099733,113.27858
178Cooking,宝岗大道,750,4.2,148,4,4.6,23.096651,113.28166
大东北饺子馆(萝岗店),香雪,616,2.4,43,2.4,5,23.181597,113.51255
有趣美食农庄,香雪,998,3,150,3,4.1,23.186026,113.51303
品粤轩,香雪,761,3.45,76,3.65,3.8,23.18331,113.50197
罗纪粥店,燕塘,96,2.8,40,2.8,5,23.165127,113.33437
阿信客家土菜(沙太店),燕塘,536,4.05,56,4.2,4.7,23.170416,113.33206
识材知味,燕塘,893,4.05,60,3.95,4.7,23.160069,113.34
豪华脆肉鲩,燕塘,835,3.2,61,3.2,4.6,23.160728,113.33993
家福潮汕鱼仔,燕塘,822,0,66,0,4.5,23.160858,113.33989
毛家饭店(粤垦路店),燕塘,990,4.3,56,4.3,4.4,23.159084,113.34023
泰爷门,燕塘,650,3.5,62,2.4,4.4,23.167849,113.328026
木棉花酒店餐厅,燕塘,833,3,40,3,4.3,23.161245,113.32769
燕岭大厦中餐厅,燕塘,159,2.7,55,3.1,4.1,23.164946,113.332924
文胜酒家,燕塘,674,3.1,54,3,4.1,23.168024,113.32784
海记汕头风味牛肉店(陶庄店),燕塘,621,3.2,71,3.2,4.1,23.167894,113.32834
新保挪威三文鱼(燕塘店),燕塘,200,3.2,46,3.2,4.1,23.167408,113.33518
9号码头,燕塘,991,2.9,50,2.9,4.1,23.15907,113.34022
十里川香,燕塘,853,3.2,54,3.1,4.1,23.16031,113.33972
嘉苑西餐厅,燕塘,978,3.3,626,3.3,4.1,23.157183,113.33495
海门鱼仔店(燕都路),燕塘,124,2.5,88,2.4,4,23.164839,113.33424
玖珑吧时尚涮涮锅,燕塘,146,0,50,0,4,23.16689,113.33503
瑞记湛江鸡饭店(粤垦店),燕塘,844,2.2,56,2.1,4,23.160402,113.3397
阿乙潮汕菜,燕塘,230,3.7,57,3.35,4,23.164795,113.33592
万川人家,燕塘,482,4.5,50,4.5,4,23.16454,113.329575
美心西饼(广州南站店),广州南站,31,3,63,2.9,4.2,22.995596,113.27688
利口福,广州南站,357,3.4,63,3.4,4,22.99309,113.27428
湘味小厨,广州南站,742,3.45,63,3.45,4,23.001991,113.27636
味千拉面(广州南站店),广州南站,18,2.8,49,2.9,3.8,22.995485,113.27677
鸿丰酒楼,广州南站,710,2.9,60,2.9,3.8,23.001707,113.2765
田心饭店,广州南站,954,2.9,44,2.9,3.6,22.987782,113.27234
UD COFFEE,广州南站,18,3.5,43,3.6,3.2,22.995485,113.27677
铂尔曼恬园中餐厅,机场南,325,3.2,140,3.7,4.5,23.395178,113.31019
星巴克(白云国际机场二店),机场南,69,3.8,41,3.8,4.3,23.392757,113.30888
大椰汤,机场南,411,3.35,90,3.35,4,23.396042,113.30961
U8风味西餐厅,机场南,320,2.4,362,3.1,3.7,23.39514,113.31016
星巴克(白云国际机场三店),机场南,26,2.9,40,2.8,3.6,23.392576,113.309364
金龙国际美食城,机场南,82,2.6,62,2.9,3.3,23.392002,113.30867
伊示雅咖啡,机场南,364,3.45,40,3.55,3.1,23.393623,113.3061
生利惠龙餐厅,机场南,147,2.7,48,2.7,3,23.393639,113.3097
逸臣咖啡,机场南,247,1.8,62,2.6,3,23.391682,113.31171
美乐家,机场南,82,2.2,49,2.2,2.9,23.392002,113.30867
大渔(白云机场店),机场南,82,3.2,60,3.2,2.9,23.392,113.30867
伊示雅咖啡厅,机场南,363,3.3,85,3.35,2.7,23.393642,113.306114
百怡咖啡(白云机场店),机场南,466,3.3,57,3.3,2.5,23.38869,113.31163
逸臣咖啡厅(B区),机场南,463,3.1,66,3.2,2.5,23.39624,113.30778
天赐楼牛肉拉面,机场南,654,3.2,60,3.2,2.4,23.397635,113.3122
仙踪林(机场店),机场南,9,2.1,54,2.2,2.3,23.392273,113.30944
天锡楼,机场南,82,2.8,40,2.8,2.2,23.392012,113.30867
上岛咖啡(机场店),机场南,249,2.7,60,2.7,2.2,23.391697,113.31173
唯记面馆,机场南,30,3.15,58,3.25,2.1,23.39261,113.30933
唯忆面馆(A区),机场南,248,2.6,59,2.6,1.9,23.391685,113.31172
三泰冷冻品,如意坊,486,3.6,100,3.6,4.5,23.118212,113.242096
德嘉商贸(黄沙店),如意坊,999,2.9,40,2.9,4.5,23.114374,113.245125
定益美食店,如意坊,742,2.9,40,2.8,4.5,23.119759,113.24539
利口福(南岸路店),如意坊,925,3.2,40,3.2,4.3,23.12801,113.242584
唐荔园,如意坊,373,2.8,76,3.8,4.2,23.124086,113.23811
满园春美食馆,如意坊,667,2.3,50,3,4.2,23.124914,113.24289
面家丽的烧味(祈兴苑美味店),如意坊,950,3,42,3.1,4.2,23.122286,113.247345
炭炉鸡煲,如意坊,725,3.45,54,3.05,4.1,23.120016,113.24526
大嫂镬仔(逢源路店),如意坊,858,3,74,3,4,23.12327,113.24613
泮溪酒家,如意坊,855,2.8,67,3.5,3.9,23.127192,113.242744
101,如意坊,908,3,42,3,3.9,23.124235,113.24624
冰之恋美食店,如意坊,638,2.6,40,2.2,3.9,23.12266,113.24409
食养坊(龙津西店),如意坊,443,2.7,59,2.9,3.9,23.124393,113.23993
teahub,如意坊,994,0,58,0,3.9,23.117296,113.24719
誉点茶荟,如意坊,963,3.4,45,3.6,3.8,23.12622,113.2455
莫大毛(泮塘店),如意坊,952,2.6,41,2.6,3.7,23.128073,113.243
大乡里食店,如意坊,654,2,71,2,3.6,23.119984,113.24456
聚喜私厨,如意坊,998,3.35,82,3.5,3.6,23.129389,113.23563
湛记餐馆,如意坊,923,4.5,40,3,3.5,23.118149,113.246796
大塘烧鹅(多宝路店),如意坊,451,2.6,40,2.6,3.4,23.122784,113.24202
猫大厨,海珠广场,650,3.1,55,3.9,5,23.127056,113.272125
惬意生活休闲吧,海珠广场,939,4.5,50,3,5,23.127827,113.278015
天泉茶行,海珠广场,169,2.9,40,2.9,5,23.12103,113.27395
海滨绿岛酒廊,海珠广场,897,2.8,200,2.9,5,23.121561,113.28107
乐厨坊(文明路店),海珠广场,947,2.8,60,2.8,4.8,23.128181,113.27762
银灯食府,海珠广场,126,3,63,3.3,4.7,23.122284,113.271904
江南果道餐饮,海珠广场,732,0,53,0,4.7,23.12695,113.27581
转角遇到爱(起义路店),海珠广场,956,3,44,2.9,4.7,23.129644,113.27048
四季尚食,海珠广场,642,4.2,58,3.95,4.7,23.126963,113.27181
八万里旅行网(广州店),海珠广场,483,0,189,0,4.7,23.12547,113.27138
顺和刺身荟,海珠广场,995,3,70,3,4.7,23.12863,113.27774
Grand Bar,海珠广场,568,2.4,70,2.4,4.7,23.124968,113.27606
富临食府(惠福东路),海珠广场,639,2.5,56,2.1,4.6,23.12692,113.271614
达芬西餐厅,海珠广场,685,3.3,45,3.3,4.6,23.126736,113.27526
御前十七,海珠广场,645,4.5,77,4.2,4.6,23.12438,113.27758
白熊咖啡馆,海珠广场,987,4.3,43,4.3,4.6,23.12911,113.27671
猫屎咖啡(光明广场店),海珠广场,777,3.2,77,3.2,4.6,23.127989,113.27414
红酒大使,海珠广场,407,2.9,225,2.9,4.6,23.12104,113.276276
泰地道泰式料理(惠福东路),海珠广场,665,3,85,3.3,4.5,23.127129,113.27324
龚记牛骨牛杂屋(北京路旗舰店),海珠广场,871,3.85,63,3.9,4.5,23.128286,113.275955
平安堂凉茶(总统大酒店东),岗顶,134,0,40,0,5,23.139423,113.346664
纳西腊排骨火锅,岗顶,624,3.9,53,3,4.8,23.144518,113.35046
Ebony,岗顶,666,3.5,240,3.5,4.8,23.140554,113.33963
SootheDS苏芙吧,岗顶,974,3.3,87,3.2,4.8,23.14716,113.3399
翠园,岗顶,750,3.4,130,3.7,4.7,23.139614,113.33888
武藏日本料理,岗顶,823,3,137,3,4.7,23.14658,113.34148
元気寿司,岗顶,857,0,92,0,4.7,23.139502,113.337845
The Loft,岗顶,670,3,238,3,4.7,23.140553,113.33959
同湘会(直营第4分店),岗顶,759,2.8,60,2.9,4.6,23.147297,113.34722
名人汇西餐厅,岗顶,100,3,82,3,4.6,23.141245,113.34677
蜀风流火锅城(石牌店),岗顶,313,2.8,65,2.3,4.6,23.140388,113.34921
丽柏国际酒店中餐厅,岗顶,202,3.3,50,3.4,4.6,23.142357,113.3461
韩啦啦韩国年糕火锅,岗顶,102,0,45,0,4.5,23.139908,113.34542
万岁寿司(天河店),岗顶,41,2.4,72,2.7,4.5,23.140907,113.34606
湘之园酒家(天河北店),岗顶,836,2.7,41,2.6,4.5,23.147984,113.347336
潮源农庄,岗顶,623,2.7,47,2.7,4.5,23.144512,113.350464
千味涮(太古汇店),岗顶,750,2.6,70,2.6,4.5,23.139614,113.33888
唐寿司,岗顶,60,3.8,40,3.1,4.5,23.140106,113.3458
比格兄弟餐吧,岗顶,721,3.85,66,4,4.5,23.145426,113.3508
彝寨米线(石牌东路店),岗顶,424,0,60,0,4.5,23.13865,113.34976
甜麦麦蛋糕坊(总店),三溪,595,2.9,88,2.9,5,23.114569,113.41888
聚味轩中餐厅,三溪,891,3.4,80,3.7,4.9,23.11806,113.424194
桃源食府,三溪,456,3.35,50,3.25,4.5,23.113949,113.420395
宜客乐西餐厅,三溪,907,3.8,180,3.5,4.5,23.118168,113.42438
东北福宴,三溪,579,3.65,41,3.5,4.5,23.114864,113.41969
广州酒家(利口福三溪站分店),三溪,71,3.1,60,3.2,4.2,23.110107,113.421616
南酥香,三溪,659,3.55,70,3.45,4.1,23.112883,113.416534
宝园酒家,三溪,167,3.35,69,3.9,3.1,23.1112,113.42355
乐乐轩蛋糕坊,三溪,588,0,88,0,-1,23.114292,113.41861
顺和挪威三文鱼(瑞宝店),南洲,606,4.5,50,4.5,5,23.073927,113.30034
聚夜清吧,南洲,966,0,58,0,5,23.076866,113.298676
惠来羊肉,南洲,763,3.65,54,3.6,4.9,23.073185,113.29779
EspressoClub,南洲,310,3.4,48,3.4,4.8,23.07216,113.30255
聚福轩川菜,南洲,980,3.2,41,3,4.6,23.078075,113.300705
必胜宅急送(爱都新天地店),南洲,364,4,49,3.85,4.6,23.073204,113.30448
粤膳和养生坊(南洲店),南洲,828,3.1,50,3.1,4.6,23.076159,113.3088
淼鑫猪肚鸡,南洲,848,3.7,54,3.65,4.5,23.077347,113.306305
玉林串串香(东晓南店),南洲,814,0,40,0,4.5,23.077215,113.3036
老湘村(南洲北路店),南洲,841,3.75,48,3.8,4.4,23.077284,113.302444
客家楼(南洲总店),南洲,910,3.35,51,3.35,4.4,23.07715,113.30856
香豆咖啡,南洲,633,3.1,43,3,4.4,23.074806,113.30756
Travel 旅营餐吧,南洲,337,4.15,51,4.1,4.3,23.070274,113.30764
广州酒家(利口福侨港店),南洲,960,3.2,100,3.2,4.3,23.076141,113.29785
重庆烤鱼(晓港路店),南洲,636,3,40,3,4.3,23.073538,113.29954
聚汇坊猪肚鸡(东晓南路店),南洲,977,2.2,80,2.3,4.3,23.0781,113.300835
重庆刘家火锅(南州店),南洲,844,2.8,40,2.8,4.3,23.07735,113.30609
焖尚品(东晓南店),南洲,635,0,43,0,4.3,23.073574,113.29958
小肥羊(盈丰路店),南洲,641,3.3,81,3.3,4.2,23.075602,113.30321
大茶饭,南洲,600,3.9,69,3.6,4.2,23.074718,113.30166
王品台塑牛排(环市东路店),小北,591,4.5,342,4.5,5,23.144844,113.28863
爱来吧面点,小北,378,0.8,43,1.8,5,23.142694,113.28453
IMissYouLounge,小北,685,3,53,2.9,5,23.14283,113.28883
HUNTING亨庭特调鸡尾酒沙发馆,小北,895,3.4,50,3.4,5,23.1417,113.2905
小街风情意大利西餐厅,小北,845,4.1,122,4.1,4.8,23.143082,113.290665
小肥羊(小北店),小北,676,2.5,81,2.7,4.7,23.141691,113.27802
吉兆手握寿司(保利中环店),小北,542,0,83,0,4.7,23.144205,113.287964
中心皇冠假日酒店大堂酒廊,小北,621,3.2,152,3.3,4.7,23.144743,113.28891
珍珍意粉屋,小北,350,2.7,43,2.1,4.6,23.148079,113.2806
云顶阁旋转餐厅,小北,380,3.6,241,3.6,4.6,23.144766,113.28649
鹅仔饭店第五分店,小北,579,3.2,57,3.2,4.6,23.147505,113.28827
凤凰楼酒家,小北,913,3,54,2.5,4.6,23.137745,113.28489
正本将太日本料理,小北,845,4,95,5,4.6,23.138165,113.28284
MORA COFFEE(建设大马路店),小北,787,3.85,53,3.8,4.6,23.14009,113.28754
南国风味酒家,小北,952,2.7,55,1.8,4.5,23.13899,113.28863
喜窝(广视分店),小北,401,0,64,0,4.5,23.145344,113.286835
安卡拉饭店-土耳其烧烤,小北,299,3.85,56,3.6,4.5,23.148142,113.28155
风格西餐,小北,574,4.5,70,4.5,4.5,23.150509,113.2807
拉瓦萨咖啡馆(中环广场店),小北,571,3,79,3,4.5,23.143385,113.28788
法提玛,小北,280,3.1,51,2.9,4.5,23.147453,113.2809
全合回味馆,花地湾,664,3,40,3,5,23.098553,113.24243
肥佬林景林美食酒楼,花地湾,731,1.9,70,2,4.8,23.099178,113.24243
德生楼私房菜,花地湾,526,2.6,40,2,4.6,23.095886,113.244484
真感觉咖啡厅,花地湾,289,3,51,3,4.6,23.095383,113.240005
鱼之鱼醉,花地湾,582,3,50,3,4.5,23.097414,113.243324
必胜客(荣兴路),花地湾,892,3.2,42,3.2,4.4,23.0999,113.23642
新感觉西餐厅,花地湾,294,2.4,43,2.4,4.3,23.09541,113.239876
鸽王世家(禾悦居分店),花地湾,826,2.8,47,2.8,4.3,23.088926,113.23368
湛江美食(芳村店),花地湾,575,3.75,57,3.3,4.3,23.091349,113.23517
臣福龙小东北(芳村分店),花地湾,766,2.1,46,1.9,4.3,23.098576,113.23642
汕头福合埕牛肉(花蕾店),花地湾,652,3.2,57,3,4.2,23.09848,113.242294
大汗炭烧羊腿烧烤城,花地湾,610,3.8,97,3.7,4.2,23.098204,113.2418
翠城酒家,花地湾,734,2.6,55,2.8,4.1,23.09938,113.23964
湘印象,花地湾,755,3.4,51,3.4,4.1,23.088808,113.23461
夼好挪威三文鱼(芳村花地店),花地湾,594,3.7,74,3.55,4.1,23.098108,113.24148
顺德一品粥(广州芳村店),花地湾,731,2.1,66,3.2,4,23.098866,113.24341
温祈福酒家,花地湾,514,2.7,69,3,4,23.097149,113.23875
富记农庄,花地湾,938,2.2,82,2.1,4,23.094168,113.2315
德盛烧鹅饭店(东漖北路店),花地湾,698,2,40,2,4,23.097582,113.236084
添宝私房菜,花地湾,749,4,40,3.1,4,23.099463,113.23922
酸菜鱼,团一大广场,938,0,49,0,5,23.131676,113.288925
惬意生活休闲吧,团一大广场,779,4.5,50,3,5,23.127827,113.278015
海滨绿岛酒廊,团一大广场,466,2.8,200,2.9,5,23.121561,113.28107
乐厨坊(文明路店),团一大广场,834,2.8,60,2.8,4.8,23.128181,113.27762
必胜客(中山四店),团一大广场,971,2.7,45,2.1,4.7,23.131989,113.28017
江南果道餐饮,团一大广场,944,0,53,0,4.7,23.12695,113.27581
健膳阁,团一大广场,911,3.1,42,3.6,4.7,23.127666,113.29267
顺和刺身荟,团一大广场,850,3,70,3,4.7,23.12863,113.27774
SunnyPark咖啡店,团一大广场,814,3.3,47,3.4,4.7,23.117369,113.28184
Grand Bar,团一大广场,873,2.4,70,2.4,4.7,23.124968,113.27606
广州酒家利口福(越秀南店),团一大广场,347,3,80,2.9,4.6,23.127354,113.28417
御前十七,团一大广场,714,4.5,77,4.2,4.6,23.12438,113.27758
达芬西餐厅,团一大广场,991,3.3,45,3.3,4.6,23.126736,113.27526
不倒翁牛肉火锅料理,团一大广场,271,3.4,101,3.3,4.6,23.121815,113.28472
白熊咖啡馆,团一大广场,968,4.3,43,4.3,4.6,23.12911,113.27671
红酒大使,团一大广场,920,2.9,225,2.9,4.6,23.12104,113.276276
龚记牛骨牛杂屋(北京路旗舰店),团一大广场,988,3.85,63,3.9,4.5,23.128286,113.275955
燕翅居,团一大广场,264,3,149,3,4.5,23.121876,113.28461
弘前寿司,团一大广场,908,3.4,59,3.3,4.5,23.127619,113.29266
大靴子意式餐厅,团一大广场,622,0,52,0,4.5,23.126287,113.2789
韩国乡村汤饭馆,萝岗,799,0,54,0,4.3,23.175697,113.493484
御品潮宴,萝岗,533,2.9,57,3,4.2,23.183805,113.48409
汝矣岛韩国料理,萝岗,702,3.55,45,3.4,3.8,23.175154,113.48667
汇利川味美食,西场,677,2.8,49,2.8,5,23.141468,113.23819
流花茶膳坊,西场,683,4,70,3.6,5,23.143358,113.25124
食为天素食原素馆(西增店),西场,695,2.8,51,2.5,4.6,23.149078,113.24663
Theowlbar猫头鹰酒吧,西场,964,3.2,43,3.3,4.5,23.137533,113.25178
广啤文化廊,西场,901,3.5,50,3.4,4.5,23.151102,113.24303
老5烧烤,西场,981,3.1,80,3,4.4,23.151943,113.24428
至尊比萨宅急送点,西场,470,3.75,42,3.7,4.4,23.140055,113.24138
花见寿司屋,西场,423,3.3,50,3,4.3,23.14256,113.24866
延吉烤肉大冷面,西场,978,3.8,56,3.75,4.3,23.15191,113.24429
巴渝人川菜馆,西场,985,3.45,50,3.45,4.3,23.14678,113.253334
御潮轩,西场,994,4,70,4,4.2,23.134962,113.24855
My Dear Pizza,西场,164,3.3,54,2.6,4.1,23.142859,113.246155
原汁原味农家菜(荔湾路店),西场,978,3.2,64,3.1,4.1,23.135181,113.248695
蚁工房(西村店),西场,893,3.1,79,3.3,4.1,23.150846,113.24218
九町目日式料理,西场,982,3.2,51,3,4.1,23.137436,113.251915
南园开记,西场,892,2.8,49,2.8,4,23.13681,113.23917
寿司制造(荔湾路店),西场,973,2.6,41,2.4,4,23.137257,113.25163
爱客多蛋糕店(西村店),西场,711,0,67,0,4,23.148495,113.24833
喜渔屋,西场,971,3,66,2.9,3.9,23.13728,113.251625
YouCoffee,西场,375,3.65,44,3.65,3.9,23.142658,113.2482
太子酒家,世纪莲,532,3,57,3.1,4.1,22.970543,113.11584
鸿图居餐厅,世纪莲,724,3.6,52,3.6,4,22.976309,113.12503
福彩酒家,世纪莲,734,2.9,50,3,3.9,22.965115,113.12438
爱客多蛋糕店(坦尾店),坦尾,659,3.55,68,3.6,4.4,23.125757,113.22187
广州酒家(江畔红楼店),坦尾,657,2.7,56,2.8,4.3,23.128084,113.23025
侨星渔村,坦尾,185,3.4,60,3.35,3.7,23.129433,113.22495
海南羊庄,坦尾,682,3.6,55,3.5,3.7,23.13399,113.2306
泮塘渔村鸽天地,坦尾,677,3.4,40,3.4,3.6,23.137177,113.224815
湘村人家(荔湾店),坦尾,727,3.55,50,3.55,3.6,23.12592,113.22908
致信壹会馆美食养生食府,会江,769,4.2,145,4.3,4.3,23.01984,113.30043
标记农庄,会江,576,3,50,3,3.6,23.018475,113.28736
渔丰美食,会江,720,2.8,40,2.7,1.2,23.025291,113.29509
多味坊,会江,755,0,45,0,-1,23.016851,113.28599
诺琦蛋糕店(梅花园店),梅花园,172,0,55,0,4.7,23.182785,113.327324
九毛九山西面馆(佳润广场店),梅花园,617,3.3,53,3.4,4.6,23.186823,113.32719
必胜客(佳润店),梅花园,662,2.3,64,2.6,4.6,23.187174,113.32781
品鸡坊,梅花园,375,3.9,71,4.05,4.5,23.181269,113.33062
肥羊王(梅花园店),梅花园,15,4.4,56,4.4,4.4,23.181166,113.32704
广州酒家(利口福梅花园店),梅花园,55,0,52,0,4.4,23.181606,113.327354
百圣小厨(C店梅花园),梅花园,539,3,45,3.2,4.4,23.18611,113.32658
潮汕牛肉火锅,梅花园,212,3.7,68,3.55,4.4,23.183117,113.32749
木屋烧烤(圣地店),梅花园,697,4.1,62,4.2,4.3,23.18744,113.32816
汕头牛肉火锅,梅花园,116,3,51,2.8,4.3,23.181793,113.327934
和顺酒家,梅花园,530,2.5,70,2,4.3,23.185265,113.3241
海峡情缘台湾涮涮锅(京溪圣地店),梅花园,770,0,52,0,4.3,23.18816,113.3278
川湘情,梅花园,167,3.7,43,3.6,4.3,23.179943,113.32618
绿茵阁(广州佳润店),梅花园,652,2.5,71,2.6,4.3,23.187109,113.3276
毛家饭店(佳润广场店),梅花园,617,2.3,58,2.2,4.1,23.186823,113.32719
鱼痴鱼醉(沙太店),梅花园,888,3.65,59,3.6,4.1,23.176445,113.33386
虹之味酸菜鱼,梅花园,975,2.9,70,2.9,4,23.189386,113.33057
顺德渔村(NO.29),梅花园,156,3.7,68,3.7,3.9,23.179918,113.32653
周记饕之家(梅花园店),梅花园,324,3.35,48,3.6,3.8,23.184187,113.32719
品味云山酒楼,梅花园,511,3,66,3.2,3.8,23.18162,113.33193
汤工房（兴盛路店）,大剧院,832,0,83,0,5,23.12664,113.33699
广州富力丽思卡尔顿酒店宴会厅,大剧院,293,4.5,1454,2.5,5,23.12208,113.33401
The Ascott Lounge,大剧院,397,3,76,3,5,23.124344,113.32914
麦考利爱尔兰餐厅,大剧院,889,0,70,0,5,23.124573,113.32329
Ings Cafe(兴盛路店),大剧院,945,3.6,67,3.6,5,23.126211,113.33883
哈哈镜鸭脖子(广州总店),大剧院,937,3,40,3,4.9,23.126003,113.33888
春夏秋冬韩国料理,大剧院,852,3.3,85,3.2,4.8,23.126814,113.33709
香天下清油火锅(珠江新城店),大剧院,825,4.2,99,4.5,4.8,23.12379,113.33887
佰鲜汇,大剧院,290,3.4,943,3.5,4.8,23.123316,113.32939
希望日本料理,大剧院,844,3.1,230,3.2,4.8,23.122934,113.32317
大诚苑燕翅鲍,大剧院,553,2.9,200,3,4.8,23.120249,113.32597
Hello Kitty咖啡厅,大剧院,241,4.5,100,4,4.8,23.123512,113.33113
广州富力丽思卡尔顿酒店-邱吉尔吧,大剧院,286,3.2,166,3.3,4.8,23.121908,113.333984
徐博馆养生私房菜,大剧院,483,3.4,242,3.5,4.7,23.119781,113.33566
食了来,大剧院,944,3.1,61,3,4.7,23.126566,113.338524
稻菊日本料理,大剧院,776,3.4,115,3.5,4.7,23.127445,113.33494
富Top火锅城,大剧院,386,3.3,87,3.4,4.6,23.123135,113.32801
宴遇中餐厅,大剧院,794,3.9,228,4.45,4.6,23.127626,113.33494
标帜餐厅,大剧院,771,3.4,99,3.5,4.6,23.127426,113.33488
尚宴菜馆,大剧院,853,3,69,3,4.6,23.126036,113.337845
楚滋源,朝安,921,0,72,0,4.9,23.026081,113.1366
誉宴(普君店),朝安,919,3,54,3.2,4.8,23.031908,113.13142
莱茵阁西餐咖啡厅(文化里店),朝安,962,3.4,83,3.4,4.7,23.02573,113.13646
好串韩式自助串烧,朝安,879,3.2,79,3.5,4.7,23.032892,113.131645
湘粤宜家酒楼,朝安,970,3.8,41,3.8,4.7,23.042233,113.13832
贵人来泰国餐厅(普君新城店),朝安,886,3.1,50,3.2,4.6,23.03289,113.13158
登龙阁,朝安,940,3.3,81,3.2,4.5,23.02587,113.136665
第六频道红酒音乐,朝安,415,3.45,55,3.5,4.5,23.033848,113.13615
江南荟,朝安,934,3.9,86,3.9,4.4,23.02606,113.13634
力樽寿司,朝安,869,2.9,50,3,4.4,23.031021,113.1322
粤韵轩酒楼,朝安,961,2.6,44,2.8,4.4,23.025671,113.13665
如轩砂锅粥(文华里店),朝安,945,3.4,57,3.4,4.3,23.02606,113.13611
德庄火锅(文华里店),朝安,961,3.4,74,3.4,4.3,23.02567,113.13665
麒麟美食城,朝安,96,2.9,40,2.8,4.3,23.03317,113.139435
味仙居川菜馆,朝安,958,3.2,71,3.2,4.3,23.025597,113.13694
海哥味圆,朝安,967,2.9,40,2.9,4.3,23.042257,113.13861
时利和美食(文华里美食城店),朝安,929,3,57,3,4.2,23.02598,113.13667
海三饭店,朝安,608,3,60,3,4.1,23.036646,113.13521
菊樱回转寿司,朝安,915,3,59,3,4.1,23.031939,113.131454
客家王酒家(佛山店),朝安,970,3.45,47,3.45,4,23.042233,113.13832
香喷喷美食,东山口,785,4.6,40,4.6,5,23.127842,113.29504
安吉娜(地铁1号线烈士陵园店),东山口,88,0,358,0,5,23.131016,113.301765
禾绿回转寿司(东山锦轩店),东山口,109,2.7,66,2.1,4.9,23.131308,113.302025
尊宝比萨(达道路店),东山口,643,3.2,40,3.2,4.7,23.128082,113.30802
爱客多蛋糕店(东山口店),东山口,65,3.75,68,3.7,4.7,23.13087,113.301956
美龄阁保健餐厅,东山口,543,0,70,0,4.6,23.134829,113.30431
博禧轩本色湘菜执信店,东山口,542,3.2,127,3.2,4.6,23.134165,113.29893
广州酒家(东山东路店),东山口,464,0.5,50,0.5,4.5,23.126373,113.30079
誉品顺德私房菜(东风东路店),东山口,733,4,66,4,4.5,23.13688,113.30313
Wilber's(农林下路店),东山口,506,3.3,230,3.3,4.5,23.134857,113.302826
旺湘楼(越秀店),东山口,725,3.2,47,3.2,4.5,23.136812,113.30311
CUP WORLD咖啡厅,东山口,967,4.1,77,4.3,4.5,23.124521,113.29518
新保挪威三文鱼专卖(东川路店),东山口,945,3.1,44,3,4.5,23.129766,113.293
Double打包幸福,东山口,106,3.3,50,3.2,4.5,23.129837,113.30133
食赣佳江西味道餐厅,东山口,896,4,70,4.4,4.5,23.137285,113.30667
云上咖啡·艺术会馆,东山口,460,4.05,43,4,4.5,23.126905,113.29971
潮濠酒家(电信广场店),东山口,177,3,80,3.3,4.4,23.130955,113.30062
山东老家(合群店),东山口,651,2.7,61,2.6,4.4,23.125006,113.29958
常来饭店(中二店),东山口,786,3.2,53,3.2,4.4,23.131865,113.29471
手拉手风味美食,东山口,708,2.4,55,1.8,4.4,23.129204,113.309044
好运来客家饭店,天河客运站,389,4.5,53,4.5,5,23.179022,113.35299
湖南土菜馆,天河客运站,471,3,43,3,5,23.180244,113.34828
Angela Cake(天河客运店),天河客运站,67,3.55,77,3.5,5,23.177073,113.35045
新一家农庄,天河客运站,779,2,40,1.9,4.8,23.1721,113.35634
兄弟食府,天河客运站,581,3.75,60,3.75,4.8,23.176392,113.35607
晨龙思雅餐厅,天河客运站,688,4,40,4,4.6,23.18149,113.35432
Paco bar 柏高吧,天河客运站,554,3.6,45,3.6,4.6,23.174849,113.35551
传记潮发牛肉店(长兴总店),天河客运站,651,3.3,61,3.2,4.5,23.174435,113.35636
半城重庆火锅香辣干锅,天河客运站,714,4.25,95,4.25,4.5,23.172102,113.355515
客家王菜馆,天河客运站,491,3.55,47,3.55,4.5,23.18053,113.34849
昌顺饭店(元岗路),天河客运站,464,2.9,45,3,4.4,23.179693,113.347496
汇道香主题餐厅,天河客运站,418,3.1,42,3.1,4.3,23.176027,113.35445
潮发鱼仔店,天河客运站,624,3.65,70,3.7,4.2,23.174131,113.35594
米芝饼店(棠东店),天河客运站,925,3.6,50,3.5,4.1,23.176044,113.35942
顺鸿美食,天河客运站,135,0,53,0,4,23.176548,113.34906
牛牛牛杂煲,天河客运站,398,0,45,0,4,23.175278,113.35406
我有鹅味,天河客运站,583,3.8,49,3.75,3.8,23.17628,113.35608
潮香大排档,天河客运站,416,2.8,40,2.7,3.8,23.179443,113.347916
顺德鱼庄（廣聚圓美食城）,天河客运站,972,2.8,57,2.8,3.7,23.17258,113.3589
乐家烤鱼,天河客运站,385,3.45,53,3.5,3.2,23.175293,113.35393
苏记菜馆,西朗,335,3,65,2.9,3.8,23.068905,113.23623
南围村大排档,西朗,735,2.1,43,2.1,3.6,23.07614,113.234116
荔苑私厨,西朗,604,2.9,80,2.9,3.3,23.065619,113.23765
大嘴食馆(西朗店),西朗,386,2,40,1.9,3,23.067774,113.23715
顺德渔村(十三分店),陈家祠,668,2.9,72,2.9,5,23.136387,113.256744
林海土蜂蜜(西华路分店),陈家祠,918,0,71,0,5,23.136372,113.26012
将太屋,陈家祠,472,2.3,51,2,4.8,23.13381,113.25673
江南STYLE韩国菜,陈家祠,605,3,61,3,4.8,23.13091,113.2469
STMBar,陈家祠,608,4.6,122,4.6,4.7,23.131071,113.24686
点都德,陈家祠,251,3.2,59,3.3,4.6,23.129349,113.252815
麻田会(中山八路店),陈家祠,574,2.4,78,3,4.6,23.131765,113.24716
百度烤肉(恒宝店),陈家祠,998,2.5,50,2.4,4.6,23.123684,113.248184
原甜甜品店,陈家祠,576,3.2,65,3,4.6,23.131706,113.24715
肥姐美食,陈家祠,234,3.65,41,3.55,4.5,23.133718,113.25263
NICE餐饮店,陈家祠,546,2.6,51,2.7,4.5,23.13646,113.253624
丰南粥粉面,陈家祠,507,3.65,40,3.65,4.5,23.132698,113.24796
喜之味,陈家祠,743,2.8,40,2.8,4.5,23.127544,113.258545
Theowlbar猫头鹰酒吧,陈家祠,666,3.2,43,3.3,4.5,23.137533,113.25178
必胜宅急送(中山七路店),陈家祠,228,2.2,47,2.5,4.4,23.131462,113.255005
佛有缘素食馆,陈家祠,497,2.9,40,2.4,4.4,23.134256,113.24885
卡朋西餐(越富店),陈家祠,943,3.2,51,3.2,4.4,23.135447,113.261
丁煮场,陈家祠,617,3.4,68,3.4,4.4,23.130838,113.25875
Terrace,陈家祠,601,4,40,4.5,4.4,23.132685,113.24702
阳台咖啡西餐厅,陈家祠,574,3.1,72,2.9,4.4,23.131765,113.24716
十甫假日酒店宴会厅,长寿路,651,4.5,225,4.5,5,23.119034,113.25179
东阿阿胶(康王中路店),长寿路,199,0,160,0,4.9,23.122305,113.24856
江南STYLE韩国菜,长寿路,777,3,61,3,4.8,23.13091,113.2469
绿洲西餐厅,长寿路,665,3.2,112,3.5,4.8,23.118864,113.251755
STMBar,长寿路,795,4.6,122,4.6,4.7,23.131071,113.24686
点都德,长寿路,726,3.2,59,3.3,4.6,23.129349,113.252815
麻田会(中山八路店),长寿路,865,2.4,78,3,4.6,23.131765,113.24716
百度烤肉(恒宝店),长寿路,61,2.5,50,2.4,4.6,23.123684,113.248184
新寿司,长寿路,727,2.1,42,2.2,4.6,23.12037,113.25443
原甜甜品店,长寿路,858,3.2,65,3,4.6,23.131706,113.24715
台湾特色牛皮糖(上九路店),长寿路,582,3.1,196,3.1,4.6,23.119225,113.25067
万岁一级棒(恒宝店),长寿路,167,2.4,71,2.6,4.5,23.12265,113.24812
卡朋西餐(恒宝广场店),长寿路,65,4.15,53,4.25,4.5,23.123602,113.248245
丰南粥粉面,长寿路,958,3.65,40,3.65,4.5,23.132698,113.24796
三泰冷冻品,长寿路,932,3.6,100,3.6,4.5,23.118212,113.242096
定益美食店,长寿路,582,2.9,40,2.8,4.5,23.119759,113.24539
潮宗牛肉店,长寿路,700,3.65,43,3.6,4.4,23.117989,113.25025
Terrace,长寿路,968,4,40,4.5,4.4,23.132685,113.24702
阳台咖啡西餐厅,长寿路,865,3.1,72,2.9,4.4,23.131765,113.24716
森cafe原木西餐吧,长寿路,167,4,60,4.3,4.4,23.124695,113.24708
客乡韵客家特产店(江燕店),江泰路,298,0,46,0,5,23.08656,113.284874
湘缘家常菜馆,江泰路,926,1.9,45,1.9,5,23.08466,113.2789
这夜···,江泰路,390,2.8,500,2.7,5,23.09117,113.28466
林海土蜂蜜(礼岗路分店),江泰路,717,0,70,0,4.8,23.093094,113.282196
如轩砂锅粥(海珠店),江泰路,882,2.7,59,3.1,4.7,23.087875,113.295616
广州酒家(广州酒家20),江泰路,996,0,85,0,4.7,23.09439,113.279755
九毛九山西面馆(燕汇广场店),江泰路,346,0,51,0,4.6,23.088509,113.283615
天然味道,江泰路,165,3.55,51,3.45,4.6,23.089853,113.28667
挪威三文鱼,江泰路,888,4.1,42,3.95,4.6,23.094112,113.280945
粉好美食,江泰路,741,3,40,2.9,4.6,23.085426,113.28051
LA CAFFERIA,江泰路,928,3.95,41,3.9,4.6,23.095947,113.28313
大鸽饭(海珠店),江泰路,936,3.2,56,3.2,4.5,23.082092,113.28092
食尚烤肉馆,江泰路,250,3.1,60,3,4.5,23.08876,113.284584
烘焙乐坊(江泰店),江泰路,81,3.95,50,4.05,4.5,23.08768,113.286804
天成川菜馆(礼岗店),江泰路,521,2.7,51,2.7,4.4,23.09229,113.284164
千木原回转寿司,江泰路,251,3.3,71,3.3,4.4,23.089811,113.28509
OK100,江泰路,564,2.9,53,2.8,4.4,23.090523,113.292015
巴黎天使烘焙公馆(江南大道店),江泰路,149,3.75,68,3.8,4.4,23.087063,113.28717
燕锅中山石岐乳鸽专门店(江燕路店),江泰路,190,2.5,40,2.4,4.3,23.087727,113.285286
上楼茶点餐厅(江燕路店),江泰路,269,3.2,49,3.2,4.3,23.090214,113.285255
海皇轩食府(广晟店),珠江新城,678,3.2,70,3.4,5,23.130857,113.33021
汤工房（兴盛路店）,珠江新城,964,0,83,0,5,23.12664,113.33699
麦考利爱尔兰餐厅,珠江新城,455,0,70,0,5,23.124573,113.32329
The Ascott Lounge,珠江新城,177,3,76,3,5,23.124344,113.32914
广州富力丽思卡尔顿酒店宴会厅,珠江新城,733,4.5,1454,2.5,5,23.12208,113.33401
老友记主题店,珠江新城,847,0,57,0,5,23.13134,113.322754
四川豆花(五羊店),珠江新城,742,4.5,55,4.5,4.9,23.126795,113.32063
乐藏,珠江新城,863,3,95,3.2,4.9,23.131775,113.32317
春夏秋冬韩国料理,珠江新城,977,3.3,85,3.2,4.8,23.126814,113.33709
富田菊铁板皇尚料理(富力盈信大厦店),珠江新城,649,3.4,130,3.5,4.8,23.131027,113.32824
希望日本料理,珠江新城,526,3.1,230,3.2,4.8,23.122934,113.32317
佰鲜汇,珠江新城,273,3.4,943,3.5,4.8,23.123316,113.32939
大诚苑燕翅鲍,珠江新城,579,2.9,200,3,4.8,23.120249,113.32597
Hello Kitty咖啡厅,珠江新城,399,4.5,100,4,4.8,23.123512,113.33113
广州富力丽思卡尔顿酒店-邱吉尔吧,珠江新城,740,3.2,166,3.3,4.8,23.121908,113.333984
72街(盈丰店),珠江新城,812,4,45,4.05,4.7,23.131325,113.32333
稻菊日本料理,珠江新城,781,3.4,115,3.5,4.7,23.127445,113.33494
幸福和房,珠江新城,503,3.9,197,3.9,4.7,23.126554,113.32299
九毛九山西面馆(花城汇店),珠江新城,843,3.2,51,3.2,4.6,23.132078,113.33119
表妹靓点餐厅(维家思店),珠江新城,926,3.8,53,4.1,4.6,23.131056,113.334145
Angela Cake(赤岗店),磨碟沙,670,3.6,77,3.6,5,23.102398,113.34181
简简家厨,磨碟沙,978,3.55,64,3.4,4.8,23.102009,113.3388
同湘会(直营第12分店),磨碟沙,415,3.4,62,3.4,4.4,23.103662,113.34403
洞庭土菜旗舰店(赤岗店),磨碟沙,874,3.3,200,3.4,4.4,23.099566,113.34121
阅江米库(琶洲店),磨碟沙,912,2.9,80,3.1,4.4,23.112492,113.34858
自在堂,磨碟沙,710,3.55,139,3.75,4.4,23.103302,113.3549
琶醍A区,磨碟沙,862,3.7,130,3.9,4.2,23.112059,113.347916
鲜蔬火锅(新港东路店),磨碟沙,484,2.4,57,2.2,4.1,23.106365,113.3522
啤酒主题餐厅,磨碟沙,951,2.9,80,3.2,4.1,23.11283,113.34728
琶洲酒店艺术咖啡吧,磨碟沙,329,3.2,45,3.25,4.1,23.10486,113.34487
随园大排档,磨碟沙,591,2.9,143,3,4,23.10503,113.34231
Dates扒房泰菜,磨碟沙,804,3.2,50,3.2,4,23.111353,113.349815
Zapatas,磨碟沙,957,4,102,4,4,23.112846,113.34689
琶洲食府,磨碟沙,324,3.45,70,3.45,3.8,23.104832,113.34491
嘿牛韩式料理(赤岗店),磨碟沙,938,4.1,60,3.9,3.7,23.102112,113.33917
维纳斯主题餐吧,磨碟沙,919,3,125,3.1,3.7,23.112564,113.348366
牛牛,磨碟沙,572,3.45,40,3.45,3.5,23.104568,113.34244
Club Five泰餐酒吧,磨碟沙,902,3.5,94,3.5,3.5,23.112276,113.34969
好彩又一鲜酒家,磨碟沙,157,2,76,2.4,3.3,23.104694,113.34655
鲩渔仔(双塔路店),磨碟沙,577,2.7,63,2.8,3.3,23.104622,113.34239
聚宝渔村(万科广场店),礌岗,673,0,42,0,5,23.043312,113.161026
杯子红西餐厅(城市广场店),礌岗,797,3,67,3,4.8,23.042198,113.162704
国味壹号店,礌岗,977,3.2,58,3.2,4.6,23.041006,113.16492
雅达利超级牛扒(桂城店),礌岗,766,0,82,0,4.5,23.042458,113.161156
楚炫堂湖北菜馆(桂城店),礌岗,880,0,50,0,4.5,23.05542,113.16731
过锅瘾三汁焖锅(南海万科广场店),礌岗,630,3.85,53,3.75,4.4,23.043678,113.16119
湘拉拉,礌岗,784,4.1,50,4.3,4.4,23.042374,113.160484
莱茵阁●西餐咖啡厅(桂城店),礌岗,841,2.8,83,2.8,4.4,23.04177,113.16234
二郎田鸡(桂城店),礌岗,207,2.9,50,2.9,4.3,23.047773,113.16068
德庄火锅(家天下店),礌岗,247,2.9,50,2.9,4.2,23.047178,113.161156
品然轩,礌岗,190,3.2,74,3.2,4.2,23.047728,113.161125
烤肉先生,礌岗,648,3.8,63,3.8,4.1,23.043543,113.16093
人山人海国际美食会,礌岗,194,3.2,101,3.4,4,23.047869,113.16076
叹茶去,礌岗,766,3.7,54,4,3.9,23.042498,113.160774
丰依粥食(桂城店),礌岗,194,2.3,55,2.3,3.8,23.047762,113.160965
禾绿回转寿司(万科广场店),礌岗,707,4.35,69,4.35,3.8,23.042997,113.16109
意家之煮海鲜肥牛自助火锅(桂城店),礌岗,904,0,100,0,3.8,23.04122,113.162636
回味麻辣香锅,礌岗,544,3.95,52,3.85,3.8,23.044455,113.16126
东海渔总店,礌岗,949,2.8,80,2.8,3.7,23.044569,113.16953
重庆烤鱼餐馆,礌岗,249,3,40,3,3.5,23.047785,113.16005
海港酒家,黄阁汽车城,540,2.8,80,2.8,4.1,22.837433,113.51696
萧湘馆,黄阁汽车城,390,2.8,45,2.8,2.4,22.839167,113.5142
炉火鱼香时尚烤鱼主题餐厅(大学城贝岗店),大学城北,748,3.7,59,3.9,4.1,23.067287,113.3986
百草堂,大学城北,743,3.1,42,3.2,4.1,23.067139,113.39861
渔堂官洲农庄,大学城北,868,3.45,80,3.25,3.9,23.06933,113.38524
英佰伦西餐酒廊,大学城北,727,2.7,51,2.9,3.9,23.06744,113.39829
原始烤肉(大学城店),大学城北,770,2,64,2.5,3.7,23.067358,113.3988
一町料理,大学城北,955,4.2,58,4.2,3.6,23.067366,113.400734
生物岛江边烧烤驿站,大学城北,897,3.35,47,3.45,3.5,23.070395,113.38592
南兴厨房(大学城店),大学城北,890,3.2,43,3.2,3.2,23.067146,113.400154
青岛啤酒多彩扎啤,大学城北,819,3.25,89,3.3,3.1,23.067957,113.39901
千寻料理·回转寿司,大学城北,751,3.5,47,3.55,3,23.06727,113.39864
小C西点(大学城北店),大学城北,913,3.5,93,3.45,3,23.06441,113.40085
文记潮汕美味馆,大学城北,447,3,40,3,-1,23.061136,113.394295
清阑阁拉面,大学城北,447,0,40,0,-1,23.061136,113.394295
粤川美食,大学城北,447,0,40,0,-1,23.061136,113.394295
光头佬大学城店,大学城北,961,1.6,40,1.5,-1,23.066895,113.40096
中山大鸽饭(黄埔店),大沙地,992,3.9,56,4.35,4.9,23.106188,113.46183
聚汇坊猪肚鸡(丰乐北路),大沙地,872,2.2,81,2.3,4.8,23.113518,113.45943
牛香荟,大沙地,62,3.2,50,3.1,4.6,23.108883,113.45317
绿茵阁(广州大沙地店),大沙地,153,3.2,71,3.4,4.6,23.109879,113.45357
川锅演义,大沙地,863,3.3,56,3.2,4.6,23.11309,113.45965
广州酒家(黄埔店),大沙地,944,2.1,72,2.6,4.5,23.10076,113.455345
二姐养生石锅鱼,大沙地,286,4.35,44,3.8,4.5,23.107527,113.450165
山东老家(丰乐中路店),大沙地,989,3.2,62,3.4,4.5,23.108849,113.46224
利口福(大沙地站店),大沙地,106,3,48,3,4.5,23.10976,113.45291
同湘会(直营第17分店),大沙地,384,3.85,59,4.05,4.4,23.106598,113.45541
火辣一号,大沙地,814,3.8,57,3.7,4.4,23.10661,113.460144
湘音阁,大沙地,851,3,48,3,4.3,23.112844,113.45967
正宗桂林米粉,大沙地,365,4.5,40,4.5,4.3,23.105572,113.45238
玉膳轩私房吊锅,大沙地,421,3.1,56,3,4.3,23.105747,113.4502
黄埔白天鹅,大沙地,390,2.8,42,2.8,4.3,23.105696,113.45423
甜麦麦蛋糕坊,大沙地,754,0,88,0,4.3,23.104494,113.446915
二郎田鸡(黄埔店),大沙地,923,2.2,68,2.2,4.2,23.10948,113.46157
香柏酒店-西餐厅,大沙地,990,3,75,3.1,4.2,23.108997,113.46224
川江渔夫,大沙地,649,3.6,44,3.5,4,23.103302,113.4506
大禾寿司(黄埔店),大沙地,779,3.65,61,3.75,3.9,23.106487,113.45974
秀天下文化传播演艺中心,黄村,313,0,100,0,5,23.140522,113.41589
川家园(黄村店),黄村,940,2.9,52,2.8,4.7,23.130976,113.4178
好客之家(奥体店),黄村,822,3.3,58,3.3,4.3,23.136438,113.42141
烤尚宫,黄村,893,3.65,49,3.65,4.3,23.130857,113.416214
湘裕楼(大观南路店),黄村,828,2.9,49,2.9,4.3,23.131117,113.414215
中华缘大排档,黄村,809,3.1,45,3.1,4.1,23.132513,113.41812
藏湘楼,黄村,159,3,70,2.4,4,23.139814,113.41297
湘乡木桶饭,黄村,873,2,40,2,4,23.130821,113.41522
福建沙县小吃(旭景分店),黄村,816,2.8,40,2.8,4,23.133514,113.40789
澳门新街,黄村,786,2.1,60,1,4,23.135992,113.42088
圣鲸美食汇自助餐厅(奥体店),黄村,984,4.5,48,4.5,3.9,23.137926,113.42332
湘村馆(奥体高徳汇店),黄村,830,2.9,56,3,3.9,23.135937,113.42131
金潮园,黄村,930,2.8,50,2.8,3.8,23.13825,113.422806
蒙古美食村,黄村,776,3.3,96,3.3,3.7,23.137466,113.42121
奥体酒家,黄村,527,2.8,53,2.4,3.7,23.143213,113.41468
农夫3号客家菜,黄村,450,3,80,3,3.6,23.13666,113.4176
尚客,黄村,830,3.5,42,3.5,3.6,23.135937,113.42131
农家庄酒店,黄村,638,2.3,48,2.2,3.5,23.132812,113.41396
光头佬羊庄,黄村,917,2.7,55,2.6,3.5,23.141907,113.40551
5号线生活吧,黄村,552,2.8,45,2.8,3.2,23.137249,113.41892
田园牧歌园林西餐厅,广州塔,770,3.8,55,4.5,5,23.10511,113.33066
WE烧烤餐厅,广州塔,794,3.2,50,3.4,4.9,23.106342,113.33454
涟漪床吧餐厅,广州塔,914,3.8,114,3.9,4.9,23.109274,113.32136
大诚苑燕翅鲍,广州塔,997,2.9,200,3,4.8,23.120249,113.32597
广州塔-赏点点心,广州塔,125,4.1,67,4,4.5,23.112236,113.33099
梨花苑韩国料理,广州塔,974,3.2,73,3.1,4.4,23.109867,113.32054
田园牧歌音乐空间,广州塔,968,3,59,3,4.3,23.103296,113.33033
心动西餐厅,广州塔,815,2.1,86,3,4.3,23.1058,113.33407
香港老港记甜品,广州塔,106,0,44,0,4.3,23.11222,113.330795
潮庭精工,广州塔,989,2.8,76,4.1,4.2,23.10315,113.33087
稻香酒家(新港店),广州塔,512,3.4,65,3.5,4.1,23.10943,113.333954
御信客家王赤岗分店,广州塔,937,2.5,52,2.5,4.1,23.104591,113.33418
卢特斯法国旋转餐厅,广州塔,154,3.3,498,3.4,4.1,23.11238,113.33124
空中1号,广州塔,962,3.1,100,3.8,4,23.120264,113.32703
Don Mateo马地奥西餐厅,广州塔,761,4,40,3,4,23.105175,113.33051
云山珠水酒家,广州塔,898,2.9,50,3.5,4,23.109604,113.321396
红城堡花园主题餐厅,广州塔,660,2.8,184,2.6,3.9,23.11541,113.32451
丽水会餐厅,广州塔,498,2,50,2.5,3.9,23.111334,113.32497
1115私密餐厅,广州塔,845,3.8,143,3.8,3.9,23.105545,113.3254
陕西私房菜,广州塔,815,1.9,47,2.4,3.9,23.1058,113.33407
华运酒店餐厅,沥滘,971,3.2,50,3.2,4.6,23.069122,113.32309
小郭酸菜鱼餐馆,沥滘,789,3.6,40,3.15,4.5,23.067781,113.326065
灯塔吧,沥滘,859,2.8,65,2.6,4.1,23.053083,113.324165
Angela Cake(沥滘店),沥滘,34,2.5,77,3.2,4,23.060574,113.325905
讯裕佳富鸽天下美食(南洲路店),沥滘,883,2.9,68,2.9,3.9,23.06862,113.3249
喜洲吧(港湾店),沥滘,877,3.1,60,3.4,3.9,23.052979,113.32384
潮家砂锅粥(海珠店),沥滘,638,3.55,46,3.45,3.7,23.066046,113.32787
迎福阁酒楼,沥滘,702,3,50,2.9,-1,23.067017,113.32554
臻盛十八道顺德凤城美食,萧岗,253,3,66,3,4.7,23.204279,113.28925
ImCake,萧岗,903,4.1,50,4.05,4.7,23.207415,113.27848
品逸阁西餐厅,萧岗,861,3.2,100,3.4,4.6,23.204239,113.29523
李记港式猪肚鸡(江夏美食广场店),萧岗,835,3.85,43,3.7,4.5,23.212194,113.28684
程记大排档,萧岗,868,3.2,42,3.2,4.5,23.211119,113.291626
甜心啡语(齐富路店),萧岗,886,3.5,40,3.6,4.4,23.199816,113.27994
德记湛江鸡饭店广从路店,萧岗,921,1.9,70,2,4.4,23.209698,113.29398
隆盛客,萧岗,754,3.85,84,3.8,4.4,23.211437,113.28613
潮式汕头福合埕牛肉火锅店,萧岗,742,3.7,60,3.65,4.3,23.203192,113.279724
金唐海鲜酒家,萧岗,900,3.2,53,3.4,4.2,23.200949,113.27899
汕头牛庄,萧岗,854,3.65,68,3.6,4.2,23.212357,113.28712
顶尖俱乐部,萧岗,872,4,50,2,4.2,23.209187,113.2938
湘味食尚(黄石店),萧岗,747,3.55,60,3.6,4.1,23.211395,113.28643
大咖咖啡,萧岗,956,0,58,0,4.1,23.212765,113.28362
满江红时尚川菜馆,萧岗,817,0,50,0,4,23.212025,113.286354
Juice Language 汁言片语,萧岗,863,3.8,49,3.95,4,23.200335,113.279816
海宝酒家(黄石东路店),萧岗,863,0,45,0,4,23.210833,113.281654
岭南东方酒店北座,萧岗,954,4.5,500,4.5,4,23.196104,113.28634
客家小镇,萧岗,859,2.8,55,2.9,3.9,23.207476,113.294655
嘉利家宴,萧岗,917,3.35,47,3.55,3.8,23.205826,113.27792
q吧,广州东站,806,2.4,78,2.9,5,23.148726,113.33255
汉密哈顿,广州东站,873,2.9,100,2.9,5,23.147964,113.33123
潮皇食府(国贸总店),广州东站,946,3.1,100,3.4,4.8,23.147326,113.33004
True Love臻爱蛋糕(林和西店),广州东站,529,3.85,58,3.6,4.8,23.151712,113.328186
正本日本料理(林和东店),广州东站,792,3.3,165,3.2,4.7,23.149544,113.334526
毛家饭店(火车东站店),广州东站,146,2.5,61,2.5,4.6,23.155071,113.32964
老陕居(陕西风味美食),广州东站,853,3.2,40,3.1,4.6,23.158148,113.32288
随轩中餐厅,广州东站,570,3.4,150,3.5,4.6,23.152029,113.32705
探窝汤物料理林和西店,广州东站,526,0,80,0,4.6,23.151802,113.32808
卡撒浓汤(中信广场店),广州东站,945,3,60,3,4.6,23.147326,113.33148
独壹酒吧,广州东站,589,3.1,80,3.1,4.6,23.151958,113.326866
方颂烘焙工房,广州东站,869,3.85,97,3.65,4.6,23.149748,113.336205
涟日本料理,广州东站,323,3.1,60,3.1,4.5,23.153465,113.33271
天河廊,广州东站,550,3.4,74,3.4,4.5,23.152065,113.32732
湘乡土菜馆(林和西路),广州东站,188,3.5,40,3.5,4.5,23.156738,113.32929
锦绣餐饮,广州东站,876,3,234,3.2,4.5,23.147928,113.33062
寅福门(天河店),广州东站,874,3.4,100,3,4.5,23.147947,113.33074
极味海鲜酒楼,广州东站,890,3.7,50,4.5,4.5,23.151812,113.32328
嘉逸豪庭酒店中餐厅,广州东站,553,4.5,70,4.5,4.5,23.15149,113.33352
十悦酒家,广州东站,147,2.8,94,2.8,4.4,23.15554,113.329414
Next Cake甜品店,天河南,327,2.5,164,2.7,5,23.134398,113.329414
海皇轩食府(广晟店),天河南,695,3.2,70,3.4,5,23.130857,113.33021
叻宝叻宝,天河南,504,4,83,4.1,5,23.135935,113.335464
糕朋满座DIY蛋糕,天河南,93,3.65,85,3.65,5,23.136322,113.33034
游乐场咖啡酒吧,天河南,390,3.2,47,3.2,5,23.134096,113.33269
天河蔚青咖啡厅,天河南,458,4.5,40,4,5,23.140636,113.32839
麻田会(体育西店),天河南,306,3,83,3,4.9,23.13781,113.3278
乐藏,天河南,970,3,95,3.2,4.9,23.131775,113.32317
辉记潮州海鲜砂锅粥(广州大道中),天河南,952,2,89,2.2,4.8,23.138498,113.3215
富田菊铁板皇尚料理(富力盈信大厦店),天河南,719,3.4,130,3.5,4.8,23.131027,113.32824
虾搞搞小龙虾,天河南,557,4.3,102,3.95,4.8,23.13608,113.33603
Ebony,天河南,991,3.5,240,3.5,4.8,23.140554,113.33963
翠园,天河南,883,3.4,130,3.7,4.7,23.139614,113.33888
一龙拉面,天河南,197,4.35,47,3.95,4.7,23.136532,113.33253
潮泰居美食店,天河南,238,2.1,40,2.3,4.7,23.135103,113.32983
阿翁名菜,天河南,500,0,298,0,4.7,23.13533,113.3352
72街(盈丰店),天河南,989,4,45,4.05,4.7,23.131325,113.32333
元気寿司,天河南,778,0,92,0,4.7,23.139502,113.337845
贰叁茶屋,天河南,391,4.25,53,4.3,4.7,23.133915,113.33233
7INN郁源咖啡,天河南,345,3.2,42,3.2,4.7,23.134207,113.33194
椰林四季,嘉禾望岗,817,3,79,3,4.6,23.242779,113.28718
炭记牛杂煲,嘉禾望岗,292,0,47,0,4.4,23.241838,113.29702
广州蔬菜示范园鲜蔬火锅城,嘉禾望岗,755,0,57,0,4.3,23.249775,113.29158
加州风情,嘉禾望岗,955,3.1,43,3.2,4.3,23.239704,113.30333
温州人家,嘉禾望岗,655,0,45,0,4.2,23.246012,113.289154
爱客多蛋糕店(嘉禾望岗店),嘉禾望岗,79,3.75,68,3.75,4.2,23.244474,113.294846
云山猪肚鸡,嘉禾望岗,407,3,98,3,4.1,23.240526,113.296906
悦景海鲜酒家,嘉禾望岗,664,3.45,59,3.4,4,23.248432,113.29101
长沙口味虾石锅鱼,嘉禾望岗,843,3,40,3,4,23.241756,113.287155
湘悦溢嘉仁湘菜馆(嘉禾店),嘉禾望岗,934,0,45,0,3.8,23.240696,113.286606
韩庄烤唰自助餐,嘉禾望岗,941,0,70,0,3.8,23.240606,113.28657
寻味小龙虾,嘉禾望岗,282,3.6,42,3.45,3.7,23.241915,113.29696
蔬菜基地,嘉禾望岗,685,3.45,61,3.5,3.7,23.249449,113.29243
湘邻湘亲,嘉禾望岗,249,3.1,56,3.1,3.6,23.242275,113.296906
嘉湘味道,嘉禾望岗,81,0,41,0,3.4,23.243097,113.29536
大呷麻辣香锅,嘉禾望岗,210,3,42,3,3.1,23.24229,113.29636
华冠海鲜肥牛自助火锅(嘉禾店),嘉禾望岗,935,0,44,0,3.1,23.24066,113.28661
周记茗点居,嘉禾望岗,906,2.9,40,2.9,3,23.241026,113.28676
哈呗斯挪威三文鱼(岭南新世界店),嘉禾望岗,955,2.7,50,2.8,2.6,23.239704,113.30333
香港海鲜大牌档,嘉禾望岗,376,0,85,0,-1,23.240768,113.296745
金城酒家(龙溪大道店),龙溪,745,2.9,45,2.7,4.3,23.074305,113.20597
中品酒家(物流1路),龙溪,985,2.8,51,2.8,4.3,23.069288,113.18997
海北饭店,龙溪,807,2.9,44,2.8,3.9,23.078794,113.20163
海龙园美食农庄,龙溪,858,3,98,3,3.5,23.071306,113.20755
海皇轩食府(广晟店),黄埔大道,215,3.2,70,3.4,5,23.130857,113.33021
Next Cake甜品店,黄埔大道,244,2.5,164,2.7,5,23.134398,113.329414
汤工房（兴盛路店）,黄埔大道,915,0,83,0,5,23.12664,113.33699
老友记主题店,黄埔大道,847,0,57,0,5,23.13134,113.322754
The Ascott Lounge,黄埔大道,944,3,76,3,5,23.124344,113.32914
叻宝叻宝,黄埔大道,588,4,83,4.1,5,23.135935,113.335464
糕朋满座DIY蛋糕,黄埔大道,408,3.65,85,3.65,5,23.136322,113.33034
游乐场咖啡酒吧,黄埔大道,239,3.2,47,3.2,5,23.134096,113.33269
天河蔚青咖啡厅,黄埔大道,921,4.5,40,4,5,23.140636,113.32839
麻田会(体育西店),黄埔大道,653,3,83,3,4.9,23.13781,113.3278
乐藏,黄埔大道,798,3,95,3.2,4.9,23.131775,113.32317
春夏秋冬韩国料理,黄埔大道,907,3.3,85,3.2,4.8,23.126814,113.33709
富田菊铁板皇尚料理(富力盈信大厦店),黄埔大道,329,3.4,130,3.5,4.8,23.131027,113.32824
虾搞搞小龙虾,黄埔大道,645,4.3,102,3.95,4.8,23.13608,113.33603
一龙拉面,黄埔大道,458,4.35,47,3.95,4.7,23.136532,113.33253
潮泰居美食店,黄埔大道,291,2.1,40,2.3,4.7,23.135103,113.32983
72街(盈丰店),黄埔大道,789,4,45,4.05,4.7,23.131325,113.32333
稻菊日本料理,黄埔大道,712,3.4,115,3.5,4.7,23.127445,113.33494
阿翁名菜,黄埔大道,527,0,298,0,4.7,23.13533,113.3352
贰叁茶屋,黄埔大道,198,4.25,53,4.3,4.7,23.133915,113.33233
北雪湘园(五山店),五山,618,2.3,63,2.3,4.6,23.154642,113.353905
万人汇广州五山店,五山,176,2.9,56,2.8,4.5,23.157692,113.36005
华农绿康,五山,283,3.6,66,3.6,4.4,23.157633,113.36112
大丰收农庄,五山,993,3.65,86,3.5,4.3,23.149488,113.36004
雕刻时光咖啡馆(广州五山店),五山,240,3.1,52,3.2,4.3,23.158129,113.360794
比逗,五山,202,3.6,45,3.85,4.1,23.158092,113.36042
福翠园湛江鸡酒家,五山,207,2.8,41,2.8,4,23.157694,113.360374
钢铁研究所餐厅,五山,959,2.9,43,2.9,3.9,23.16571,113.363266
竹园餐厅,五山,557,2.7,58,2.6,3.8,23.161331,113.3628
西湖苑-西餐厅,五山,939,3,68,3.1,3.8,23.160164,113.34949
田园好,五山,995,2.9,71,2.8,3.8,23.14949,113.36014
西湖苑宾馆中餐厅,五山,938,2.3,57,2.3,3.8,23.160442,113.34957
校园咖啡屋,五山,745,2.6,44,3.5,3.7,23.160563,113.351585
香园美食餐厅,五山,218,2.8,54,3.4,3.6,23.16016,113.35917
东江渔村(华农师厨),五山,960,3.75,48,3.7,3.5,23.165722,113.36327
铭记酒家,五山,606,2.8,48,2.8,3.4,23.154795,113.35391
西湖苑宾馆发电所餐厅,五山,958,2.4,56,3,3.2,23.160858,113.349495
华南理工大学学三饭堂,五山,695,2.8,79,2.8,3.1,23.15698,113.35181
聚丰酒家,五山,316,2.5,86,2.8,3,23.156754,113.36105
潮源农庄,五山,993,3,62,3,3,23.149685,113.361
红芥末寿司店,江南西,350,3.3,55,3,5,23.100574,113.279305
御品膳食府,江南西,618,2.5,70,3,5,23.098982,113.27693
潮公馆潮州食府,江南西,760,3.65,40,3.65,5,23.097,113.28238
萌记美食,江南西,948,4.5,40,4.5,5,23.09505,113.280136
广州酒家(江南西店),江南西,117,3,50,3,5,23.103218,113.28142
福岛(江南西分店),江南西,529,2.3,72,2.4,4.8,23.102184,113.27538
家琳甜品工作坊,江南西,234,4.35,69,4.35,4.8,23.103588,113.28263
维拉酒吧,江南西,722,0,65,0,4.8,23.098858,113.27549
小幸福HAPPY-KITCHEN(昌岗店),江南西,590,3,48,3.2,4.7,23.098846,113.28296
板崎寿司,江南西,327,3.1,40,3,4.6,23.102228,113.27749
和木大捞料理,江南西,525,3.2,57,3.2,4.6,23.10194,113.27552
樱寿司料理,江南西,388,0,49,0,4.6,23.101593,113.277214
玖井日式料理店,江南西,744,4.2,42,4.15,4.6,23.098747,113.2753
江湖边·小生活,江南西,440,2.7,50,2.8,4.6,23.100609,113.2775
猫之时间,江南西,594,4.25,46,4.25,4.6,23.100094,113.27593
Masa玛莎,江南西,463,2.8,50,2.8,4.6,23.099733,113.27858
时光里咖啡小聚The Moments,江南西,209,3.4,53,3.2,4.6,23.102598,113.28209
LA CAFFERIA,江南西,895,3.95,41,3.9,4.6,23.095947,113.28313
178Cooking,江南西,782,4.2,148,4,4.6,23.096651,113.28166
新兴饭店(前进路),江南西,521,2.6,73,2.4,4.5,23.106936,113.2839
禾绿回转寿司(保利水城店),千灯湖,937,4,60,4.15,4.9,23.066673,113.15487
百福栈,千灯湖,967,0,98,0,4.8,23.069893,113.16376
楚炫堂湖北菜馆(桂城店),千灯湖,855,0,50,0,4.5,23.05542,113.16731
月色西餐厅,千灯湖,769,3.4,150,4,4.4,23.062778,113.15462
Ole’Ole’ 巴西餐厅,千灯湖,788,3.3,172,3.4,4.4,23.0633,113.15457
益晟酒楼,千灯湖,777,3.6,90,3.65,4.2,23.062529,113.169464
W堤岸酒廊,千灯湖,961,3.4,100,3.4,4.1,23.064869,113.15339
洲际酒店大堂酒廊,千灯湖,766,3,95,3,4.1,23.062765,113.15464
香江一本(保利店),千灯湖,993,2.9,68,2.9,4.1,23.067608,113.155045
人山人海中点(保利水城店),千灯湖,937,3.2,62,3.2,4,23.066673,113.15487
巧客,千灯湖,769,3,70,3,4,23.062778,113.15462
国味一号(万达广场店),千灯湖,955,0,58,0,3.9,23.069767,113.16384
虾手吧,千灯湖,965,3.75,75,3.75,3.9,23.064877,113.15336
金钥匙台湾料理(佛山万达广场店),千灯湖,910,0,55,0,3.8,23.069082,113.16489
贝家烘焙,千灯湖,339,3,200,3,3.8,23.060656,113.15875
大福喜寿司料理-铁板烧,千灯湖,998,3.9,78,4.15,3.7,23.070328,113.16198
御公馆,千灯湖,769,3.1,110,3.3,3.7,23.062778,113.15462
莱德四季火锅,千灯湖,935,3.1,50,3.2,3.6,23.066036,113.15438
Cafebene咖啡店,千灯湖,936,0,46,0,-1,23.069618,113.16372
流花茶膳坊,西村,591,4,70,3.6,5,23.143358,113.25124
食为天素食原素馆(西增店),西村,220,2.8,51,2.5,4.6,23.149078,113.24663
广啤文化廊,西村,652,3.5,50,3.4,4.5,23.151102,113.24303
老5烧烤,西村,610,3.1,80,3,4.4,23.151943,113.24428
味道东西,西村,839,2.3,64,2.5,4.4,23.15557,113.24846
潮州菜馆(站前路),西村,953,2.9,60,2.9,4.3,23.149307,113.25767
延吉烤肉大冷面,西村,606,3.8,56,3.75,4.3,23.15191,113.24429
花见寿司屋,西村,607,3.3,50,3,4.3,23.14256,113.24866
巧湘厨(站西路店),西村,885,0,42,0,4.3,23.155308,113.251945
巴渝人川菜馆,西村,517,3.45,50,3.45,4.3,23.14678,113.253334
同湘会(直营第8分店),西村,700,2.8,64,2.8,4.2,23.147345,113.255264
月半湾新时尚餐厅(华南影都店),西村,869,3.1,40,3.1,4.2,23.152884,113.25511
蚁工房(西村店),西村,714,3.1,79,3.3,4.1,23.150846,113.24218
My Dear Pizza,西村,620,3.3,54,2.6,4.1,23.142859,113.246155
爱客多蛋糕店(西村店),西村,54,0,67,0,4,23.148495,113.24833
YouCoffee,西村,596,3.65,44,3.65,3.9,23.142658,113.2482
臣福龙小东北(西村店),西村,267,2.9,50,2.8,3.7,23.149403,113.246315
田中川香菜馆,西村,986,1.8,41,2.2,3.7,23.146027,113.25786
潮锅餐厅,西村,742,3.2,69,3.2,3.7,23.154675,113.24903
客家王酒家(西湾店),西村,135,2.3,56,2.3,3.5,23.148499,113.24967
美心西饼(大塘地铁站店),大塘,39,0,80,0,5,23.083982,113.32843
得昌酒家,大塘,865,2.2,49,2.1,4.5,23.091454,113.32802
虾城,大塘,203,0,68,0,4.5,23.0855,113.3281
源如潮汕美食,大塘,850,3.7,50,3.65,4.3,23.089334,113.33383
荆楚美食,大塘,572,3.45,42,3.45,4,23.087633,113.32465
电白嘉怡美食,大塘,458,2.9,62,2.8,3.8,23.085505,113.332245
云上轩中餐厅,大塘,786,0,53,0,3.3,23.086733,113.33517
川府人家(分店),大塘,515,2.2,42,2.2,3.2,23.08608,113.332535
潮港湾渔村,大塘,70,2.8,66,3,3.1,23.084166,113.3278
珠湖望月咖啡屋,大塘,523,2.9,50,2.9,3,23.079268,113.32642
Angela Cake(大塘店),大塘,44,0,77,0,-1,23.084011,113.32846
祺苑美食,农讲所,394,2,45,1.9,5,23.13268,113.27793
稻香源(中华广场店),农讲所,764,2.8,67,2.8,5,23.132933,113.28925
酸菜鱼,农讲所,744,0,49,0,5,23.131676,113.288925
大小圈,农讲所,420,4.5,63,4.5,5,23.136673,113.28116
惬意生活休闲吧,农讲所,686,4.5,50,3,5,23.127827,113.278015
乐厨坊(文明路店),农讲所,678,2.8,60,2.8,4.8,23.128181,113.27762
必胜客(中山四店),农讲所,195,2.7,45,2.1,4.7,23.131989,113.28017
香港羽寿司北京路店,农讲所,687,3.9,70,3.8,4.7,23.130962,113.275406
江南果道餐饮,农讲所,902,0,53,0,4.7,23.12695,113.27581
顺和刺身荟,农讲所,631,3,70,3,4.7,23.12863,113.27774
加州卷(中四店),农讲所,163,3.5,93,3.4,4.6,23.13237,113.280304
广州酒家利口福(越秀南店),农讲所,667,3,80,2.9,4.6,23.127354,113.28417
绿茵阁(广州仓边店),农讲所,327,2.9,66,2.6,4.6,23.133373,113.2786
凤凰楼酒家,农讲所,622,3,54,2.5,4.6,23.137745,113.28489
正本将太日本料理,农讲所,591,4,95,5,4.6,23.138165,113.28284
达芬西餐厅,农讲所,958,3.3,45,3.3,4.6,23.126736,113.27526
臻苑,农讲所,877,2.7,40,3.5,4.6,23.131939,113.27327
白熊咖啡馆,农讲所,670,4.3,43,4.3,4.6,23.12911,113.27671
猫屎咖啡(光明广场店),农讲所,955,3.2,77,3.2,4.6,23.127989,113.27414
CLK咖啡酒廊,农讲所,662,3,64,3,4.6,23.135145,113.275764
下班啦新概念蒸菜,车陂,674,0,57,0,5,23.129515,113.40833
李胖子湘菜,车陂,629,2.9,51,2.8,5,23.133253,113.39636
盛歌Club,车陂,936,4.5,63,4.5,5,23.123701,113.40689
蓝带酒屋,车陂,960,4.5,60,4.5,5,23.123549,113.407074
兄弟砂锅粥,车陂,395,0,43,0,4.7,23.128902,113.398575
小龙虾,车陂,398,3,52,4.5,4.7,23.128948,113.398506
喜点荟,车陂,781,3.5,53,3.7,4.6,23.127274,113.40852
冰城串吧(雅景广场店),车陂,151,3.75,67,3.75,4.6,23.130323,113.40047
宝诚美食广场,车陂,489,2.7,50,2.6,4.6,23.13456,113.39949
粤膳和养生坊(车陂卜蜂莲花店),车陂,460,3,50,3,4.6,23.12976,113.39751
紫云轩餐厅,车陂,26,2,40,2.5,4.5,23.130512,113.40195
台城野宴时尚自助烧烤城,车陂,866,0,63,0,4.5,23.125345,113.40798
久久丫鸭颈王(骏景花园店),车陂,944,2.9,40,2.8,4.5,23.12879,113.39289
喜鹊茶餐厅,车陂,228,3.1,44,3.2,4.4,23.130754,113.40411
必胜客(广场餐厅),车陂,992,3,65,3.5,4.4,23.122707,113.39765
千鲜汇(天朗明居店),车陂,369,3.5,50,3,4.4,23.132256,113.39866
拾芳苑茶点居(东圃大马路店),车陂,963,3.8,43,3.85,4.4,23.123398,113.406876
MORE CUP小清吧,车陂,786,3.75,41,3.95,4.4,23.126146,113.40772
夜瑟98,车陂,488,3.55,58,3.6,4.4,23.130497,113.40665
广州酒家(车陂路面店),车陂,97,3.6,61,3.6,4.3,23.131004,113.40279
思勇西饼屋(大学城北站),大学城南,938,3.65,86,3.65,5,23.056349,113.41266
云山诗意中餐厅,大学城南,673,3.65,138,3.8,4.5,23.046251,113.41238
广州大学城雅乐轩酒店聚聚乐餐厅,大学城南,730,4.15,259,4.25,4.1,23.045769,113.41268
岭南餐厅,大学城南,992,2.3,45,2,3.8,23.041977,113.4118
练溪酒家,大学城南,968,3.25,55,3.55,3.3,23.0419,113.41114
膳用时光,大学城南,667,0,54,0,3,23.04524,113.411316
清补羊肉城,黄边,692,0,46,0,5,23.23025,113.28734
尊宝比萨(黄边店),黄边,65,3.4,41,3.4,4.8,23.228724,113.293686
樵夫炭煲快餐店,黄边,368,0,42,0,4.8,23.228992,113.29023
谷斯进口牛排体验馆,黄边,168,4.55,168,4.4,4.6,23.22875,113.292206
嘉宴食府,黄边,166,3.2,41,3,4.5,23.228434,113.292114
胖哥烧烤(黄边店),黄边,218,0,71,0,4.5,23.226494,113.29255
潮汕南香牛肉店,黄边,374,4.5,50,4.5,4.5,23.229855,113.29056
特色冬瓜盅,黄边,152,0,55,0,4.4,23.229027,113.29485
采云间私房菜,黄边,451,0,43,0,4.4,23.224098,113.29322
中山大鸽饭(黄边路店),黄边,104,1.9,56,1.9,4.3,23.22809,113.292694
皇悦海鲜酒家,黄边,380,2.3,57,2.4,4.2,23.22812,113.29743
宏苑酒家(永平店),黄边,757,3.6,41,3.45,4.2,23.222424,113.29774
湘西湘西,黄边,639,3,41,3,4.2,23.226328,113.299644
年丰客家王,黄边,458,3.1,61,3.2,4.1,23.229252,113.28939
鱇源挪威三文鱼(玫瑰园店),黄边,207,3.45,56,3.45,4.1,23.228926,113.29187
里奇咖啡西餐,黄边,104,2.4,58,2.7,4,23.228088,113.29269
广州酒家利口福(白云大道北店),黄边,981,3.75,57,3.75,4,23.228233,113.303314
新客家(时代玫瑰园总店),黄边,154,2.3,61,2.4,3.9,23.228354,113.29221
广新客家农庄,黄边,580,2.9,49,2.9,3.9,23.230267,113.28853
唐苑酒家(白云店),黄边,863,3.3,97,4,3.9,23.224762,113.30132
咖啡磨自助餐厅,广州火车站,937,3.5,225,4.5,5,23.145641,113.26476
东海海鲜酒家(流花店),广州火车站,871,3.1,129,3.8,4.6,23.146072,113.260735
南国宴乐,广州火车站,955,2.8,60,3.3,4.6,23.145618,113.265305
都拿吃,广州火车站,542,3.8,45,3.75,4.6,23.155012,113.2572
中国大酒店-四季厅,广州火车站,954,3.3,177,3.4,4.6,23.146,113.26631
文客西餐厅,广州火车站,733,0,52,0,4.5,23.148096,113.258675
THECOFFEECLUB卡啡客(FTC店),广州火车站,838,2.6,56,2.7,4.5,23.146912,113.265755
利口福(桂花岗店),广州火车站,948,3,45,3,4.5,23.156265,113.27121
同人咖啡阁,广州火车站,851,4.5,99,4.5,4.5,23.146141,113.26156
味稻皇(总店),广州火车站,748,2.1,62,2.5,4.4,23.147655,113.25928
澳门街(东方店),广州火车站,974,2.7,81,2.8,4.4,23.145126,113.26392
中国大酒店扒房,广州火车站,953,3.6,287,3.8,4.4,23.146006,113.26631
城市酒吧,广州火车站,965,2.7,104,3,4.4,23.150885,113.27125
潮州菜馆(站前路),广州火车站,688,2.9,60,2.9,4.3,23.149307,113.25767
东方厅,广州火车站,937,2.5,115,3.3,4.3,23.145641,113.26476
中国大酒店-宴会厅,广州火车站,967,2.5,327,2.5,4.3,23.146029,113.26667
文客咖啡,广州火车站,733,3.7,62,3.65,4.3,23.148092,113.258675
中国大酒店-大堂吧,广州火车站,954,2.8,40,2.8,4.3,23.146,113.26631
年年有渔(香江店),广州火车站,453,0,53,0,4.2,23.153584,113.26677
同湘会(直营第18分店),广州火车站,907,3.2,58,3.3,4.2,23.158306,113.269714
香喷喷美食,东湖,704,4.6,40,4.6,5,23.127842,113.29504
东山湖公园啤酒广场,东湖,305,4.5,200,4.5,5,23.120197,113.29788
River餐饮店,东湖,859,3.3,70,3.3,4.8,23.114304,113.292206
健膳阁,东湖,733,3.1,42,3.6,4.7,23.127666,113.29267
麦迪逊,东湖,376,4.5,122,4.5,4.6,23.118664,113.29725
广州酒家(东山东路店),东湖,783,0.5,50,0.5,4.5,23.126373,113.30079
弘前寿司,东湖,728,3.4,59,3.3,4.5,23.127619,113.29266
CUP WORLD咖啡厅,东湖,334,4.1,77,4.3,4.5,23.124521,113.29518
新保挪威三文鱼专卖(东川路店),东湖,946,3.1,44,3,4.5,23.129766,113.293
云上咖啡·艺术会馆,东湖,753,4.05,43,4,4.5,23.126905,113.29971
山东老家(合群店),东湖,589,2.7,61,2.6,4.4,23.125006,113.29958
利口福(东川店),东湖,689,3.95,52,3.95,4.4,23.127218,113.29261
Bill Goes Cafe 镖局,东湖,953,3.3,71,3.2,4.4,23.128471,113.28982
稻香东山店,东湖,711,3,60,3.2,4.3,23.124199,113.28893
毛家湾饭店嘉星广场店,东湖,702,2.4,62,2.5,4.3,23.124453,113.28918
天云菜馆,东湖,552,0,50,0,4.3,23.120724,113.28992
松花江饺子馆(较场西路店),东湖,953,3.3,44,3.1,4.3,23.12848,113.289825
新园渔鲜,东湖,788,3,40,4.5,4.3,23.128305,113.29307
It's True初品文化生活馆,东湖,924,3.95,43,4,4.3,23.128012,113.30089
燕塘牛奶越秀南专卖店,东湖,998,3.6,40,3.6,4.3,23.126785,113.28735
潮州老鸭店,三元里,737,3.1,52,3,5,23.168362,113.27014
莎颖西餐厅,三元里,916,4,55,4.2,4.7,23.173597,113.263725
韵味湘厨,三元里,786,0,47,0,4.7,23.168633,113.27052
深海大石斑火锅,三元里,877,3.45,82,3.5,4.7,23.172703,113.260574
嘉家挪威三文鱼,三元里,969,3.8,51,3.8,4.7,23.174038,113.26453
佬湘湖南菜馆,三元里,107,3.7,40,3.7,4.6,23.164686,113.26446
蒙古部落,三元里,790,2.8,65,2.8,4.6,23.166904,113.25616
璞园香约,三元里,847,3.4,89,3.5,4.6,23.172447,113.26673
粤潮牛肉火锅店(广园中路店),三元里,999,2.2,50,2,4.5,23.165983,113.27345
同湘会(直营第1分店),三元里,683,2.5,49,2.3,4.5,23.166142,113.27033
必胜客(机场路店),三元里,822,2.4,65,2.5,4.5,23.161325,113.270454
利口福(乐嘉路店),三元里,993,4.05,128,4.05,4.4,23.174282,113.26347
乾福生酒楼,三元里,755,3,47,3,4.3,23.163553,113.256584
潮兴牛肉连锁店(三元里乐嘉店),三元里,878,2.9,41,2.9,4.3,23.172863,113.26104
雪贝尔艺术蛋糕坊(三元里店),三元里,694,3.7,108,3.7,4.3,23.162506,113.26975
爱客多蛋糕店(三元里店),三元里,53,3.65,67,3.65,4.3,23.165764,113.26397
同湘会(直营第18分店),三元里,995,3.2,58,3.3,4.2,23.158306,113.269714
必胜客(广花店),三元里,201,2.9,54,2.9,4.2,23.167122,113.263275
山西大厦风味酒楼,三元里,314,3,62,3.1,4.2,23.167103,113.26129
湘雅居(三元里大道),三元里,231,3.85,50,3.85,4.1,23.167023,113.26236
君临轩大酒楼,一德路,518,3.4,70,3.4,4.8,23.11652,113.259476
银灯食府,一德路,910,3,63,3.3,4.7,23.122284,113.271904
新寿司,一德路,958,2.1,42,2.2,4.6,23.12037,113.25443
爱群旋转餐厅,一德路,377,2.2,60,3.6,4.5,23.115694,113.263626
荔苑(濠畔商厦店),一德路,415,3.55,47,3.75,4.4,23.122688,113.262634
利口福(人民中店),一德路,846,4.5,50,4.5,4.4,23.125515,113.25927
True Love臻爱蛋糕(海珠广场店),一德路,860,3.65,58,3.65,4.4,23.120535,113.271965
惠食佳(滨江店),一德路,600,2.9,90,3.5,4.3,23.114166,113.26612
金越轩越式美食(起义路店),一德路,883,2.5,61,2.5,4.3,23.123173,113.27111
塔影楼酒馆,一德路,880,2.7,62,3.4,4.3,23.113077,113.258095
红蝙蝠1988,一德路,596,2.9,40,2.9,4.3,23.114565,113.26684
Vivid酒吧,一德路,453,2.8,70,2.9,4.3,23.117512,113.26779
宾宾酒家,一德路,367,2.7,68,2.2,4.2,23.121462,113.26121
鲜入为煮肥牛海鲜火锅,一德路,702,2.2,82,2.8,4.2,23.115826,113.269585
金诺郎韩式炭火烤肉（上九路店）,一德路,652,3.3,60,3.4,4.2,23.121637,113.25796
陆点,一德路,955,3,55,3,4.2,23.120344,113.25446
苏荷酒吧(沿江西路),一德路,431,2.8,120,2.9,4.2,23.117706,113.267654
Clef Cafe,一德路,612,3.85,75,3.85,4.2,23.114918,113.26762
百家熟食店,一德路,288,2.7,80,2.7,4.1,23.12137,113.26235
亨少茶餐厅,一德路,887,3.1,48,3.2,4.1,23.122885,113.27134
味道湘坊,黄陂,763,0,45,0,-1,23.193298,113.44701
Next Cake甜品店,体育中心,903,2.5,164,2.7,5,23.134398,113.329414
q吧,体育中心,920,2.4,78,2.9,5,23.148726,113.33255
叻宝叻宝,体育中心,537,4,83,4.1,5,23.135935,113.335464
糕朋满座DIY蛋糕,体育中心,680,3.65,85,3.65,5,23.136322,113.33034
游乐场咖啡酒吧,体育中心,774,3.2,47,3.2,5,23.134096,113.33269
汉密哈顿,体育中心,888,2.9,100,2.9,5,23.147964,113.33123
天河蔚青咖啡厅,体育中心,669,4.5,40,4,5,23.140636,113.32839
麻田会(体育西店),体育中心,799,3,83,3,4.9,23.13781,113.3278
潮皇食府(国贸总店),体育中心,887,3.1,100,3.4,4.8,23.147326,113.33004
虾搞搞小龙虾,体育中心,530,4.3,102,3.95,4.8,23.13608,113.33603
Ebony,体育中心,480,3.5,240,3.5,4.8,23.140554,113.33963
SootheDS苏芙吧,体育中心,875,3.3,87,3.2,4.8,23.14716,113.3399
翠园,体育中心,422,3.4,130,3.7,4.7,23.139614,113.33888
一龙拉面,体育中心,528,4.35,47,3.95,4.7,23.136532,113.33253
挪威深海三文鱼侨怡苑店,体育中心,589,3.2,59,3.2,4.7,23.145927,113.33615
阿翁名菜,体育中心,602,0,298,0,4.7,23.13533,113.3352
正本日本料理(林和东店),体育中心,979,3.3,165,3.2,4.7,23.149544,113.334526
元気寿司,体育中心,327,0,92,0,4.7,23.139502,113.337845
武藏日本料理,体育中心,932,3,137,3,4.7,23.14658,113.34148
潮泰居美食店,体育中心,816,2.1,40,2.3,4.7,23.135103,113.32983
红芥末寿司店,晓港,934,3.3,55,3,5,23.100574,113.279305
潮公馆潮州食府,晓港,663,3.65,40,3.65,5,23.097,113.28238
萌记美食,晓港,966,4.5,40,4.5,5,23.09505,113.280136
广州酒家(江南西店),晓港,828,3,50,3,5,23.103218,113.28142
这夜···,晓港,984,2.8,500,2.7,5,23.09117,113.28466
林海土蜂蜜(礼岗路分店),晓港,937,0,70,0,4.8,23.093094,113.282196
家琳甜品工作坊,晓港,750,4.35,69,4.35,4.8,23.103588,113.28263
小幸福HAPPY-KITCHEN(昌岗店),晓港,553,3,48,3.2,4.7,23.098846,113.28296
姨丈私房菜,晓港,706,2.6,62,2.2,4.6,23.104795,113.2919
挪威三文鱼,晓港,955,4.1,42,3.95,4.6,23.094112,113.280945
LA CAFFERIA,晓港,654,3.95,41,3.9,4.6,23.095947,113.28313
Masa玛莎,晓港,999,2.8,50,2.8,4.6,23.099733,113.27858
时光里咖啡小聚The Moments,晓港,734,3.4,53,3.2,4.6,23.102598,113.28209
178Cooking,晓港,746,4.2,148,4,4.6,23.096651,113.28166
新兴饭店(前进路),晓港,957,2.6,73,2.4,4.5,23.106936,113.2839
天成川菜馆(礼岗店),晓港,894,2.7,51,2.7,4.4,23.09229,113.284164
蒙地卡罗(珀丽店),晓港,611,2.8,77,3.1,4.4,23.097336,113.28278
渝风楼重庆风味酒楼(昌岗店),晓港,748,3.4,52,3.4,4.3,23.096575,113.28168
唐宴酒家(江南大道店),晓港,689,2.2,57,2.4,4.2,23.096695,113.28225
汕头福合埕牛丸火锅店,晓港,798,2.9,47,2.8,4.2,23.105932,113.291466
番禺区海鸡场饭店,石壁,1000,4.5,55,4.5,4.7,23.003962,113.29379
美心西饼(广州南站店),石壁,972,3,63,2.9,4.2,22.995596,113.27688
佬湘楼(番禺石壁分店),石壁,550,3,58,3,4.1,23.002798,113.28952
湘味小厨,石壁,882,3.45,63,3.45,4,23.001991,113.27636
新琼发餐厅,石壁,912,3.2,50,3,4,23.006733,113.27913
味千拉面(广州南站店),石壁,988,2.8,49,2.9,3.8,22.995485,113.27677
鸿丰酒楼,石壁,862,2.9,60,2.9,3.8,23.001707,113.2765
强记农庄,石壁,842,3.5,50,3.45,3.7,23.00664,113.28012
UD COFFEE,石壁,988,3.5,43,3.6,3.2,22.995485,113.27677
广州酒家(人和店),人和,75,3.2,52,3.2,5,23.342167,113.30213
庖丁新鲜牛肉,人和,736,3.5,45,3.45,5,23.34259,113.30958
忆湘苑湘菜馆,人和,746,2.9,46,2.9,4.6,23.346436,113.29743
御福湛江鸡海鲜酒家,人和,461,4.5,45,4.5,4.5,23.345705,113.302605
文良老北京火锅,人和,752,2.8,42,2.9,4.3,23.34831,113.302925
余香阁,人和,736,3.6,70,3.55,4.3,23.348175,113.30249
胜豪客,人和,75,3.2,60,3.2,4.2,23.341503,113.30172
湘土地,人和,736,3.2,40,3.2,4.2,23.348175,113.30249
万岁寿司(人和店),人和,21,3.95,77,4.1,4.1,23.341469,113.30226
湘满楼(人和店),人和,187,3,62,3,4.1,23.342577,113.300995
凤成酒家,人和,855,2.9,50,2.9,4.1,23.349106,113.304054
必胜客(人和店),人和,70,2.9,65,3,4,23.341526,113.30177
重庆酸菜鱼,人和,250,3.6,48,3.55,4,23.33949,113.30345
嘉锦酒楼,人和,599,3,50,4.5,4,23.337917,113.306786
林记砂锅粥,人和,229,3.55,49,3.55,4,23.34281,113.300674
御东记(人和店),人和,858,2.9,63,3,3.9,23.346102,113.295654
弥敦道茶餐厅,人和,89,3.85,50,4.05,3.8,23.34152,113.30158
聚福阁猪肚鸡(NO.9),人和,780,3.5,44,3.55,3.8,23.34847,113.30117
傣妹火锅(人和店),人和,61,3.1,43,3,3.7,23.341446,113.301865
鸽皇餐厅,人和,816,2.9,50,2.8,3.7,23.346155,113.29622
佛山新京酒楼,季华园,897,2.9,55,3,5,23.014853,113.12358
鸡煲王,季华园,440,0,40,0,5,23.008884,113.114784
好顺楼,季华园,641,4.5,49,4.5,5,23.01615,113.120224
汫田日本料理,季华园,439,3.2,55,3.2,4.7,23.016703,113.114174
大禾寿司(绿景店),季华园,702,2.8,40,3.1,4.7,23.007322,113.11843
餸朝海鲜酒家(简村店),季华园,868,3.2,52,3.3,4.5,23.020264,113.11245
重庆兴旺烤鱼,季华园,149,3.85,49,3.65,4.5,23.011517,113.114845
湘园,季华园,661,3,50,2.9,4.5,23.016155,113.12045
毋米粥(绿景店),季华园,525,3.1,84,3.1,4.4,23.008577,113.11287
欢苑粤菜馆,季华园,545,3,41,3,4.4,23.014582,113.12007
潮仁食府,季华园,222,3.4,72,3.3,4.3,23.013266,113.11721
乡土坊,季华园,383,2.9,50,3,4.3,23.012527,113.11135
华远羊庄,季华园,961,3,46,2.8,4.3,23.009073,113.12354
牛牛西厨(国际店),季华园,232,3.4,87,3.4,4.2,23.010803,113.1156
如轩砂锅粥(绿景店),季华园,699,3.3,57,3.3,4.2,23.007317,113.11837
我係私房菜,季华园,548,3,48,3,4.1,23.014439,113.12016
汕头老庄牛肉丸火锅店(绿景店),季华园,974,2.7,40,2.8,4.1,23.008848,113.12356
鸽缘美食,季华园,843,3,85,2.9,4.1,23.009136,113.12228
鸣旺阁美食,季华园,864,3.2,44,3,4.1,23.011038,113.1233
臣福龙小东北,季华园,710,3.2,58,3.1,4.1,23.007187,113.11832
海南农庄,东平,701,2.8,165,3,4.4,22.965693,113.13251
绿雅居农庄,东平,807,3.65,50,3.7,4.1,22.96601,113.1411
芦塘冬瓜盅(东平新城店),东平,671,3.55,70,3.55,4,22.965714,113.13314
盛记农庄,东平,735,3.6,55,3.55,3.7,22.965628,113.13195
塘边美食,东平,677,2.9,50,2.8,2.7,22.96571,113.133
文记农庄,海傍,365,3.8,62,3.25,4.5,22.942091,113.480644
楚之韵,海傍,43,0,41,0,4.4,22.945518,113.482086
骏景美食,海傍,873,3,44,3,3.8,22.941536,113.48954
苏萝音乐餐厅,海傍,941,3.75,50,3.8,3.8,22.95059,113.489006
聚宝渔村(万科广场店),南桂路,339,0,42,0,5,23.043312,113.161026
杯子红西餐厅(城市广场店),南桂路,309,3,67,3,4.8,23.042198,113.162704
国味壹号店,南桂路,459,3.2,58,3.2,4.6,23.041006,113.16492
雅达利超级牛扒(桂城店),南桂路,249,0,82,0,4.5,23.042458,113.161156
湘拉拉,南桂路,230,4.1,50,4.3,4.4,23.042374,113.160484
过锅瘾三汁焖锅(南海万科广场店),南桂路,382,3.85,53,3.75,4.4,23.043678,113.16119
莱茵阁●西餐咖啡厅(桂城店),南桂路,249,2.8,83,2.8,4.4,23.04177,113.16234
2046酒吧会所,南桂路,871,2.9,80,2.9,4.4,23.038326,113.16873
如轩砂锅粥(桂南名都店),南桂路,203,2.7,57,2.7,4.3,23.03916,113.15894
妙香居韩国料理,南桂路,471,3.3,40,3.4,4.3,23.040133,113.1651
万岁寿司·料理(南海新天地店),南桂路,486,3.4,71,3.4,4.3,23.039673,113.1652
二郎田鸡(桂城店),南桂路,831,2.9,50,2.9,4.3,23.047773,113.16068
四海他她(百花时代店),南桂路,143,3,49,3,4.2,23.039165,113.161156
风彩渔港,南桂路,527,2.9,51,3,4.2,23.040648,113.165634
德庄火锅(家天下店),南桂路,767,2.9,50,2.9,4.2,23.047178,113.161156
品然轩,南桂路,828,3.2,74,3.2,4.2,23.047728,113.161125
多彩扎啤体验馆,南桂路,263,0,40,0,4.1,23.039982,113.16305
烤肉先生,南桂路,362,3.8,63,3.8,4.1,23.043543,113.16093
达米高意大利咖啡餐厅,南桂路,526,3.4,90,3.4,4.1,23.040419,113.165634
人山人海国际美食会,南桂路,841,3.2,101,3.4,4,23.047869,113.16076
越南小馆,南村万博,398,3.65,47,3.65,5,23.013113,113.357025
韩国本家料理番禺店,南村万博,954,4.55,100,4.6,4.8,23.016796,113.34828
四海一家(番禺迎宾),南村万博,851,2.9,150,3.2,4.7,23.015102,113.34793
沅江水(番禺店),南村万博,944,3.3,67,3.4,4.6,23.01791,113.35019
浮生旅行咖啡店,南村万博,802,3.75,49,3.75,4.6,23.015902,113.34942
四桂堡,南村万博,866,3.4,228,3.5,4.5,23.013494,113.346725
青石谷韩国料理餐厅,南村万博,958,3,50,3.1,4.5,23.001812,113.35538
同湘会(直营第15分店),南村万博,904,3.2,62,3.3,4.3,23.002268,113.35486
品水锦源原生态农产品体验馆(番禺中华美食城店),南村万博,924,0,71,0,4.3,23.01818,113.35132
非常厨房,南村万博,754,4.55,128,4.55,4.3,23.015673,113.34985
芽莊越式料理(番禺店),南村万博,715,3.3,75,3.4,4.3,23.004034,113.355515
山海楼,南村万博,992,3.2,60,3.2,4.3,23.01883,113.35131
鄂湘情(中华美食城店),南村万博,984,2.9,51,2.9,4.3,23.018312,113.35019
北方印象主题餐厅(中华美食城店),南村万博,942,3,40,3,4.1,23.0179,113.35022
鱼满塘(番禺万博店),南村万博,692,3.6,69,3.8,4.1,23.01393,113.34892
绿岛咖啡厅（海印又一城店）,南村万博,722,3.1,50,3.2,4.1,23.003963,113.3555
鸽天下(官塘店),南村万博,817,2.6,62,2.3,4,23.017471,113.35234
维景大酒店中餐厅,南村万博,998,2.7,44,2.8,4,23.017332,113.348305
巴蜀老船王火锅作坊,南村万博,871,0,58,0,3.9,23.017683,113.35135
金成潮州酒楼(迎宾店),南村万博,859,2.9,88,3.1,3.8,23.002665,113.354515
顺德松记分店,鹤洞,939,2.3,93,2.5,4.2,23.083084,113.25375
老关东饺子馆,鹤洞,67,3,44,2.9,3.8,23.07795,113.24569
永红土家菜农庄(芳村店),鹤洞,742,2.1,48,2.2,3.4,23.08467,113.244934
阿牛农家菜(芳村店),鹤洞,971,2.2,43,2,3.2,23.086813,113.24724
御辉煌酒家,鹤洞,59,2.4,47,2.3,3.1,23.078169,113.2469
利口福(坑口店),鹤洞,234,2.8,52,2.8,3.1,23.079054,113.24427
强哥私房菜,鹤洞,811,1.5,70,2.5,-1,23.0806,113.23886
Next Cake甜品店,体育西路,314,2.5,164,2.7,5,23.134398,113.329414
海皇轩食府(广晟店),体育西路,710,3.2,70,3.4,5,23.130857,113.33021
老友记主题店,体育西路,822,0,57,0,5,23.13134,113.322754
品致尊快餐,体育西路,991,4.5,40,4.5,5,23.134388,113.31873
叻宝叻宝,体育西路,767,4,83,4.1,5,23.135935,113.335464
糕朋满座DIY蛋糕,体育西路,245,3.65,85,3.65,5,23.136322,113.33034
游乐场咖啡酒吧,体育西路,570,3.2,47,3.2,5,23.134096,113.33269
天河蔚青咖啡厅,体育西路,414,4.5,40,4,5,23.140636,113.32839
麻田会(体育西店),体育西路,101,3,83,3,4.9,23.13781,113.3278
乐藏,体育西路,757,3,95,3.2,4.9,23.131775,113.32317
辉记潮州海鲜砂锅粥(广州大道中),体育西路,690,2,89,2.2,4.8,23.138498,113.3215
富田菊铁板皇尚料理(富力盈信大厦店),体育西路,655,3.4,130,3.5,4.8,23.131027,113.32824
虾搞搞小龙虾,体育西路,823,4.3,102,3.95,4.8,23.13608,113.33603
一龙拉面,体育西路,462,4.35,47,3.95,4.7,23.136532,113.33253
潮泰居美食店,体育西路,273,2.1,40,2.3,4.7,23.135103,113.32983
72街(盈丰店),体育西路,786,4,45,4.05,4.7,23.131325,113.32333
阿翁名菜,体育西路,753,0,298,0,4.7,23.13533,113.3352
贰叁茶屋,体育西路,552,4.25,53,4.3,4.7,23.133915,113.33233
7INN郁源咖啡,体育西路,501,3.2,42,3.2,4.7,23.134207,113.33194
班克咖啡总店,体育西路,480,3.2,44,3.1,4.7,23.134586,113.33198
晋盈西餐厅,新造,155,3.8,61,3.8,4.2,23.035795,113.42135
河边食坊,新造,553,3,59,2.9,4.1,23.036655,113.41715
小c西点,新造,56,3.5,95,3.5,3.8,23.035063,113.422066
穗兴酒楼,新造,987,2.8,48,2.8,3.3,23.043365,113.420845
田园牧歌园林西餐厅,客村,491,3.8,55,4.5,5,23.10511,113.33066
WE烧烤餐厅,客村,893,3.2,50,3.4,4.9,23.106342,113.33454
涟漪床吧餐厅,客村,990,3.8,114,3.9,4.9,23.109274,113.32136
福音到咱家酒家,客村,930,2.2,49,2.1,4.7,23.10668,113.31949
多伦多芝士蛋糕(客村店),客村,105,3.75,98,3.8,4.7,23.101572,113.32627
如轩砂锅粥(客村店),客村,743,0,59,0,4.6,23.096731,113.32281
道和堂,客村,213,4.15,63,4.1,4.6,23.10025,113.32759
点红点绿茗点居(客村店),客村,304,2.8,58,4,4.5,23.10158,113.324196
大舶韩国料理2号店,客村,989,3.3,68,3.3,4.5,23.100279,113.31765
BRUSSELS Belgian Beer Cafe,客村,135,3.1,98,3.2,4.5,23.100945,113.32748
东江海鲜酒家总店,客村,646,2.4,100,2.5,4.4,23.104433,113.32132
海记汕头牛肉(新港中路店),客村,877,3,68,3,4.4,23.102304,113.33569
手拉手风味菜馆海珠店,客村,930,3.2,55,3.2,4.4,23.106676,113.31949
1019韩国炸鸡店,客村,991,4.2,88,4,4.4,23.100487,113.31759
二郎田鸡赤岗分店,客村,342,2.3,52,2.1,4.4,23.100027,113.32958
山泉公馆(客村店),客村,304,3.1,70,3.7,4.3,23.10158,113.324196
创辉美食,客村,434,2.8,95,2.95,4.3,23.101124,113.323006
国记酒楼,客村,628,3.5,40,3.5,4.3,23.100117,113.32137
田园牧歌音乐空间,客村,353,3,59,3,4.3,23.103296,113.33033
心动西餐厅,客村,820,2.1,86,3,4.3,23.1058,113.33407
尊宝比萨(洛溪店),洛溪,792,3.4,45,3.4,4.9,23.047655,113.31275
福合埕汕头牛丸火锅,洛溪,512,0,40,0,4.7,23.046717,113.30936
新保挪威三文鱼(如意三马路店),洛溪,251,2.9,47,3,4.6,23.0515,113.30583
东江客家菜馆,洛溪,290,3.55,40,3.4,4.6,23.051662,113.30397
品顺食府,洛溪,816,2.4,86,1,4.5,23.055126,113.30034
新保挪威三文鱼(洛浦食街店),洛溪,684,3.1,68,3,4.5,23.054314,113.301315
夜猫,洛溪,522,3.5,41,3.5,4.4,23.05347,113.30283
渔民新村(丽江店),洛溪,596,3.2,88,3.4,4.3,23.044186,113.30351
九毛九山西面馆(洛溪新地店),洛溪,274,0,50,0,4.3,23.04879,113.30784
牧羊人(洛溪食街店),洛溪,540,3.75,84,3.65,4.3,23.053406,113.30236
小C西点(洛溪店),洛溪,292,3.65,95,3.65,4.3,23.048742,113.30801
御满江海鲜酒家,洛溪,834,2.6,60,2.8,4.2,23.056147,113.30185
陈宝记海鲜酒家(洛溪分店),洛溪,497,2.7,92,2.7,4.2,23.053251,113.3029
一品九味,洛溪,594,4.1,71,4.2,4.2,23.053766,113.30201
麻田会(洛溪新地店),洛溪,292,3.4,81,3.4,4.2,23.049458,113.30807
窦口餐吧,洛溪,748,3.95,140,4.3,4.2,23.055838,113.30341
湘村人家(洛溪新城店),洛溪,322,2.2,54,2.2,4.1,23.04899,113.30834
仙杜拉西餐厅,洛溪,340,3.2,60,3.3,4.1,23.048859,113.3085
湘友会土菜馆,洛溪,475,3.65,51,3.55,4.1,23.052925,113.302734
煲煲哥招牌奇味鸡煲,洛溪,456,3.85,45,3.65,4.1,23.046885,113.308815
海皇轩食府(广晟店),妇儿中心,305,3.2,70,3.4,5,23.130857,113.33021
Next Cake甜品店,妇儿中心,705,2.5,164,2.7,5,23.134398,113.329414
汤工房（兴盛路店）,妇儿中心,617,0,83,0,5,23.12664,113.33699
广州富力丽思卡尔顿酒店宴会厅,妇儿中心,745,4.5,1454,2.5,5,23.12208,113.33401
麦考利爱尔兰餐厅,妇儿中心,909,0,70,0,5,23.124573,113.32329
The Ascott Lounge,妇儿中心,485,3,76,3,5,23.124344,113.32914
老友记主题店,妇儿中心,929,0,57,0,5,23.13134,113.322754
叻宝叻宝,妇儿中心,955,4,83,4.1,5,23.135935,113.335464
爱意意大利餐厅酒吧,妇儿中心,998,3.3,98,3.4,5,23.125628,113.340546
糕朋满座DIY蛋糕,妇儿中心,899,3.65,85,3.65,5,23.136322,113.33034
游乐场咖啡酒吧,妇儿中心,664,3.2,47,3.2,5,23.134096,113.33269
Ings Cafe(兴盛路店),妇儿中心,811,3.6,67,3.6,5,23.126211,113.33883
乐藏,妇儿中心,910,3,95,3.2,4.9,23.131775,113.32317
哈哈镜鸭脖子(广州总店),妇儿中心,823,3,40,3,4.9,23.126003,113.33888
春夏秋冬韩国料理,妇儿中心,621,3.3,85,3.2,4.8,23.126814,113.33709
富田菊铁板皇尚料理(富力盈信大厦店),妇儿中心,431,3.4,130,3.5,4.8,23.131027,113.32824
香天下清油火锅(珠江新城店),妇儿中心,928,4.2,99,4.5,4.8,23.12379,113.33887
佰鲜汇,妇儿中心,582,3.4,943,3.5,4.8,23.123316,113.32939
虾搞搞小龙虾,妇儿中心,997,4.3,102,3.95,4.8,23.13608,113.33603
Hello Kitty咖啡厅,妇儿中心,529,4.5,100,4,4.8,23.123512,113.33113
潮家菜,大石,711,0,47,0,5,23.029434,113.32545
谷泉荟1号店,大石,320,0,55,0,4.9,23.020649,113.327736
城市客家,大石,838,4.2,54,4,4.6,23.019688,113.32103
潮汕西桥牛肉店(万盛名家分店),大石,827,4.15,60,3.95,4.6,23.019604,113.321205
尊宝比萨(大石店),大石,984,4.4,40,4.35,4.6,23.026398,113.318985
谷泉荟椰子鸡,大石,343,4.1,54,4.15,4.4,23.0206,113.32698
植村大排档,大石,934,3.75,46,3.45,4.4,23.016378,113.3329
伯朗克西餐厅,大石,941,3,40,3.1,4.4,23.03034,113.32265
湘西乡村,大石,820,2.9,57,2.9,4.3,23.02642,113.32072
乡村湘常德土菜馆,大石,537,3.45,50,3.25,4.3,23.019773,113.32477
海缘香辣蟹,大石,594,3.65,40,3.65,4.3,23.019644,113.32409
潮香砂锅粥,大石,744,3,46,3,4.2,23.019526,113.32224
Lentacafe漫意,大石,385,3.5,59,3.5,4.2,23.020214,113.32695
湘里人家(原新聚龙餐厅),大石,662,2.8,58,2.9,4.1,23.028467,113.324486
杨梅人家,大石,306,3.65,104,3.55,4,23.020824,113.32871
芙蓉湘菜馆,大石,842,3,59,3,4,23.029448,113.333206
东篱粤菜馆,大石,787,4.5,50,3,4,23.026535,113.32112
常德老彭土菜馆,大石,703,3.4,46,3.3,4,23.019457,113.322815
鸡鸭鹅食庄,大石,516,3.2,45,3.35,3.9,23.025473,113.332664
天然味道(群贤路店),大石,487,3.6,52,3.55,3.9,23.023996,113.32335
江南STYLE韩国菜,中山八,762,3,61,3,4.8,23.13091,113.2469
STMBar,中山八,757,4.6,122,4.6,4.7,23.131071,113.24686
麻田会(中山八路店),中山八,790,2.4,78,3,4.6,23.131765,113.24716
原甜甜品店,中山八,788,3.2,65,3,4.6,23.131706,113.24715
丰南粥粉面,中山八,885,3.65,40,3.65,4.5,23.132698,113.24796
Terrace,中山八,789,4,40,4.5,4.4,23.132685,113.24702
阳台咖啡西餐厅,中山八,790,3.1,72,2.9,4.4,23.131765,113.24716
伯莱客餐厅,中山八,592,0,68,0,4.4,23.130514,113.2452
燊记乳鸽专门店,中山八,380,2.9,61,3,4.3,23.130335,113.24305
九毛九山西面馆(荔景苑店),中山八,790,3.4,50,3.4,4.3,23.131765,113.24716
PIZZA 2 PIZZA法国披萨屋(中山八路店),中山八,588,2.2,48,1.9,4.3,23.130615,113.24517
悦香鸡(石路基店),中山八,568,3.1,40,3,4.3,23.132063,113.24494
利口福(南岸路店),中山八,480,3.2,40,3.2,4.3,23.12801,113.242584
唐荔园,中山八,805,2.8,76,3.8,4.2,23.124086,113.23811
满园春美食馆,中山八,785,2.3,50,3,4.2,23.124914,113.24289
味藏寿司,中山八,990,0,55,0,4.2,23.127151,113.24806
捞喜鲜鱼村,中山八,997,3.7,46,3.6,4.2,23.130127,113.24913
金庄烧腊店(泮塘分店),中山八,343,3,40,2.9,4.2,23.130249,113.24264
向群饭店(泮塘路店),中山八,491,2.3,60,2.6,4.1,23.128725,113.243416
厨味坊,中山八,761,2.9,73,3,4.1,23.130972,113.246895
好彩饭店,钟村,343,3.5,48,3.5,5,22.990608,113.32001
正宗桂林米粉,钟村,982,3,40,3,5,22.983406,113.32432
九门寨石锅鱼,钟村,873,3.65,40,3.5,5,22.984423,113.32446
尚名居酒楼,钟村,943,2.8,50,2.8,4.3,22.984245,113.319565
渔旺鱼宴(渔来鱼旺分店),钟村,790,3,63,3,4.1,22.995564,113.31615
新业食品店,钟村,943,2.8,40,2.8,4.1,22.98373,113.32405
田园农庄,钟村,384,2.9,65,2.9,4,22.98902,113.324524
渔来鱼旺,钟村,261,3.65,60,3.7,4,22.991299,113.32054
烧鹅妹饭店,钟村,180,2.9,58,2.8,3.9,22.99158,113.32456
拱桥饭店园林美食广场,钟村,677,3.5,44,3.4,3.9,22.986181,113.321594
椰香四季,钟村,895,3.8,64,3.85,3.9,22.984118,113.323586
韬客园,钟村,710,3.45,50,3.45,3.8,22.988224,113.3284
茂园,钟村,695,3,42,2.9,3.7,22.994772,113.32908
奥园高尔夫餐厅,钟村,621,0,148,0,3.7,22.994389,113.32848
富景酒家,钟村,897,3.25,52,3.35,3.6,22.984085,113.32335
新四川餐厅,钟村,490,2.8,70,2.8,3.3,22.988003,113.32127
汉隆大酒楼,钟村,744,2.7,72,2.8,3.2,22.994675,113.32965
东海海鲜美食,钟村,922,3.45,70,3.4,3,22.984247,113.320175
东昊山庄,黄阁,111,3,61,3.2,4,22.830452,113.52426
聚汇坊猪肚鸡(江夏店),江夏,220,3.5,80,3.45,4.9,23.21676,113.287674
润园椰子鸡,江夏,891,0,86,0,4.8,23.211763,113.295654
斯贝尔西饼,江夏,160,4.5,80,4.5,4.6,23.217855,113.29118
广潮牛骨牛杂煲,江夏,951,3.65,52,3.55,4.5,23.210777,113.29531
李记港式猪肚鸡(江夏美食广场店),江夏,662,3.85,43,3.7,4.5,23.212194,113.28684
程记大排档,江夏,745,3.2,42,3.2,4.5,23.211119,113.291626
川福楼风味馆,江夏,379,2.9,40,2.9,4.5,23.216162,113.28626
甜心客艺术蛋糕店(黄石店),江夏,328,3.45,50,3.45,4.5,23.2184,113.28655
采云间私房菜,江夏,812,0,43,0,4.4,23.224098,113.29322
德记湛江鸡饭店广从路店,江夏,981,1.9,70,2,4.4,23.209698,113.29398
隆盛客,江夏,770,3.85,84,3.8,4.4,23.211437,113.28613
大碗厨(广外店),江夏,951,3.95,50,3.95,4.3,23.210766,113.29529
重庆一哥酸菜鱼,江夏,365,2.8,44,2.8,4.3,23.218801,113.28633
汕头牛庄,江夏,634,3.65,68,3.6,4.2,23.212357,113.28712
宏苑酒家(永平店),江夏,987,3.6,41,3.45,4.2,23.222424,113.29774
湘味食尚(黄石店),江夏,761,3.55,60,3.6,4.1,23.211395,113.28643
大咖咖啡,江夏,814,0,58,0,4.1,23.212765,113.28362
满江红时尚川菜馆,江夏,702,0,50,0,4,23.212025,113.286354
皇鸽餐厅,江夏,730,2.8,60,2.8,3.8,23.224,113.291115
粗茶淡饭,江夏,815,0,45,0,3.8,23.210588,113.29207
鸽王世家(禾悦居分店),坑口,727,2.8,47,2.8,4.3,23.088926,113.23368
湛江美食(芳村店),坑口,845,3.75,57,3.3,4.3,23.091349,113.23517
湘印象,坑口,648,3.4,51,3.4,4.1,23.088808,113.23461
火云萨,坑口,571,4.4,45,4.25,4.1,23.083447,113.233604
利口福(芳和花园店),坑口,446,3.95,93,3.95,4.1,23.083519,113.23485
9号仓主题湘菜馆,坑口,562,0,47,0,4,23.084036,113.23358
东记潮州砂锅粥,坑口,865,3,63,2.9,3.9,23.091364,113.234795
潮丰砂锅粥,坑口,767,3.6,45,3.5,3.9,23.084764,113.23154
尚水庄,坑口,381,2.2,58,2.2,3.8,23.0878,113.24048
生记私房菜,坑口,775,2.8,46,2.8,3.7,23.089808,113.233955
江记鱼蛋粉,坑口,795,2.9,40,2.8,3.6,23.09105,113.2356
福音到咱家酸菜鱼（芳村分店）,坑口,702,3.65,48,3.65,3.5,23.084097,113.2322
兄弟潮州砂锅粥,坑口,857,2.9,40,2.8,3.5,23.091345,113.23492
永红土家菜农庄(芳村店),坑口,603,2.1,48,2.2,3.4,23.08467,113.244934
南港园林酒家,坑口,855,2.7,47,2.8,3.4,23.090797,113.23403
金运来酒楼,坑口,242,2.5,40,2.6,3.2,23.08392,113.2368
阿牛农家菜(芳村店),坑口,872,2.2,43,2,3.2,23.086813,113.24724
汇泉海鲜酒家,坑口,417,2.7,193,2.8,3.2,23.081856,113.23629
利口福(坑口店),坑口,819,2.8,52,2.8,3.1,23.079054,113.24427
强哥私房菜,坑口,448,1.5,70,2.5,-1,23.0806,113.23886
oggi意大利餐厅,潭村,640,4.5,90,4,5,23.120623,113.3469
吉兆日本料理(珠江新城店),潭村,128,4,83,4,4.9,23.12191,113.35264
外婆家(广州太阳新天地店),潭村,711,4.15,59,4.2,4.6,23.12915,113.35043
河南老家赛马场总店,潭村,426,3,70,3,4.6,23.126616,113.35099
广粤会,潭村,784,2.9,500,2.9,4.6,23.120468,113.345436
欧吉比萨店(广粤天地店),潭村,642,3.2,100,3.4,4.6,23.12043,113.34698
明燕府,潭村,173,3.2,141,3.2,4.6,23.121506,113.35248
香香妈妈砂窝湘菜太阳新天地店,潭村,713,3.75,55,3.95,3.9,23.129124,113.35027
尚宫,潭村,618,4.5,51,4.5,4.6,23.128475,113.35118
六十三号西餐厅,潭村,640,3.4,90,3.4,4.6,23.120651,113.34688
六六寿司(太阳新天地店),潭村,713,3.2,50,3.4,4.6,23.129124,113.35027
谷林尚蜂燕翅鲍,潭村,877,3,574,3,4.6,23.128407,113.34625
九毛九山西面馆(跑马场店),潭村,365,2.3,52,2.6,4.5,23.12594,113.35084
曼索蒂西班牙餐厅,潭村,643,4.5,300,4.5,4.5,23.12099,113.34669
达摩日式料理,潭村,349,4.25,275,4.45,4.5,23.121485,113.34961
小厨娘私房蔡,潭村,555,0,179,0,4.5,23.120659,113.34781
新越盏,潭村,713,0,56,0,4.5,23.129124,113.35027
汉拿山(太阳新天地店),潭村,713,3.1,84,3.2,4.5,23.129124,113.35027
披尔赛PIAZZA,潭村,713,0,59,0,4.5,23.129124,113.35027
TheTeaRoom茶寮,潭村,342,3.2,63,3.3,4.5,23.12285,113.34923
猫大厨,北京路,504,3.1,55,3.9,5,23.127056,113.272125
广州市越秀区沸腾久久餐厅,北京路,962,0,45,0,5,23.131403,113.27023
祺苑美食,北京路,874,2,45,1.9,5,23.13268,113.27793
惬意生活休闲吧,北京路,358,4.5,50,3,5,23.127827,113.278015
海滨绿岛酒廊,北京路,600,2.8,200,2.9,5,23.121561,113.28107
天泉茶行,北京路,505,2.9,40,2.9,5,23.12103,113.27395
乐厨坊(文明路店),北京路,379,2.8,60,2.8,4.8,23.128181,113.27762
银灯食府,北京路,552,3,63,3.3,4.7,23.122284,113.271904
江南果道餐饮,北京路,234,0,53,0,4.7,23.12695,113.27581
香港羽寿司北京路店,北京路,679,3.9,70,3.8,4.7,23.130962,113.275406
必胜客(中山四店),北京路,870,2.7,45,2.1,4.7,23.131989,113.28017
转角遇到爱(起义路店),北京路,807,3,44,2.9,4.7,23.129644,113.27048
四季尚食,北京路,527,4.2,58,3.95,4.7,23.126963,113.27181
八万里旅行网(广州店),北京路,525,0,189,0,4.7,23.12547,113.27138
顺和刺身荟,北京路,431,3,70,3,4.7,23.12863,113.27774
Grand Bar,北京路,43,2.4,70,2.4,4.7,23.124968,113.27606
富临食府(惠福东路),北京路,544,2.5,56,2.1,4.6,23.12692,113.271614
广州酒家利口福(越秀南店),北京路,831,3,80,2.9,4.6,23.127354,113.28417
达芬西餐厅,北京路,236,3.3,45,3.3,4.6,23.126736,113.27526
御前十七,北京路,128,4.5,77,4.2,4.6,23.12438,113.27758
叻宝叻宝,石牌桥,439,4,83,4.1,5,23.135935,113.335464
糕朋满座DIY蛋糕,石牌桥,856,3.65,85,3.65,5,23.136322,113.33034
游乐场咖啡酒吧,石牌桥,782,3.2,47,3.2,5,23.134096,113.33269
平安堂凉茶(总统大酒店东),石牌桥,866,0,40,0,5,23.139423,113.346664
虾搞搞小龙虾,石牌桥,391,4.3,102,3.95,4.8,23.13608,113.33603
Ebony,石牌桥,228,3.5,240,3.5,4.8,23.140554,113.33963
SootheDS苏芙吧,石牌桥,925,3.3,87,3.2,4.8,23.14716,113.3399
翠园,石牌桥,99,3.4,130,3.7,4.7,23.139614,113.33888
一龙拉面,石牌桥,640,4.35,47,3.95,4.7,23.136532,113.33253
挪威深海三文鱼侨怡苑店,石牌桥,800,3.2,59,3.2,4.7,23.145927,113.33615
阿翁名菜,石牌桥,509,0,298,0,4.7,23.13533,113.3352
元気寿司,石牌桥,68,0,92,0,4.7,23.139502,113.337845
武藏日本料理,石牌桥,909,3,137,3,4.7,23.14658,113.34148
潮泰居美食店,石牌桥,958,2.1,40,2.3,4.7,23.135103,113.32983
失踪周末咖啡,石牌桥,253,3,56,3,4.7,23.13721,113.33663
贰叁茶屋,石牌桥,823,4.25,53,4.3,4.7,23.133915,113.33233
7INN郁源咖啡,石牌桥,831,3.2,42,3.2,4.7,23.134207,113.33194
The Loft,石牌桥,225,3,238,3,4.7,23.140553,113.33959
班克咖啡总店,石牌桥,802,3.2,44,3.1,4.7,23.134586,113.33198
曼索蒂咖啡(正佳广场店),石牌桥,466,2.8,60,2.9,4.7,23.13865,113.33366
聚汇坊猪肚鸡(鹭江店),鹭江,58,4.35,125,4.45,4.9,23.10183,113.31504
福音到咱家酒家,鹭江,763,2.2,49,2.1,4.7,23.10668,113.31949
川湘阁,鹭江,989,3.6,46,3.6,4.7,23.097712,113.30594
如轩砂锅粥(客村店),鹭江,971,0,59,0,4.6,23.096731,113.32281
江南汉阳韩国料理,鹭江,804,3,59,3,4.6,23.10859,113.315346
点红点绿茗点居(客村店),鹭江,965,2.8,58,4,4.5,23.10158,113.324196
大舶韩国料理2号店,鹭江,319,3.3,68,3.3,4.5,23.100279,113.31765
赞锅美食锅主题餐厅,鹭江,434,0,50,0,4.5,23.105274,113.31448
万岁寿司·料理(鹭江店),鹭江,88,4.05,67,4.15,4.5,23.101698,113.315544
大渔(珠江店),鹭江,811,3.1,225,3.3,4.5,23.108664,113.31503
梵丹巧克力（中大新港花店自提店）,鹭江,323,3.55,49,3.55,4.5,23.100843,113.311646
东江海鲜酒家总店,鹭江,752,2.4,100,2.5,4.4,23.104433,113.32132
1019韩国炸鸡店,鹭江,305,4.2,88,4,4.4,23.100487,113.31759
天鲜汇,鹭江,106,3.1,68,3.1,4.4,23.101519,113.31373
手拉手风味菜馆海珠店,鹭江,763,3.2,55,3.2,4.4,23.106676,113.31949
明记海鲜城总店,鹭江,126,2.3,40,2.4,4.3,23.101383,113.31352
顺德凤厨私房菜上渡分店,鹭江,546,2.7,50,2.6,4.3,23.106281,113.31483
山泉公馆(客村店),鹭江,965,3.1,70,3.7,4.3,23.10158,113.324196
国记酒楼,鹭江,690,3.5,40,3.5,4.3,23.100117,113.32137
创辉美食,鹭江,844,2.8,95,2.95,4.3,23.101124,113.323006
琶洲威斯汀COHIBA,新港东,679,3.85,100,3.85,5,23.102053,113.369804
中国元素中餐厅,新港东,695,3,198,3.1,4.7,23.101894,113.36989
赤沙大围渔王农庄,新港东,902,3.7,62,3.65,4.7,23.098011,113.369026
Ming Court明阁,新港东,355,3.1,160,3.2,4.6,23.103773,113.36709
星巴克(琶洲会展中心店),新港东,790,3,40,3,4.5,23.106964,113.37095
知味全日,新港东,695,3.4,232,3.4,4.4,23.101894,113.36989
威斯汀行政酒廊,新港东,695,3.1,120,2.3,4.4,23.101894,113.36989
自在堂,新港东,910,3.55,139,3.75,4.4,23.103302,113.3549
The Open Kitchen豪厨,新港东,348,3.4,299,3.5,4.3,23.103771,113.36702
LAVAZZA Espression,新港东,344,3.1,40,2.5,4.2,23.104296,113.367065
皇室宴会,新港东,68,3.2,77,4,3.9,23.103983,113.3641
米芝饼店(琶洲店),新港东,957,3.55,50,3.1,3.9,23.103937,113.37305
大围农庄,新港东,978,3.65,67,3.6,3.6,23.099741,113.37176
舞日本餐厅,新港东,690,3.2,250,3.4,3.6,23.102095,113.36993
Portal大堂酒吧,新港东,346,3.75,130,3.8,3.5,23.10384,113.36702
麦当劳(会展二期分店),新港东,446,2.2,45,2.3,2.7,23.107254,113.36686
南丰朗豪酒店-宴会厅,新港东,376,0,480,0,2.6,23.102541,113.366714
广交会威斯汀酒店-宴会厅,新港东,695,4.5,228,4.5,1,23.101894,113.36989
炉烧户外烧烤餐厅,新港东,315,0,200,0,-1,23.103577,113.36662
鲜芝鲜觉,沙园,347,0,50,0,4.8,23.097023,113.26469
维拉酒吧,沙园,986,0,65,0,4.8,23.098858,113.27549
亨宝挪威三文鱼,沙园,394,3.2,60,3.2,4.7,23.097616,113.269165
总部厨房,沙园,453,3.5,93,3.5,4.7,23.09872,113.2677
玖井日式料理店,沙园,963,4.2,42,4.15,4.6,23.098747,113.2753
奇异酒吧,沙园,574,2.9,60,2.9,4.6,23.090027,113.269356
洛奇先生餐吧,沙园,804,2.2,117,3.3,4.5,23.095549,113.25915
广州皇朝任轩美食,沙园,525,3,64,2.9,4.5,23.097715,113.27092
澎澎美食(南田路总店),沙园,970,3.5,49,3.45,4.5,23.103176,113.26472
农家鸡,沙园,823,1.9,40,1.5,4.5,23.100277,113.261665
渔意三湘,沙园,807,3,48,3.1,4.5,23.098698,113.27355
隆记潮菜馆,沙园,830,2.8,40,2.7,4.5,23.100262,113.261536
专爱法式甜品(沙渡路店),沙园,905,3.4,150,3.4,4.5,23.088764,113.2609
有米气酒楼(宝岗店),沙园,767,2.2,58,2.5,4.4,23.097828,113.27365
蠔一煲潮州海鲜砂锅粥,沙园,582,2.4,54,1.9,4.4,23.093927,113.26134
靓仔买单,沙园,582,3.95,74,4,4.4,23.095226,113.26129
凯信会馆,沙园,906,3.4,67,3.4,4.4,23.098782,113.259285
泰阁 泰菜(广百新一城店),沙园,810,3.2,79,3.3,4.4,23.099388,113.27303
黄记煌三汁焖锅(广百新一城店),沙园,849,3.2,77,3.3,4.4,23.100208,113.27271
葳特葡萄酒体验馆,沙园,968,4.1,84,4.35,4.4,23.10282,113.270386
大湘港,文冲,840,3.45,47,3.45,4.6,23.102654,113.47902
旺点茗点(文冲店),文冲,118,3.2,42,3.2,4.4,23.108427,113.47539
长沙王湘菜馆,文冲,580,2.8,41,1.1,4.4,23.10445,113.47401
客都天下酒家,文冲,901,0,42,0,4.3,23.10255,113.480064
山水时尚酒店西餐厅(广州·黄埔店),文冲,803,2.6,52,3,4.2,23.10638,113.46841
华苑威尔(石化店),文冲,58,3,40,3,4.2,23.108967,113.47562
尚景宫韩式自助餐厅(文冲店),文冲,227,3.7,52,3.65,4.1,23.111504,113.47586
黄埔华苑酒家(黄埔店),文冲,609,2.6,67,2.9,3.9,23.10507,113.47196
万顷客家土菜,文冲,890,3.6,61,3.65,3.9,23.1026,113.47996
大东北饺子菜馆,文冲,833,2.9,47,2.9,3.8,23.102833,113.47925
黄埔水瓜棚,文冲,426,3.5,42,3.3,3.8,23.108473,113.47953
金丰美食农庄,文冲,650,3.5,49,3.5,3.7,23.115147,113.47389
海南羊庄(黄埔店),文冲,575,2.3,72,2,3.7,23.114487,113.47693
梅兴客家土菜馆,文冲,785,3,45,2.9,3.7,23.103065,113.47871
水陆田鸡(文冲店),文冲,783,2.8,54,3,3.7,23.103115,113.478775
小龙虾餐厅,文冲,724,3.6,85,3.4,3.7,23.102966,113.47547
明记海鲜酒家,文冲,399,2.6,51,2.4,3.5,23.106047,113.47438
Next Cake甜品店,体育中心南,609,2.5,164,2.7,5,23.134398,113.329414
海皇轩食府(广晟店),体育中心南,997,3.2,70,3.4,5,23.130857,113.33021
叻宝叻宝,体育中心南,691,4,83,4.1,5,23.135935,113.335464
糕朋满座DIY蛋糕,体育中心南,390,3.65,85,3.65,5,23.136322,113.33034
游乐场咖啡酒吧,体育中心南,687,3.2,47,3.2,5,23.134096,113.33269
汉密哈顿,体育中心南,910,2.9,100,2.9,5,23.147964,113.33123
天河蔚青咖啡厅,体育中心南,204,4.5,40,4,5,23.140636,113.32839
维客滋味坊,体育中心南,960,4.5,40,3.8,5,23.146112,113.323746
麻田会(体育西店),体育中心南,332,3,83,3,4.9,23.13781,113.3278
祝咔菲(天河北店),体育中心南,823,3.2,40,3.4,4.9,23.146513,113.3267
辉记潮州海鲜砂锅粥(广州大道中),体育中心南,900,2,89,2.2,4.8,23.138498,113.3215
潮皇食府(国贸总店),体育中心南,833,3.1,100,3.4,4.8,23.147326,113.33004
富田菊铁板皇尚料理(富力盈信大厦店),体育中心南,999,3.4,130,3.5,4.8,23.131027,113.32824
虾搞搞小龙虾,体育中心南,728,4.3,102,3.95,4.8,23.13608,113.33603
Ebony,体育中心南,968,3.5,240,3.5,4.8,23.140554,113.33963
翠园,体育中心南,889,3.4,130,3.7,4.7,23.139614,113.33888
一龙拉面,体育中心南,438,4.35,47,3.95,4.7,23.136532,113.33253
挪威深海三文鱼侨怡苑店,体育中心南,911,3.2,59,3.2,4.7,23.145927,113.33615
阿翁名菜,体育中心南,715,0,298,0,4.7,23.13533,113.3352
潮泰居美食店,体育中心南,527,2.1,40,2.3,4.7,23.135103,113.32983
江南STYLE韩国菜,滘口,748,3,61,3,4.8,23.13091,113.2469
STMBar,滘口,743,4.6,122,4.6,4.7,23.131071,113.24686
麻田会(中山八路店),滘口,779,2.4,78,3,4.6,23.131765,113.24716
原甜甜品店,滘口,777,3.2,65,3,4.6,23.131706,113.24715
丰南粥粉面,滘口,877,3.65,40,3.65,4.5,23.132698,113.24796
Terrace,滘口,782,4,40,4.5,4.4,23.132685,113.24702
阳台咖啡西餐厅,滘口,779,3.1,72,2.9,4.4,23.131765,113.24716
伯莱客餐厅,滘口,576,0,68,0,4.4,23.130514,113.2452
燊记乳鸽专门店,滘口,361,2.9,61,3,4.3,23.130335,113.24305
九毛九山西面馆(荔景苑店),滘口,779,3.4,50,3.4,4.3,23.131765,113.24716
PIZZA 2 PIZZA法国披萨屋(中山八路店),滘口,572,2.2,48,1.9,4.3,23.130615,113.24517
悦香鸡(石路基店),滘口,560,3.1,40,3,4.3,23.132063,113.24494
利口福(南岸路店),滘口,452,3.2,40,3.2,4.3,23.12801,113.242584
唐荔园,滘口,782,2.8,76,3.8,4.2,23.124086,113.23811
满园春美食馆,滘口,755,2.3,50,3,4.2,23.124914,113.24289
味藏寿司,滘口,966,0,55,0,4.2,23.127151,113.24806
捞喜鲜鱼村,滘口,981,3.7,46,3.6,4.2,23.130127,113.24913
金庄烧腊店(泮塘分店),滘口,323,3,40,2.9,4.2,23.130249,113.24264
向群饭店(泮塘路店),滘口,466,2.3,60,2.6,4.1,23.128725,113.243416
厨味坊,滘口,747,2.9,73,3,4.1,23.130972,113.246895
罗纪粥店,天平架,661,2.8,40,2.8,5,23.165127,113.33437
阿信客家土菜(沙太店),天平架,715,4.05,56,4.2,4.7,23.170416,113.33206
老陕居(陕西风味美食),天平架,941,3.2,40,3.1,4.6,23.158148,113.32288
流湘岁月(天平架店),天平架,387,2.4,57,2.1,4.5,23.165987,113.3242
湘乡土菜馆(林和西路),天平架,955,3.5,40,3.5,4.5,23.156738,113.32929
山东老家饮食连锁(望星分店),天平架,742,3.3,57,3.4,4.4,23.161894,113.321625
泰爷门,天平架,290,3.5,62,2.4,4.4,23.167849,113.328026
湖湘楼,天平架,581,3,70,2.8,4.4,23.167503,113.322784
顺德私房菜(火车东站),天平架,845,3.1,70,3.2,4.3,23.158133,113.32496
木棉花酒店餐厅,天平架,444,3,40,3,4.3,23.161245,113.32769
鼎龙国际大酒店西餐厅,天平架,846,3,164,3.5,4.3,23.16094,113.32108
威尼国际酒店-西餐厅,天平架,966,3.1,40,3.1,4.3,23.156595,113.32896
湘亲门(沙河分店),天平架,935,3.45,80,3.55,4.2,23.160263,113.32053
文胜酒家,天平架,309,3.1,54,3,4.1,23.168024,113.32784
海记汕头风味牛肉店(陶庄店),天平架,298,3.2,71,3.2,4.1,23.167894,113.32834
