name,subway,distance,service_rating,price,overall_rating,facility_rating,hygiene_rating,location_lat,location_lng
拉美国际公寓(南沙店),金洲,751,0,138,4.6,0,0,22.801958,113.55172
广州准家公寓,金洲,849,4.4,166,4.5,4.4,4.5,22.806046,113.54464
广州南沙伊人客栈,金洲,677,4.3,605,4.5,4.3,4.6,22.804518,113.54497
红帆酒店,沙涌,861,4,128,4.1,3.8,4,23.092934,113.261024
广州太古仓江景酒店,沙涌,897,3.4,319,3.5,3.2,3.6,23.095861,113.258736
东华宾馆,沙涌,968,1,100,1,1,1,23.080643,113.25302
广州江畔国际青年旅舍,芳村,592,4,55,4,3.7,3.5,23.106157,113.247604
荔豪宾馆,芳村,836,3.5,98,4,4,3.5,23.110016,113.236824
渲鹏旅店,芳村,510,1,97,4,1,1,23.09996,113.24376
逸米酒店(广州芳村码头店),芳村,579,4.1,138,3.9,3.8,4.1,23.106392,113.24736
花地大厦酒店,芳村,619,4.1,159,3.9,3.9,4.1,23.09944,113.239235
洛芙特酒店创意园店,芳村,841,4.1,220,3.9,4,4.1,23.101088,113.2496
广州英姿快捷酒店,芳村,687,3.8,129,3.9,3.8,3.8,23.099924,113.23743
鹅潭风景旅舍,芳村,362,4,99,3.8,3.6,3.7,23.107248,113.243706
天源宾馆,芳村,332,2,104,3.7,2,2.5,23.10622,113.24466
新世纪酒店,芳村,542,3.9,96,3.6,3.5,3.8,23.10147,113.23785
廉江大厦,芳村,347,3.7,88,3.6,3.2,3.4,23.103323,113.24539
柏浩商务酒店,芳村,771,3.9,162,3.6,3.8,4.2,23.107208,113.235306
锦惠宾馆(芳村大道中),芳村,88,2.4,127,3.5,3.7,3.7,23.103828,113.24286
凯丽宾馆,芳村,253,4,110,3.3,3.6,4,23.105604,113.2442
常聚宾馆,芳村,485,2.9,85,3,2.8,3.5,23.100246,113.24044
金旺宾馆,芳村,332,3.8,0,3,2.7,2.7,23.10622,113.24466
富丽宾馆(东潡北路店),芳村,492,1,88,2.8,1,1,23.103811,113.23738
沁园宾馆,芳村,360,2.7,98,2.8,2.2,2.2,23.10667,113.24458
景泰宾馆,芳村,705,0,108,2.4,0,0,23.1,113.2371
广州茗城宾馆,芳村,937,3,87,2.4,2,2,23.107622,113.233734
广州中国大酒店(首层食街),越秀公园,120,3.7,0,5,4,4,23.14614,113.2666
广州中山纪念堂和颐酒店,越秀公园,734,5,268,4.7,5,5,23.139978,113.26598
铂顿国际公寓(广州中山纪念堂店),越秀公园,989,4.4,332,4.6,4.6,4.6,23.137484,113.267845
广州荔湾友缘公寓,越秀公园,925,1,68,4.6,1,1,23.151611,113.260704
中国大酒店,越秀公园,153,4.5,729,4.5,4.4,4.5,23.146467,113.26624
全季酒店广州越秀公园店,越秀公园,393,4.5,314,4.5,4.4,4.5,23.143002,113.26888
广州桐舍酒店(火车站店),越秀公园,612,4.3,246,4.5,4.3,4.5,23.15156,113.2657
惠风和宾馆,越秀公园,968,4.5,0,4.5,3,3.5,23.15507,113.26848
东方宾馆,越秀公园,324,4.4,555,4.4,4.2,4.4,23.145174,113.26486
锦江之星酒店(中山纪念堂店),越秀公园,777,4.5,229,4.4,4.3,4.5,23.139402,113.2681
广州星和香江国际酒店,越秀公园,798,4.3,289,4.4,4.2,4.4,23.153522,113.2669
7天连锁酒店(纪念堂地铁站店),越秀公园,981,4.4,158,4.4,4.2,4.4,23.137655,113.269135
广州远方的家家庭旅馆26号店,越秀公园,996,0,59,4.4,0,0,23.149145,113.25848
广州全新旅馆,越秀公园,965,0,58,4.4,0,0,23.148254,113.25853
广州华茂中心酒店,越秀公园,520,4.3,283,4.3,4,4.2,23.141872,113.26641
白云城市酒店,越秀公园,793,4.4,248,4.3,4.2,4.4,23.153357,113.26608
流花宾馆(广州火车站),越秀公园,851,4.2,401,4.3,4.1,4.3,23.152582,113.262856
广州五福精品酒店,越秀公园,881,4.3,148,4.3,4.3,4.4,23.152376,113.27339
广州四川省驻广州招待所,越秀公园,808,0,56,4.3,0,0,23.150957,113.2616
广州星和商务酒店,越秀公园,948,4.3,268,4.3,4.2,4.4,23.14799,113.25864
南丰朗豪酒店,琶洲,704,4.6,733,4.7,4.6,4.7,23.103071,113.36646
广州野原小窝公寓琶洲展馆店,琶洲,344,0,64,4.7,5,5,23.105032,113.36986
广州香格里拉大酒店,琶洲,586,4.6,948,4.6,4.6,4.7,23.108553,113.37685
广交会威斯汀酒店,琶洲,445,4.6,761,4.6,4.7,4.7,23.101875,113.36989
伊思德国际公寓（广州保利世贸）,琶洲,324,4.3,242,4.6,4.5,4.5,23.10159,113.37331
喜运公寓酒店（琶洲保利世贸店）,琶洲,332,4.5,352,4.6,4.5,4.6,23.101555,113.3737
广州逸尚酒店服务公寓保利世贸分店,琶洲,294,4.4,350,4.6,4.5,4.5,23.101862,113.37333
广州星驿国际酒店公寓广交会展中心店,琶洲,324,4.2,260,4.5,4.3,4.3,23.101595,113.37339
如家快捷酒店(琶洲会展中心店),琶洲,295,4.5,167,4.4,4.4,4.5,23.103184,113.37567
广州嘻哈酒店公寓琶洲保利世贸店,琶洲,321,4.1,278,4.4,4.2,4.2,23.101625,113.37347
她他会保利世贸中心公寓,琶洲,299,4.3,238,4.4,4.4,4.5,23.10183,113.37349
广州易成·保利世贸酒店公寓,琶洲,307,4.5,445,4.3,4.5,4.5,23.10175,113.37336
广州诺盟酒店公寓(琶洲保利世贸店),琶洲,298,4.2,309,4.3,4.4,4.4,23.101845,113.37355
广州益武凯陌酒店,琶洲,323,4.1,308,4.2,4,4.2,23.10284,113.37576
广州琶洲会展服务公寓琶洲保利世贸店,琶洲,309,3.7,569,3.9,3.8,3.9,23.10175,113.37356
2513度假公寓(广州琶洲保利世贸店),琶洲,313,0,0,-1,0,0,23.101706,113.3735
恒福酒店,祖庙,905,0,121,5,0,0,23.039146,113.12428
桔子酒店(佛山禅城店),祖庙,555,4.8,286,4.7,4.8,4.8,23.036758,113.11544
佛山安然时光青年旅舍,祖庙,961,0,45,4.6,0,0,23.024992,113.114716
维也纳酒店(人民路店),祖庙,517,4.4,128,4.5,4.3,4.5,23.036789,113.11615
城市便捷酒店(祖庙地铁站店),祖庙,644,4,125,4.5,4,4,23.037655,113.11532
嘉世铂顿酒店,祖庙,108,4.4,228,4.4,4.3,4.5,23.03225,113.11964
佛山恒安瑞士大酒店,祖庙,518,4.5,552,4.4,4.5,4.6,23.03247,113.11369
佛山岭南天地马哥孛罗酒店,祖庙,463,4.5,607,4.4,4.4,4.6,23.036804,113.12
如家快捷酒店(佛山百花广场店),祖庙,119,4.3,119,4.3,4.1,4.3,23.033127,113.117645
佛山皇冠假日酒店,祖庙,394,4.5,512,4.3,4.4,4.5,23.030655,113.11568
私享家连锁酒店公寓(私享家总店),祖庙,123,4.1,88,4.3,4.3,4.3,23.032656,113.11995
平谦国际精品酒店,祖庙,335,4.3,150,4.3,4.2,4.3,23.033241,113.11551
佛山U度假公寓酒店(私享家总店),祖庙,153,4.1,197,4.3,4.2,4.3,23.03209,113.12005
旋宫酒店,祖庙,882,4.2,90,4.3,3.9,4.2,23.040709,113.119385
佛山CJC国际高级公寓,祖庙,530,0,371,4.3,0,0,23.032515,113.11358
百花商务酒店,祖庙,424,4.1,75,4.2,4,4.1,23.029104,113.11769
7天连锁酒店(佛山祖庙地铁站店),祖庙,395,4,124,4.2,4.2,4.3,23.029379,113.11767
珠江大酒店,祖庙,906,4.2,123,4.2,4.1,4.3,23.040945,113.118454
金城大酒店,祖庙,445,4.3,272,4.1,4.1,4.4,23.03156,113.11462
7天连锁酒店(祖庙百花广场店),祖庙,371,4.5,77,4.1,4.3,4.5,23.02949,113.11925
广州天河亚朵酒店,动物园,881,0,491,4.7,4.8,4.7,23.142048,113.32228
广州最时光青年旅舍,动物园,166,5,0,4.7,4.4,4.5,23.139957,113.315254
丽枫酒店(广州动物园地铁站店),动物园,174,4.7,120,4.6,4.7,4.8,23.14128,113.31224
丽枫酒店(杨箕地铁站店),动物园,780,4.7,329,4.6,4.7,4.8,23.133648,113.31312
凯旋龙连锁酒店华建酒店,动物园,980,4.3,174,4.6,4.1,4.3,23.147278,113.307495
广州圣丰索菲特大酒店,动物园,956,4.5,500,4.5,4.6,4.7,23.144053,113.32238
柏高商务酒店(广州天河北东风公园西门店),动物园,953,4.5,108,4.5,4.5,4.6,23.148127,113.31834
柏高商务酒店区庄地铁站店,动物园,954,4.5,348,4.4,4.3,4.5,23.138933,113.30465
如家快捷酒店(广州环市东路店),动物园,111,4.4,100,4.3,4.4,4.3,23.14126,113.31465
城迹酒店(广州区庄地铁站店),动物园,714,4.5,199,4.3,4.5,4.6,23.137474,113.30772
广家酒店公寓,动物园,278,4.3,129,4.2,4.1,4.2,23.138205,113.313156
东山宾馆,动物园,965,4.2,267,4.2,4,4.3,23.13624,113.30566
隆洲大酒店,动物园,880,4.1,288,4.2,4,4.2,23.146894,113.31907
贵阳酒店,动物园,927,4.2,152,4.2,4,4.2,23.146372,113.32039
7天连锁酒店(广州动物园地铁站店),动物园,91,4.1,233,4.1,3.7,4,23.140831,113.31466
广东地质山水酒店,动物园,244,4.2,328,4.1,4.1,4.3,23.13955,113.31172
三寓宾馆,动物园,939,4.2,284,4.1,3.9,4.2,23.13423,113.30781
广州市花城之星连锁酒店,动物园,324,4.3,109,4.1,4.1,4.3,23.142132,113.31652
7天连锁酒店(广州东风东路店),动物园,362,4.4,141,4.1,4.2,4.4,23.137413,113.314316
佳友商旅酒店,动物园,370,4.1,170,4.1,3.8,3.9,23.141985,113.317116
广州Xbed互联网住宿保利中达店,猎德,331,5,688,5,5,5,23.122034,113.33682
广州十月客栈,猎德,664,4.8,183,4.8,4.7,4.8,23.119099,113.341995
百合公寓(广州珠江新城店),猎德,830,5,0,4.8,4.3,5,23.118431,113.34385
广州Xbed互联网住宿汇峰国际公寓店,猎德,415,0,378,4.8,3,5,23.126423,113.3355
广州富力丽思卡尔顿酒店,猎德,573,4.7,1261,4.7,4.7,4.8,23.122055,113.33385
广州四季酒店,猎德,976,4.7,1437,4.7,4.8,4.8,23.123316,113.32939
合景W酒店,猎德,480,4.5,1264,4.6,4.6,4.7,23.127012,113.33519
广州喜运服务公寓(保利中达广场店),猎德,401,0,402,4.5,4.5,4.3,23.121504,113.33645
广州丹顿行政公寓,猎德,677,4.6,511,4.5,4.5,4.6,23.130205,113.34066
广州维多利酒店,猎德,966,4.5,530,4.5,4.4,4.6,23.131992,113.34336
广州Hart鹿途·坑坑家庭式公寓,猎德,207,0,233,4.5,4.5,4.5,23.12504,113.33699
广州花城公寓（珠江新城店）,猎德,298,4.3,319,4.5,4.3,4.5,23.123592,113.34168
广州兴盛国际公寓,猎德,335,4.3,404,4.4,4.2,4.4,23.127123,113.33761
伊思德国际公寓（广州保利中达）,猎德,387,4.3,665,4.4,4.3,4.4,23.121387,113.33686
广州木莲庄酒店,猎德,883,4.4,329,4.3,4.3,4.5,23.128817,113.34601
广州锐得-保利中达公寓,猎德,435,4.4,111,4.3,4.5,4.5,23.121164,113.33639
广州嘻哈酒店公寓(珠江新城保利中达广场店),猎德,366,4.3,378,4.3,4.4,4.4,23.1216,113.336876
广州文星连锁酒店(冼村二店),猎德,996,4.1,199,4.3,3.9,4,23.133202,113.337425
维福顿公寓（广州保利中达店）,猎德,413,4.3,522,4.3,4.4,4.5,23.121454,113.33632
广州家乐庭服务式公寓猎德地铁站店,猎德,230,4.4,298,4.2,4.2,4.4,23.126228,113.33795
驿舍连锁客栈广州长隆高铁南站店,南浦,993,3.9,62,4.7,3.4,3.9,23.048033,113.30427
维也纳酒店(广州南浦地铁站店),南浦,420,4.6,251,4.6,4.6,4.7,23.037928,113.29656
广州莫泰连锁酒店高铁南站南浦地铁口店,南浦,259,0,143,4.6,4.5,4.5,23.04186,113.301544
盈基公馆(丽江店),南浦,496,0,0,4.5,0,0,23.044476,113.300255
广州恒基如家住宿,南浦,472,5,68,4.4,5,5,23.044159,113.30102
如家快捷酒店(广州高铁南站南浦地铁口店),南浦,332,4.3,180,4.3,4.2,4.5,23.04238,113.30198
7天连锁酒店(南浦店),南浦,303,4.4,169,4.3,4.2,4.4,23.037437,113.299
广州怡悦快捷酒店,南浦,229,4.2,160,4.1,4.2,4.3,23.037966,113.300255
荔江宾馆,南浦,445,4.4,148,4.1,4.4,4.5,23.041452,113.304054
莫泰168酒店(广州高铁南站南浦地铁口店),南浦,336,4.2,0,4.1,4,4.2,23.042372,113.302055
广州宗基商务公寓,南浦,330,1,115,4.1,2,3,23.0371,113.299385
骏福连锁宾馆南浦店,南浦,131,4.1,148,4,4.5,4.5,23.038874,113.29965
格林联盟酒店,南浦,304,4.1,153,3.9,3.9,4.1,23.040869,113.30281
椰枫酒店,南浦,417,3.5,160,3.9,3.5,3.5,23.04337,113.30183
广州芳香公寓,南浦,476,1,97,3.8,3,4,23.044071,113.30148
南浦宾馆,南浦,423,0,113,3.7,4,4,23.043638,113.30128
广州启源精品酒店式公寓,南浦,689,0,98,3.7,0,0,23.04305,113.29411
广州南浦家公馆酒店,南浦,479,2.8,118,3.6,2.2,2.6,23.044271,113.30073
锦田旅馆,南浦,465,1,0,2.4,1,1,23.044106,113.30096
广州顺德碧桂园家庭旅馆,南浦,486,0,978,2.3,4,3,23.036337,113.29741
广州天河区商务住宿员村店,员村,733,0,95,5,0,0,23.123228,113.37736
罗家住宿,员村,81,1,49,4.8,4.4,4.5,23.122272,113.3703
阳光酒店,员村,838,4.6,669,4.6,4.6,4.7,23.128834,113.37254
广州柏逸酒店,员村,695,4.3,100,4.3,4.3,4.5,23.125744,113.36538
广州克莱顿酒店,员村,896,4.3,370,4.3,4.3,4.4,23.121374,113.37918
广州思家青年旅舍,员村,27,3,37,4.2,2.8,2.8,23.121786,113.37035
1号酒店(珠江新城赛马场店),员村,662,4.2,145,4.2,4,4.2,23.125925,113.36602
宏森酒店,员村,620,3.7,115,4.1,3.7,3.9,23.126207,113.37376
广州员村公寓,员村,775,4.1,76,4.1,3.9,4.1,23.120665,113.3629
广州心驿家酒店式公寓,员村,819,4.4,174,4.1,4.3,4.4,23.12846,113.36764
广州星月太空舱公寓员村店,员村,49,5,33,4,3,5,23.121244,113.370766
美港酒店,员村,550,4.1,212,4,3.8,4,23.126163,113.372375
城市便捷酒店(广州琶洲会展中心店),员村,718,4,188,4,3.7,4.3,23.123508,113.37711
星程酒店(黄埔大道润都店),员村,862,4.3,246,4,4.1,4.3,23.128834,113.36753
广州星辰酒店,员村,719,3.4,106,4,3.2,3.5,23.121574,113.36339
广源公寓,员村,714,3.5,128,3.9,3.2,3.5,23.121628,113.36343
广州员村快捷青年公寓,员村,62,4.3,0,3.8,3.6,3.6,23.122087,113.37025
红鑫宾馆,员村,716,4.6,140,3.8,4.6,4.6,23.123503,113.3771
佳驿连锁酒店员村分店,员村,575,3.9,121,3.7,3.6,3.7,23.125902,113.37347
旗高宾馆,员村,801,3.8,117,3.7,3.6,3.8,23.121454,113.36258
佛山520酒店式公寓,澜石,838,5,93,4.7,4.7,5,22.997456,113.11479
金华天商务酒店,澜石,587,4.6,188,4.6,4.6,4.6,22.990744,113.11944
佛山钰和公寓酒店,澜石,835,4.6,103,4.6,4.6,4.7,22.997442,113.11473
佛山伊丽莎白连锁酒店公寓,澜石,836,4.1,86,4.4,4.6,4.3,22.99745,113.11473
佛山海韵商务酒店,澜石,303,4.3,90,4.2,4.1,4.3,22.990335,113.1167
7天连锁酒店(佛山家博城店),澜石,369,4.6,89,4.1,4.6,4.7,22.991701,113.11067
佛山橙子公寓酒店,澜石,825,4.6,89,4.1,4.7,4.6,22.997332,113.114876
京京宾馆,澜石,397,0,150,2.8,5,3,22.993301,113.11517
家博商务酒店,澜石,158,0,116,-1,0,0,22.991402,113.113815
广州市番禺区金湾商务酒店,番禺广场,573,4,150,4.7,4,4,22.946932,113.392715
番禺大厦,番禺广场,486,4.3,364,4.4,4.3,4.4,22.945402,113.389084
科尔海悦酒店,番禺广场,318,4.3,522,4.3,4.2,4.4,22.940731,113.38898
广州骏福连锁酒店石岗分店,番禺广场,932,4.4,99,4.3,4.2,4.3,22.943857,113.40068
广州飞扬八八酒店,番禺广场,823,4.3,58,4.2,4.2,4.4,22.947012,113.38608
胜龙酒店广州番禺广场地铁站店(原罗家店),番禺广场,508,3.8,164,4.1,3.7,3.7,22.944757,113.39566
7天连锁酒店(番禺广场地铁站店),番禺广场,727,4.4,126,4.1,4.2,4.4,22.946857,113.387276
嘉华商务酒店,番禺广场,846,4,118,3.8,3.9,4.1,22.944561,113.39956
光华假日酒店,番禺广场,804,4,168,3.7,3.8,4.1,22.94799,113.3877
康利宾馆,番禺广场,803,3.8,108,2.5,3.9,3.8,22.947048,113.3864
广州富华酒店清河东路店,番禺广场,942,4.5,86,2.4,4.5,4.5,22.941566,113.382645
山水时尚酒店(番禺广场店),番禺广场,380,0,0,-1,0,0,22.939173,113.394165
广州静栖红专屋主题度假酒店,番禺广场,719,0,166,-1,0,0,22.946865,113.38741
广州Xbed互联网住宿保利中达店,海心沙,804,5,688,5,5,5,23.122034,113.33682
广州四季酒店,海心沙,687,4.7,1437,4.7,4.8,4.8,23.123316,113.32939
广州富力丽思卡尔顿酒店,海心沙,610,4.7,1261,4.7,4.7,4.8,23.122055,113.33385
柏悦酒店,海心沙,840,4.7,1631,4.7,4.8,4.9,23.124405,113.32812
广州珠江帝景青年旅舍,海心沙,855,4.5,54,4.7,4.4,4.4,23.109678,113.32962
广州左岸驿站青年旅舍,海心沙,930,4.5,58,4.6,4.3,4.4,23.110296,113.32589
广州喜运服务公寓(保利中达广场店),海心沙,736,0,402,4.5,4.5,4.3,23.121504,113.33645
雅诗阁服务公寓,海心沙,815,4.6,1019,4.5,4.7,4.7,23.12443,113.32906
广州双城礼顿公寓,海心沙,906,4.4,0,4.5,4.3,4.4,23.124653,113.327095
伊思德国际公寓（广州保利中达）,海心沙,761,4.3,665,4.4,4.3,4.4,23.121387,113.33686
广州asa青年旅舍（原小蛮腰阿傻公寓）,海心沙,792,4.3,107,4.4,4.3,4.3,23.110489,113.333206
广州锐得-保利中达公寓,海心沙,708,4.4,111,4.3,4.5,4.5,23.121164,113.33639
广州嘻哈酒店公寓(珠江新城保利中达广场店),海心沙,777,4.3,378,4.3,4.4,4.4,23.1216,113.336876
维福顿公寓（广州保利中达店）,海心沙,723,4.3,522,4.3,4.4,4.5,23.121454,113.33632
广州八零后公寓,海心沙,912,4,58,4.3,3.9,4,23.10957,113.333916
广州铂晶连锁酒店公寓中达广场店,海心沙,720,4.4,559,4.2,4.5,4.5,23.121206,113.336494
广州宁济公寓,海心沙,928,4.3,189,4.2,3.6,3.9,23.123901,113.32534
星驿国际酒店公寓广州保利中达店,海心沙,711,4.1,420,4.1,4.3,4.3,23.121365,113.33624
广州松海管家公寓（广弘天琪总店）,海心沙,991,4.2,335,4.1,4.1,4.1,23.123907,113.324394
广州达美酒店公寓（华利路店）,海心沙,926,3.7,276,3.9,3.4,3.6,23.123863,113.32533
恒福酒店,普君北路,808,0,121,5,0,0,23.039146,113.12428
佛山暖暖居青年旅舍,普君北路,389,4.8,45,4.6,4.6,4.6,23.030943,113.131874
维也纳酒店(佛山岭南明珠体育馆店),普君北路,793,4.6,209,4.6,4.6,4.7,23.029896,113.13598
汇畅宾馆,普君北路,736,4.3,43,4.5,4.5,4.5,23.037384,113.13514
嘉世铂顿酒店,普君北路,998,4.4,228,4.4,4.3,4.5,23.03225,113.11964
柏丽酒店(佛山禅城店),普君北路,688,4.4,161,4.3,4.4,4.5,23.034079,113.13599
金逸宾馆,普君北路,896,4.3,113,4.3,4.2,4.3,23.039642,113.13499
私享家连锁酒店公寓(私享家总店),普君北路,960,4.1,88,4.3,4.3,4.3,23.032656,113.11995
佛山U度假公寓酒店(私享家总店),普君北路,958,4.1,197,4.3,4.2,4.3,23.03209,113.12005
私享家连锁公寓酒店(佛山君誉财富公馆店),普君北路,254,3,150,4.2,3.3,4.1,23.033154,113.131744
炜悦酒店,普君北路,950,4.5,108,4.2,3.6,3.6,23.04206,113.12914
如家快捷酒店(佛山普君北路地铁站店),普君北路,376,4.4,95,4.1,4.3,4.4,23.035059,113.13256
金嘉酒店,普君北路,488,4.2,128,4.1,4,4.2,23.033728,113.12452
佛山私享家公寓酒店(铂顿旗舰店),普君北路,915,4.5,198,4.1,4.5,4.5,23.032373,113.12043
佛山市迎宾馆,普君北路,879,3.8,168,3.7,3.2,4.2,23.026009,113.12659
佛山呱呱宾馆,普君北路,795,2.6,58,3.5,2.1,2.4,23.037653,113.135635
辉耀宾馆,普君北路,700,3,74,3.1,3,3,23.038282,113.12481
福高宾馆,普君北路,907,5,60,2.8,4,3,23.04053,113.12476
源泉商务酒店,普君北路,974,0,0,-1,0,0,23.034634,113.13873
广州万达希尔顿酒店,白云公园,737,4.4,854,4.5,4.5,4.6,23.181816,113.27468
广州麦榕酒店,白云公园,959,4.2,175,4,4.1,4.2,23.196587,113.27668
斯纳酒店,白云公园,483,3.5,226,3.6,3.9,3.8,23.187351,113.27266
广州白云涌北住宿,白云公园,991,0,55,2.2,0,0,23.196636,113.274994
聚富宾馆,市二宫,559,4.5,123,4.4,4.3,4.4,23.111439,113.28168
如家快捷酒店(江南西地铁站店),市二宫,501,4.4,156,4.3,4.2,4.4,23.108,113.278
旺顺宾馆,市二宫,571,4,98,4.3,3,4,23.109995,113.28131
天一酒店,市二宫,40,4,318,4.2,3.9,4.1,23.112156,113.27589
海友酒店(广州市二宫纺织码头店),市二宫,649,4.4,135,4.2,4,4.3,23.117664,113.27859
广州迷途主题酒店(海珠广场店),市二宫,663,4.1,197,4.2,3.8,4.1,23.117704,113.273705
华厦大酒店,市二宫,993,4.2,493,4.1,4,4.3,23.120983,113.27435
7天连锁酒店(江南西地铁站店),市二宫,696,4.3,159,4.1,4.2,4.3,23.106583,113.27923
速8酒店(广州江南西地铁站店),市二宫,787,4.3,183,4.1,4.2,4.4,23.105623,113.27907
海珠酒店,市二宫,496,4,161,3.9,3.7,4,23.116255,113.274185
富基宾馆,市二宫,402,4,100,3.9,3.8,4,23.115082,113.2787
7天连锁酒店(二宫店),市二宫,504,4.3,190,3.9,4.2,4.3,23.11295,113.2714
格林联盟广州市前进路江南西地铁站酒店,市二宫,662,3.7,158,3.9,3.4,3.7,23.108217,113.28107
逸米酒店(广州市二宫地铁站店),市二宫,731,0,141,3.9,0,0,23.115202,113.2699
99旅馆(广州江南西分店),市二宫,965,4.2,97,3.9,3.9,4.1,23.103567,113.27563
广东云南大酒店,市二宫,704,4,143,3.8,3.7,3.8,23.115557,113.27042
天悦酒店(基立南街),市二宫,547,3.9,88,3.7,3.8,3.9,23.109835,113.28095
广州佳豪商务酒店,市二宫,980,3.6,122,3.7,3.3,3.5,23.11486,113.28542
99旅馆(二宫店),市二宫,449,3.8,109,3.6,3.4,3.6,23.113033,113.271965
九阳宾馆,市二宫,774,3.7,124,3.6,3.1,3.4,23.113892,113.28363
广州天河区商务住宿员村店,科韵路,712,0,95,5,0,0,23.123228,113.37736
品岩青年旅舍,科韵路,771,4.6,45,4.9,4.6,4.6,23.126904,113.39129
广州巴拉巴拉家庭小旅馆,科韵路,897,0,500,4.9,5,5,23.128876,113.39181
广州梧桐木家庭旅馆,科韵路,848,0,23,4.8,4.7,4.8,23.126656,113.39211
广州市天河区果冻青年旅舍,科韵路,870,0,45,4.8,4.8,4.9,23.12701,113.39225
文明公寓（广州棠下店）,科韵路,923,5,55,4.7,4.5,4.5,23.133215,113.386566
粤大金融城国际酒店,科韵路,479,4.6,432,4.5,4.6,4.7,23.125729,113.37929
中联招待所,科韵路,809,1,68,4.5,1,1,23.132355,113.38576
有缘公寓（广州棠下店）,科韵路,866,0,50,4.5,0,0,23.132647,113.38668
广州索特来文艺酒店(广州琶洲会展中心店),科韵路,700,4.4,251,4.4,4.3,4.5,23.131557,113.38356
广州克莱顿酒店,科韵路,652,4.3,370,4.3,4.3,4.4,23.121374,113.37918
广州壹米酒店,科韵路,437,4.3,128,4.3,4.1,4.3,23.12648,113.37988
城市便捷酒店(广州天河骏景店),科韵路,629,4.5,168,4.3,4.3,4.4,23.129791,113.38766
俪士酒店,科韵路,479,4.2,242,4.3,4,4.3,23.128464,113.38711
广州科新商务酒店骏景花园店,科韵路,582,4.5,158,4.3,4.1,4.1,23.129192,113.38772
锦江之星酒店(广州琶洲会展中心店),科韵路,364,4.2,291,4.2,4.1,4.3,23.125097,113.3804
私享家连锁酒店公寓(广州临江上品店),科韵路,992,4.1,281,4.2,4.1,4.3,23.11709,113.38006
明悦酒店(棠下涌东路),科韵路,400,4.3,393,4.1,4.3,4.4,23.128492,113.38571
7天连锁酒店(广州天河骏景店),科韵路,566,4.5,150,4.1,4.3,4.5,23.129272,113.387375
吉旅连锁宾馆棠下店,科韵路,895,4.1,134,4.1,3.7,4,23.133284,113.38308
广州中国大酒店(首层食街),纪念堂,936,3.7,0,5,4,4,23.14614,113.2666
广东迎宾馆,纪念堂,481,4.6,398,4.7,4.5,4.7,23.134342,113.26779
广州中山纪念堂和颐酒店,纪念堂,435,5,268,4.7,5,5,23.139978,113.26598
广州易成国际酒店公寓,纪念堂,744,4.6,329,4.7,4.7,4.7,23.131926,113.27217
铂顿国际公寓(广州中山纪念堂店),纪念堂,218,4.4,332,4.6,4.6,4.6,23.137484,113.267845
逸米米公寓北京路捷登都会店,纪念堂,745,4.3,367,4.6,4.5,4.6,23.132067,113.2726
广州希尔顿逸林酒店,纪念堂,799,4.5,780,4.5,4.5,4.7,23.1376,113.277596
中国大酒店,纪念堂,983,4.5,729,4.5,4.4,4.5,23.146467,113.26624
全季酒店广州越秀公园店,纪念堂,536,4.5,314,4.5,4.4,4.5,23.143002,113.26888
广州越秀宾馆金钥匙楼层,纪念堂,982,4.5,436,4.5,4.4,4.5,23.141884,113.278564
7天连锁酒店(纪念堂地铁站店),纪念堂,95,4.4,158,4.4,4.2,4.4,23.137655,113.269135
锦江之星酒店(中山纪念堂店),纪念堂,216,4.5,229,4.4,4.3,4.5,23.139402,113.2681
广州大厦大酒店,纪念堂,721,4.4,305,4.4,4.2,4.4,23.134909,113.275856
东方宾馆,纪念堂,920,4.4,555,4.4,4.2,4.4,23.145174,113.26486
雅兰酒店(越华路),纪念堂,437,4.3,308,4.4,4.2,4.4,23.135748,113.2731
越秀宾馆,纪念堂,990,4.4,446,4.4,4.3,4.5,23.141874,113.27866
广东大厦,纪念堂,423,4.4,354,4.3,4.1,4.4,23.13827,113.27395
如家快捷酒店(广州解放中路公园前地铁站店),纪念堂,952,4.3,151,4.3,4,4.3,23.129713,113.26906
广州华茂中心酒店,纪念堂,531,4.3,283,4.3,4,4.2,23.141872,113.26641
千树酒店,纪念堂,352,4.3,159,4.2,4.2,4.3,23.138605,113.26639
陌花客栈,汉溪长隆,558,0,0,5,4.6,5,22.994408,113.33556
广州熊猫角落客栈,汉溪长隆,622,0,94,4.9,0,0,22.993765,113.33593
广州优维家国际公寓酒店,汉溪长隆,396,0,205,4.8,5,5,22.999933,113.34057
广州小星家酒店公寓汉溪长隆店,汉溪长隆,589,4.6,239,4.8,4.7,4.7,22.99701,113.34194
广州长隆爱心公寓,汉溪长隆,402,5,92,4.8,4.7,5,22.997255,113.33352
广州米舒咖啡旅馆,汉溪长隆,432,0,387,4.8,5,5,22.999083,113.34097
广州拉美国际酒店,汉溪长隆,528,4.6,132,4.7,4.6,4.7,22.999907,113.34187
迈哈顿酒店公寓(广州长隆店),汉溪长隆,392,4.5,186,4.7,4.6,4.6,22.998066,113.34035
广州后生仔青年旅舍,汉溪长隆,442,4.7,49,4.7,4.6,4.7,22.99921,113.34108
广州洛美酒店公寓,汉溪长隆,523,4.5,228,4.7,4.7,4.7,23.00021,113.341774
舒安公寓（长隆保利大都汇店）,汉溪长隆,534,4.6,0,4.7,4.8,4.8,23.00137,113.34148
广州后花园度假公寓,汉溪长隆,536,4.4,543,4.7,4.4,4.7,22.996452,113.33254
广州南国奥园度假酒店公寓,汉溪长隆,947,4.8,588,4.7,4.5,4.8,22.994371,113.329216
广州亚丁家园智慧型服务式公寓酒店,汉溪长隆,42,4.5,138,4.6,4.4,4.6,22.999329,113.337166
喜运臻品艺术主题国际酒店公寓（广州长隆保利大都汇店）,汉溪长隆,533,4.5,160,4.6,4.7,4.5,23.00136,113.34147
长隆喜运臻品艺术主题国际酒店公寓(保利大都汇店),汉溪长隆,563,4.6,0,4.6,4.7,4.7,23.001356,113.3418
遇家精品酒店公寓（广州长隆大都汇店）,汉溪长隆,531,4.5,186,4.6,4.6,4.6,23.001263,113.34149
广州泊湾酒店公寓保利大都汇店,汉溪长隆,525,4.7,167,4.6,4.7,4.7,23.001345,113.341385
广州凯迪酒店公寓,汉溪长隆,547,0,228,4.6,5,5,23.001665,113.34145
长隆酒店,汉溪长隆,999,4.5,1026,4.5,4.5,4.6,23.008026,113.334366
广州Xbed互联网住宿保利中达店,花城大道,646,5,688,5,5,5,23.122034,113.33682
广州Xbed互联网住宿汇峰国际公寓店,花城大道,465,0,378,4.8,3,5,23.126423,113.3355
广州四季酒店,花城大道,257,4.7,1437,4.7,4.8,4.8,23.123316,113.32939
柏悦酒店,花城大道,327,4.7,1631,4.7,4.8,4.9,23.124405,113.32812
广州富力丽思卡尔顿酒店,花城大道,405,4.7,1261,4.7,4.7,4.8,23.122055,113.33385
礼顿酒店,花城大道,762,4.6,474,4.6,4.5,4.6,23.12682,113.32416
合景W酒店,花城大道,466,4.5,1264,4.6,4.6,4.7,23.127012,113.33519
雅诗阁服务公寓,花城大道,231,4.6,1019,4.5,4.7,4.7,23.12443,113.32906
广州富力君悦大酒店,花城大道,408,4.6,1272,4.5,4.5,4.6,23.128326,113.33006
广州喜运服务公寓(保利中达广场店),花城大道,644,0,402,4.5,4.5,4.3,23.121504,113.33645
广州双城礼顿公寓,花城大道,429,4.4,0,4.5,4.3,4.4,23.124653,113.327095
广州Hart鹿途·坑坑家庭式公寓,花城大道,583,0,233,4.5,4.5,4.5,23.12504,113.33699
维纳斯酒店公寓（广州珠江新城店）,花城大道,701,4.4,328,4.5,4.4,4.4,23.12668,113.32473
威珀斯酒店,花城大道,919,4.2,558,4.4,4.3,4.5,23.130411,113.324646
广州兴盛国际公寓,花城大道,694,4.3,404,4.4,4.2,4.4,23.127123,113.33761
伊思德国际公寓（广州保利中达）,花城大道,686,4.3,665,4.4,4.3,4.4,23.121387,113.33686
广州蓝精灵酒店公寓,花城大道,725,4.5,0,4.4,4.2,4.4,23.126644,113.32447
广州阳光假日酒店公寓,花城大道,715,4.4,0,4.4,4.3,4.3,23.1266,113.32456
双城国际公寓,花城大道,699,4.2,98,4.3,4.1,4.3,23.125938,113.324554
广州锐得-保利中达公寓,花城大道,662,4.4,111,4.3,4.5,4.5,23.121164,113.33639
广州七年青年旅舍琶洲中大店,中大,63,0,51,4.4,4.1,4.1,23.097965,113.299065
逸米酒店,中大,909,4.1,179,4.3,3.9,4,23.09419,113.29188
呈爱主题连锁酒店,中大,815,4.4,167,4.2,4.4,4.5,23.105639,113.29998
方洁银都酒店,中大,461,3.9,188,4.1,3.9,4.1,23.096445,113.295525
如家快捷酒店(广州滨江东路中山大学店),中大,946,4,183,4.1,3.9,4.1,23.106775,113.30052
佳园连锁酒店广州怡乐路店,中大,586,4,182,3.9,3.8,4,23.100916,113.29458
爱心创业青年旅舍,中大,291,2.5,50,3.7,2.5,2.5,23.097322,113.3022
新苑宾馆,中大,841,3.3,98,3.5,2.9,3.2,23.09862,113.29134
心成宾馆,中大,833,3.8,96,3.5,3.4,3.7,23.105799,113.29988
瑞纺酒店,中大,681,3.6,198,3.4,3.5,3.6,23.09287,113.30262
嘉怡酒店,中大,479,3.1,131,3.3,2.6,3,23.10022,113.29536
海大新宾馆,中大,618,3.5,135,3.3,3.1,3.5,23.097935,113.305595
燕琪宾馆,中大,694,2,115,3.3,2,2,23.104519,113.30027
广州海珠区佳宜宾馆,中大,984,3.9,108,3.3,3.6,3.8,23.103397,113.29169
广州中大公寓（中山大学南门）,中大,825,0,75,3.3,0,0,23.092848,113.30503
紫荆园宾馆,中大,608,2,168,3.2,2,2.2,23.099134,113.30544
中瑞酒店,中大,794,3.4,168,3.1,3.2,3.4,23.091707,113.30253
博客宾馆,中大,929,3.7,96,2.5,3.4,3.5,23.1065,113.30137
广州双子星国际公寓,中大,639,4.5,138,2.3,1,1,23.095524,113.30504
广州叶子青年旅舍中山大学店,中大,365,0,30,-1,0,0,23.09878,113.29603
广州白云国际会议中心,白云文化广场,442,4.2,497,4.3,4.2,4.4,23.194473,113.28592
齐富大酒店,白云文化广场,720,4.3,263,4.1,4.3,4.4,23.199823,113.27617
卡尔文大酒店,白云文化广场,480,4,300,4,4,4.1,23.199507,113.27899
广州麦榕酒店,白云文化广场,547,4.2,175,4,4.1,4.2,23.196587,113.27668
壹加壹商务酒店,白云文化广场,904,4.1,100,4,4,4.1,23.200037,113.274216
广州兴富公寓,白云文化广场,897,5,46,4,3.8,4.1,23.196634,113.273254
锦宏商务酒店,白云文化广场,583,4.3,198,3.9,3.8,3.6,23.19962,113.27769
喜佳乐商务酒店,白云文化广场,541,3.1,140,3.4,3.2,3.3,23.199743,113.27839
广州珍珍公寓,白云文化广场,887,3.6,48,3.1,3.3,3.2,23.19654,113.27334
鸿润公寓,白云文化广场,834,3.2,97,2.8,2.3,3,23.196653,113.27387
广州白云涌北住宿,白云文化广场,719,0,55,2.2,0,0,23.196636,113.274994
广州白云三姐住宿,白云文化广场,794,0,54,2.2,0,0,23.196724,113.27426
广州白云区温馨公寓,白云文化广场,931,0,68,2,0,0,23.19702,113.27295
广州永兴商务公寓,白云文化广场,475,0,73,-1,0,0,23.198975,113.27847
广州福满家酒店公寓,白云文化广场,939,0,88,-1,0,0,23.196486,113.272835
广州白云区兴隆公寓,白云文化广场,976,0,0,-1,0,0,23.196169,113.27246
广州三元里沙涌北阳光住宿,白云文化广场,997,0,76,-1,0,0,23.197235,113.27232
佛山安然时光青年旅舍,同济路,37,0,45,4.6,0,0,23.024992,113.114716
佛山IU酒店大学店,同济路,603,4.7,139,4.6,4.7,4.7,23.026138,113.109245
佛山祖庙安然时光青年旅舍,同济路,891,4.8,0,4.6,4.1,4.8,23.016726,113.114426
佛山恒安瑞士大酒店,同济路,870,4.5,552,4.4,4.5,4.6,23.03247,113.11369
佛山千色汇主题酒店,同济路,837,4.6,78,4.4,4.5,4.7,23.027554,113.10735
嘉世铂顿酒店,同济路,965,4.4,228,4.4,4.3,4.5,23.03225,113.11964
佛山皇冠假日酒店,同济路,663,4.5,512,4.3,4.4,4.5,23.030655,113.11568
7天连锁酒店(佛山同济路地铁站店),同济路,883,4.6,77,4.3,4.5,4.5,23.020153,113.121994
平谦国际精品酒店,同济路,948,4.3,150,4.3,4.2,4.3,23.033241,113.11551
宝行商务酒店,同济路,766,5,168,4.3,4.7,4.7,23.01793,113.11368
如家快捷酒店(佛山百花广场店),同济路,974,4.3,119,4.3,4.1,4.3,23.033127,113.117645
7天连锁酒店(佛山通济桥店),同济路,908,4.6,70,4.3,4.5,4.6,23.023565,113.123726
凯悦酒店(江湾一路),同济路,901,4.5,139,4.3,4.5,4.5,23.02661,113.10637
佛山U度假公寓酒店(私享家总店),同济路,971,4.1,197,4.3,4.2,4.3,23.03209,113.12005
佛山CJC国际高级公寓,同济路,877,0,371,4.3,0,0,23.032515,113.11358
百花商务酒店,同济路,562,4.1,75,4.2,4,4.1,23.029104,113.11769
7天连锁酒店(佛山祖庙地铁站店),同济路,588,4,124,4.2,4.2,4.3,23.029379,113.11767
佛山缤纷四季商务酒店,同济路,685,4.2,238,4.2,4.2,4.3,23.024067,113.10827
金城大酒店,同济路,760,4.3,272,4.1,4.1,4.4,23.03156,113.11462
7天连锁酒店(祖庙百花广场店),同济路,689,4.5,77,4.1,4.3,4.5,23.02949,113.11925
港湾公寓（广州东圃店）,东圃,747,0,49,5,0,0,23.122036,113.40548
盛汇时尚酒店,东圃,963,4.6,158,4.7,4.6,4.8,23.118324,113.41706
玉合宾馆,东圃,873,4.1,138,4.5,4.1,4.3,23.123547,113.407074
情缘住宿（广州东圃店）,东圃,779,0,288,4.3,0,0,23.122652,113.40674
7天连锁酒店(广州东圃大马路店),东圃,787,4.5,167,4,4.4,4.5,23.122824,113.40768
广州盈尚商务公寓,东圃,194,4.4,87,3.9,4.1,4.3,23.11734,113.40728
7天连锁酒店(广州黄埔大道东圃地铁站店),东圃,565,4.5,127,3.9,4.5,4.6,23.116055,113.41359
汉庭酒店,东圃,870,0,135,3.9,0,0,23.1235,113.40686
广州帝豪公寓东圃店,东圃,922,3,66,3.9,2.9,2.9,23.12373,113.40561
逸米酒店,东圃,414,0,115,3.7,0,0,23.119444,113.407524
新旺商务公寓,东圃,313,4.5,65,3.6,3.2,3.6,23.118479,113.40731
广州锦缘公寓,东圃,793,2.8,38,3.5,2.5,2.5,23.122768,113.406685
金鹏旅馆(齐森商务写字楼东北),东圃,861,4.2,118,3.3,2,4.1,23.123444,113.409
广州万佳公寓,东圃,221,0,73,3,0,0,23.117607,113.4073
广州东方住宿东圃店,东圃,813,0,70,2.3,0,0,23.122936,113.40657
星鑫旅店,东圃,352,1.9,86,1.9,1.9,2,23.118778,113.40705
燊溢公寓,东圃,808,1,68,1.8,1,1,23.122074,113.404175
平安住宿,东圃,773,0,30,1.7,0,0,23.122318,113.4056
如意酒店式公寓,白云大道北,714,4.5,78,4.6,4.6,4.3,23.231636,113.311104
广州绿巢精品酒店,白云大道北,642,4.4,168,4.4,4.3,4.4,23.225971,113.310776
仙乐商务酒店,白云大道北,461,3.8,168,4.4,3.7,4,23.231462,113.30812
城市便捷酒店(广州白云堡店),白云大道北,807,5,133,4.4,5,5,23.235207,113.30782
维也纳酒店(广州云堡店),白云大道北,531,4.3,110,4.3,4.1,4.3,23.231798,113.308716
嘉信酒店,白云大道北,423,4.3,338,4.3,4.2,4.4,23.226633,113.30873
金雅泰商务酒店,白云大道北,567,4.2,201,4.3,4,4.2,23.225094,113.309296
裕华住宿,白云大道北,623,4,76,4.2,4,4,23.228134,113.31116
城市家园酒店,白云大道北,607,0,178,4.2,0,0,23.228275,113.311005
广州卡顿大酒店,白云大道北,493,4.2,156,4.1,4.2,4.3,23.224798,113.307884
绿之洲酒店,白云大道北,902,3.9,115,4.1,3.4,3.6,23.223467,113.29804
大都连锁快捷酒店永泰店,白云大道北,829,3.8,100,4.1,3.6,4,23.225075,113.312325
永泰国际酒店,白云大道北,629,4.3,110,4,4.2,4.3,23.232756,113.309
国交商务酒店(同泰路店),白云大道北,850,3.7,146,4,3.7,3.7,23.225492,113.31276
嘉盈商务宾馆,白云大道北,791,4.5,110,4,4.1,4.1,23.22128,113.3053
广州米兰公寓元下田店,白云大道北,722,4.4,97,4,3.7,4.1,23.223295,113.30945
广州尚美酒店（永泰店）),白云大道北,511,4.2,119,3.9,3.9,4.2,23.226238,113.30948
城市便捷酒店(广州白云山永泰地铁站店),白云大道北,559,4.4,134,3.9,4.5,4.7,23.223862,113.30743
伯爵大酒店,白云大道北,547,4,266,3.8,3.9,4.2,23.224876,113.301315
新天地宾馆,白云大道北,708,3,101,3.8,1.1,1.2,23.23142,113.311165
金顺宾馆,赤岗,809,4.5,128,5,4.5,4.5,23.099348,113.33424
广州帝豪斯公寓琶洲会展中心店,赤岗,282,0,814,5,0,0,23.104317,113.34292
广州木春公寓,赤岗,727,4.8,318,4.8,4.8,4.9,23.103666,113.334656
广州宜家人公寓,赤岗,313,5,157,4.7,4.4,5,23.104305,113.343475
和颐酒店(琶洲会展中心店),赤岗,258,4.5,263,4.5,4.4,4.6,23.103235,113.34378
凯港精品酒店（赤岗店）,赤岗,284,4.3,386,4.5,4.4,4.5,23.099571,113.3412
悦享家公寓(广州纵横广场店),赤岗,450,4.3,91,4.5,4.3,4.4,23.101631,113.33719
广州他她塔青年旅行公寓,赤岗,817,4.5,49,4.5,4.5,4.5,23.097185,113.335625
广州驿驻服务式公寓,赤岗,456,4.3,177,4.4,4.1,4.2,23.10168,113.33712
丽枫酒店(客村地铁站琶洲会展中心店),赤岗,815,0,100,4.4,0,0,23.099583,113.334076
0五万信酒店,赤岗,716,4.5,299,4.4,4.4,4.5,23.095678,113.34198
广州市龙强国际酒店公寓,赤岗,483,4.6,217,4.4,4.6,4.6,23.101671,113.33686
城市便捷酒店(客村地铁站会展中心店),赤岗,867,0,159,4.4,0,0,23.101713,113.33309
维也纳酒店(会展中心赤岗店),赤岗,961,4.2,212,4.4,4.1,4.2,23.096882,113.334076
广州迷路麋鹿青年公寓江塔景观2店,赤岗,743,0,274,4.4,5,5,23.104801,113.33491
广州合晋帝苑酒店,赤岗,813,4.2,174,4.3,4.1,4.2,23.100533,113.33379
文星酒店(广州会展中心赤岗店),赤岗,891,4.5,158,4.3,4.4,4.6,23.095299,113.33697
广州市迎商酒店丽影广场店,赤岗,969,4.3,78,4.3,4.1,4.3,23.102182,113.332085
速8酒店(广州琶洲会展店),赤岗,297,3.6,266,4.2,3.6,3.7,23.103497,113.34405
万发宾馆,赤岗,864,5,154,4.2,5,5,23.099012,113.33381
如意酒店式公寓,永泰,619,4.5,78,4.6,4.6,4.3,23.231636,113.311104
广州绿巢精品酒店,永泰,219,4.4,168,4.4,4.3,4.4,23.225971,113.310776
仙乐商务酒店,永泰,752,3.8,168,4.4,3.7,4,23.231462,113.30812
金雅泰商务酒店,永泰,391,4.2,201,4.3,4,4.2,23.225094,113.309296
维也纳酒店(广州云堡店),永泰,744,4.3,110,4.3,4.1,4.3,23.231798,113.308716
嘉信酒店,永泰,426,4.3,338,4.3,4.2,4.4,23.226633,113.30873
裕华住宿,永泰,269,4,76,4.2,4,4,23.228134,113.31116
城市家园酒店,永泰,291,0,178,4.2,0,0,23.228275,113.311005
广州卡顿大酒店,永泰,538,4.2,156,4.1,4.2,4.3,23.224798,113.307884
大都连锁快捷酒店永泰店,永泰,148,3.8,100,4.1,3.6,4,23.225075,113.312325
国交商务酒店(同泰路店),永泰,91,3.7,146,4,3.7,3.7,23.225492,113.31276
永泰国际酒店,永泰,819,4.3,110,4,4.2,4.3,23.232756,113.309
广州米兰公寓元下田店,永泰,485,4.4,97,4,3.7,4.1,23.223295,113.30945
嘉盈商务宾馆,永泰,956,4.5,110,4,4.1,4.1,23.22128,113.3053
颐和大酒店,永泰,764,4,402,3.9,3.9,4.1,23.22545,113.32031
广州尚美酒店（永泰店）),永泰,348,4.2,119,3.9,3.9,4.2,23.226238,113.30948
城市便捷酒店(广州白云山永泰地铁站店),永泰,621,4.4,134,3.9,4.5,4.7,23.223862,113.30743
春晖酒店,永泰,347,3.5,152,3.8,3.3,3.4,23.225801,113.316246
新天地宾馆,永泰,595,3,101,3.8,1.1,1.2,23.23142,113.311165
皇朝商务酒店,永泰,625,4,117,3.6,3.9,4.1,23.223846,113.30739
广州市裕华酒店,淘金,810,3.8,320,5,3.8,4.5,23.145046,113.28563
桔子水晶酒店(淘金店),淘金,355,0,479,4.7,0,0,23.14229,113.296585
广州麓湖国际酒店,淘金,969,4.8,677,4.7,4.7,4.8,23.150557,113.29724
花园酒店,淘金,144,4.6,892,4.6,4.6,4.7,23.141405,113.293015
广州中心皇冠假日酒店,淘金,452,4.6,870,4.5,4.6,4.7,23.144724,113.2893
易尚国泰大酒店,淘金,214,4.5,449,4.5,4.5,4.6,23.141691,113.29493
广州柏高商务酒店东风路省政府店,淘金,616,4.4,464,4.5,4.4,4.6,23.138393,113.28934
广州爱格公寓正佳环市中心店,淘金,117,4.2,309,4.5,4.7,4.4,23.142105,113.29409
私享家连锁酒店公寓(广州正佳环市中心店),淘金,135,4.5,273,4.5,4.4,4.3,23.14191,113.29415
万顺宾馆,淘金,848,0,140,4.5,0,0,23.145885,113.2856
白云宾馆(广州),淘金,172,4.5,463,4.4,4.3,4.6,23.1441,113.292404
城市便捷酒店(广州麓苑路淘金店),淘金,526,4.5,229,4.4,4.3,4.6,23.147099,113.29123
优优国际公寓(广州正佳环市中心店),淘金,142,4.3,298,4.4,4.5,4.5,23.141796,113.29412
广州诺盟酒店公寓(正佳店),淘金,163,4.5,167,4.4,4.5,4.5,23.141766,113.29437
广州易成服务酒店公寓正佳东方店,淘金,132,4.3,397,4.4,4.3,4.4,23.14204,113.29422
远洋宾馆,淘金,544,4.4,350,4.3,4.3,4.5,23.140839,113.298065
迎商三茂大酒店(广州环市东路淘金地铁站店),淘金,220,4.3,262,4.3,4.2,4.4,23.141321,113.294685
广州朋满公寓式酒店正佳环市中心店,淘金,171,4.3,393,4.3,4.3,4.4,23.141722,113.29443
广州深港酒店式公寓,淘金,116,5,342,4.3,5,5,23.142054,113.29403
星程酒店,淘金,984,4.2,305,4.3,4.1,4.3,23.140356,113.30242
广州金沙洲沙贝村酒店公寓,横沙,666,4.5,164,4.5,4.5,4.5,23.157873,113.21414
螺音公寓（广州御金沙店）,横沙,886,4.2,0,4.2,4.4,4.7,23.170776,113.20907
速8酒店(白云金沙洲沙贝地铁站店),横沙,570,4,148,3.9,3.9,4.2,23.159508,113.21632
全美酒店,横沙,228,2.4,107,3.8,3,3,23.161976,113.2123
金沙大酒店,横沙,707,3.9,142,3.8,3.7,3.8,23.157707,113.21522
迪八连锁酒店,横沙,661,3.9,99,3.7,3.9,3.9,23.15789,113.21392
198连锁酒店金沙洲分店,横沙,346,3.8,128,3.6,3.9,4,23.165016,113.216415
必胜宾馆,横沙,250,4,107,3.5,3.8,4,23.16197,113.21469
广州尚禾印象酒店,横沙,51,3.6,98,3.1,3.5,3.6,23.163774,113.21379
广州金领豪华公寓,横沙,666,2.7,64,2.7,2.7,2.7,23.157873,113.21414
广州皇家园林豪华公寓,横沙,86,0,1260,2.2,0,0,23.163563,113.214096
友谊商务宾馆,横沙,649,0,78,2.1,0,0,23.15814,113.214806
广州螺音度假公寓御金沙店,横沙,898,0,466,-1,0,0,23.171549,113.21073
广州遇见你真好青年旅舍华师地铁站店,华师,157,0,71,5,0,0,23.145458,113.35059
广州迅游青年旅舍,华师,696,5,0,5,5,5,23.140778,113.34857
广州早安青年旅舍,华师,235,5,65,4.8,4.9,5,23.144793,113.350204
小李家青旅,华师,306,5,65,4.7,5,5,23.149017,113.35204
广州都市过客青年旅舍,华师,273,5,56,4.7,4.8,4.8,23.14872,113.35203
丽枫酒店(天河岗顶地铁站店),华师,733,4.6,337,4.6,4.5,4.6,23.14002,113.34956
广州悠然文化青年旅舍,华师,978,0,48,4.6,0,0,23.140585,113.34454
粤海酒店,华师,658,4.4,281,4.5,4.3,4.5,23.142178,113.356514
汉庭酒店(广州岗顶地铁站店),华师,585,4.5,284,4.5,4.3,4.6,23.141317,113.34991
广州人字拖青年旅舍(华师店),华师,455,4.4,57,4.5,4.4,4.4,23.150354,113.35151
优众服务式酒店公寓,华师,721,4.4,276,4.5,4.3,4.4,23.14237,113.34622
广州佰合国际公寓酒店丽柏店,华师,747,4.5,0,4.5,4.4,4.5,23.14249,113.34582
广州蜜语主题酒店,华师,142,4.1,285,4.4,4.2,4.3,23.14543,113.3508
7天连锁酒店(广州天河岗顶龙口东路店),华师,544,4.2,169,4.3,4.1,4.3,23.144007,113.34714
莱福·广武酒店,华师,912,4.1,303,4.3,3.7,3.9,23.140728,113.345276
7天优品酒店(天河岗顶地铁站店),华师,698,4.5,249,4.3,4.4,4.5,23.140354,113.34955
广州暨南大学校园青年公寓,华师,517,2,53,4.3,2,3,23.141655,113.351166
丹尼斯酒店,华师,754,4.3,213,4.3,4.2,4.4,23.150072,113.34574
广州悦华大厦(悦华法官培训中心酒店),华师,598,4.1,288,4.2,3.9,4.2,23.142733,113.34744
如家快捷酒店(广州天河岗顶店),华师,495,4.2,183,4.2,4,4.2,23.142998,113.348564
Blue House民宿（广州达标国际店）,宝岗大道,963,5,137,4.9,4.6,5,23.094534,113.285225
艺尚宫艺术主题酒店（江南西地铁站店）,宝岗大道,846,4.7,200,4.8,4.8,4.9,23.099726,113.27504
广州随意宅青年旅舍,宝岗大道,772,5,44,4.8,5,5,23.094921,113.2831
卡威尔酒店,宝岗大道,743,4.5,360,4.5,4.5,4.6,23.086212,113.27288
如家快捷酒店(广州工业大道沙园店),宝岗大道,795,4.5,151,4.3,4.3,4.4,23.093513,113.26851
7天连锁酒店(广州江南西二店),宝岗大道,791,4.3,0,4.3,4.1,4.4,23.098167,113.271965
im青年驿站,宝岗大道,725,5,49,4.3,5,4.5,23.093962,113.28298
达镖国际酒店,宝岗大道,837,4.2,405,4.2,4.2,4.4,23.096148,113.28312
广州自由行青年旅舍,宝岗大道,684,4.2,56,4.2,4.1,4.4,23.09615,113.28128
广州招牌酒店公寓,宝岗大道,809,4.1,268,4.2,4,4.1,23.096075,113.282845
广州现代家酒店式公寓,宝岗大道,837,4.5,238,4.2,4.4,4,23.096098,113.28315
广州悦品四季主题酒店,宝岗大道,700,4.3,226,4.1,4.2,4.4,23.090128,113.26968
时代酒店公寓,宝岗大道,856,4,213,4.1,4,4.1,23.095587,113.28367
7天连锁酒店(广昌岗美术学院二店),宝岗大道,975,4.3,166,4.1,4.1,4.2,23.090273,113.28546
广州嘻哈酒店公寓(昌岗店),宝岗大道,818,4,285,4.1,3.9,4,23.095955,113.28303
广州城市驿站酒店公寓(昌岗店),宝岗大道,840,3.4,238,4.1,2.1,2.5,23.09606,113.28322
珀丽酒店,宝岗大道,831,4.2,327,4,3.9,4.2,23.097036,113.28234
广州星驿国际酒店公寓,宝岗大道,826,3.9,222,4,3.8,3.9,23.096134,113.283
广州天域国际酒店公寓,宝岗大道,837,4,191,4,3.9,4,23.096046,113.28318
广州嘉驿国际酒店公寓,宝岗大道,816,3.8,183,4,3.7,3.9,23.096,113.282974
广州时尚住宿,香雪,464,5,55,5,5,5,23.17997,113.51175
香雪国际酒店公寓,香雪,696,4.7,298,4.7,4.6,4.7,23.183697,113.50338
如意住宿(广州萝岗店),香雪,418,0,70,4.6,0,0,23.180029,113.51125
广州市萝岗区吉祥住宿,香雪,392,3,68,4.5,2.5,2.5,23.181324,113.50996
老地方住宿,香雪,358,5,0,4.5,3.8,4.4,23.180725,113.51014
广州红运住宿,香雪,453,2,57,4.1,1,4,23.18129,113.510826
广州老地方旅店,香雪,401,0,54,4.1,4,4,23.181896,113.50919
WiFi公寓,香雪,683,3,96,3.9,3,3.3,23.180561,113.5138
红叶公寓,香雪,962,3.8,93,3.6,3.6,4.1,23.181736,113.51624
广州萝岗荔君酒店,香雪,466,0,116,3.5,5,5,23.180958,113.51126
广州市萝岗区迎宾住宿,香雪,383,3.5,50,3.5,3.5,3.5,23.181324,113.50982
荔红酒店,香雪,579,3,125,3.4,5,5,23.181522,113.512184
荔南宾馆,香雪,749,4.5,1000,3.3,4.6,4,23.181227,113.51422
广州爱尚豪华公寓,香雪,566,0,78,2.9,0,0,23.180248,113.5127
广州萝岗住房,香雪,655,1,64,1,1,1,23.181143,113.51326
广州萝岗租房住宿,香雪,443,0,388,-1,0,0,23.181206,113.51078
广州萝岗平安住宿,香雪,366,0,0,-1,0,0,23.181122,113.50983
广州金英住宿萝岗店,香雪,398,0,0,-1,0,0,23.18149,113.50984
广州萝岗住宿一店,香雪,768,0,68,-1,0,0,23.1819,113.51408
广州小如家公寓,燕塘,361,0,67,5,0,0,23.162926,113.33536
柏高商务酒店 - 天河北天平架地铁站店,燕塘,601,4.5,261,4.6,4.6,4.7,23.167334,113.328354
广兴宾馆,燕塘,329,4.1,128,4.6,3.6,3.9,23.167177,113.33697
广州燕岭大厦(酒店),燕塘,165,4.4,332,4.4,4.2,4.4,23.164953,113.33284
城市便捷酒店(广州天平架地铁站店),燕塘,900,4.3,180,4.4,4.2,4.4,23.172604,113.329025
如家快捷酒店(天平架地铁站店),燕塘,544,4.5,151,4.3,4.3,4.5,23.165407,113.32874
广州文星连锁酒店（天平架地铁口店）,燕塘,745,4.4,151,4.3,4.3,4.5,23.16588,113.326744
7天连锁酒店(广州天河燕塘地铁站二店),燕塘,575,4.4,159,4.2,4.1,4.3,23.163584,113.32903
南洋长胜酒店,燕塘,783,4.1,348,4.2,4,4.2,23.16485,113.32647
汉庭酒店(沙太南路店),燕塘,560,4.3,159,4.2,4.2,4.3,23.170391,113.331474
银河大酒店,燕塘,669,4.1,190,4.1,4,4.1,23.17174,113.33229
7天连锁酒店(燕岭路),燕塘,314,4.3,150,4.1,4.1,4.3,23.164038,113.331764
汉庭酒店(天河燕岭店),燕塘,519,4.4,195,4.1,4.2,4.3,23.169306,113.33757
7天连锁酒店(粤垦路店),燕塘,375,4.6,169,4,4.5,4.6,23.162767,113.33529
国茂大酒店,燕塘,938,4.1,221,4,4,4.2,23.157507,113.33426
广顺宾馆(粤垦路),燕塘,845,3.8,125,4,3.7,3.8,23.160511,113.33983
春天里精品酒店(天河燕岭店),燕塘,147,4.1,169,3.9,3.9,4.1,23.166924,113.33501
圣沣大酒店,燕塘,968,3.9,119,3.9,3.9,3.9,23.17324,113.32888
广州萃华苑快捷酒店式公寓,燕塘,402,3.9,173,3.9,3.9,4,23.167421,113.33763
新金山酒店,燕塘,797,4,167,3.8,3.8,4,23.161503,113.32791
广州南站华林印象酒店,广州南站,458,5,118,5,5,5,22.991684,113.27468
广州南站-枫林晚酒店,广州南站,549,5,0,5,5,5,22.992607,113.2723
广州7星快捷酒店,广州南站,945,5,86,5,5,5,22.993126,113.26786
广州南站西门公寓,广州南站,828,5,0,5,5,5,22.990866,113.2703
广州南站家家公寓,广州南站,596,0,96,5,0,0,23.00032,113.27467
广州柏啦图Holiday主题公寓,广州南站,881,0,244,5,0,0,23.001192,113.28257
广州南站-格林豪连锁酒店,广州南站,259,0,88,4.9,4.7,4.7,22.992998,113.27651
广州如家宾馆（南站店）,广州南站,287,5,178,4.9,5,5,22.99277,113.27631
(广州南站)77快捷酒店,广州南站,256,0,73,4.9,0,0,22.99669,113.274765
广州南景华公寓,广州南站,708,0,88,4.9,0,0,23.001682,113.2763
广州如家快捷酒店,广州南站,102,4.1,98,4.8,3.7,3.8,22.995005,113.27584
广州南站-尚客优连锁酒店,广州南站,488,4.5,81,4.8,4.3,4.3,22.99124,113.27504
广州v8快捷酒店公寓,广州南站,229,5,101,4.8,4.8,4.8,22.996855,113.27528
广州莫帝尤纳公寓南站汉溪店,广州南站,263,5,85,4.8,4.6,5,22.993666,113.27494
广州柒天时尚宾馆,广州南站,233,5,84,4.8,4,5,22.994179,113.27487
广州迎宾宾馆,广州南站,505,4.8,88,4.8,4.4,4.6,22.991205,113.27469
我家连锁酒店公寓广州南站奥园店,广州南站,745,0,123,4.8,5,5,22.99548,113.28406
广州苹果屋主题公寓,广州南站,908,4.9,0,4.8,4.9,4.9,23.001795,113.282196
广州南站红影酒店公寓奥园越时代店,广州南站,897,4.9,166,4.8,4.9,4.9,23.001507,113.282425
广州她他会酒店式公寓南站店,广州南站,942,4.5,178,4.8,4.4,4.4,23.001379,113.28323
广州天宇酒店式公寓新白云机场店,机场南,498,0,78,4.4,0,0,23.387878,113.30985
华天快捷公寓(广州新白云机场店),机场南,255,4.1,0,3.8,3.8,4,23.391872,113.31184
如家快捷酒店(黄沙大道如意坊地铁站店),如意坊,325,4.4,177,4.4,4.2,4.4,23.123644,113.237915
如家快捷酒店(广州上下九长寿路地铁站店),如意坊,868,4.3,167,4.2,4,4.3,23.123323,113.24622
广州馨乐庭荔枝湾服务公寓,如意坊,756,4.3,320,4.1,4.2,4.4,23.126137,113.2427
佳园连锁酒店荔湾湖店,如意坊,831,4,122,4,3.9,4.1,23.127995,113.23629
广州莱喜酒店,如意坊,323,3.2,140,4,4,4,23.123384,113.23951
7天连锁酒店(广州上下九恒宝广场店),如意坊,846,4.3,100,3.9,4.2,4.2,23.122044,113.24636
广州有色金属酒店,如意坊,155,3.9,94,3.8,3.7,4,23.122087,113.23784
宁泰酒店,如意坊,271,3.8,152,3.7,3.7,3.9,23.122475,113.24007
德宝大酒店,如意坊,543,4.1,147,3.4,3.8,4.4,23.122774,113.24304
家外家连锁酒店,如意坊,682,3.1,118,3.1,2.6,2.9,23.116673,113.243225
教仪酒店,如意坊,416,2,138,2.6,2.1,2,23.118828,113.241714
广州木西城央民宿御景壹号店,如意坊,35,0,714,-1,0,0,23.120686,113.23855
广州6月青年驿站,海珠广场,635,0,29,4.8,0,0,23.125406,113.27652
广州人民公社青年旅舍北京路店,海珠广场,721,0,20,4.7,4.8,4.7,23.12552,113.27757
广州呈爱精品酒店北京路地铁站店,海珠广场,578,5,199,4.6,4.7,4.9,23.124222,113.27691
广州岭南五号酒店,海珠广场,849,4.6,1231,4.6,4.5,4.7,23.121948,113.28057
南北纵横国际公寓(金润铂宫店),海珠广场,977,4.3,455,4.5,4.5,4.5,23.128977,113.27677
广州桃花江豪生酒店,海珠广场,572,4.5,498,4.4,4.5,4.7,23.12163,113.27788
广州御江苑国际公寓,海珠广场,376,4.2,340,4.4,4.3,4.4,23.121613,113.275955
广州合好国际酒店公寓（沿江金融大厦店）,海珠广场,844,4.5,208,4.4,4.3,4.4,23.117249,113.26525
广州玉楼金殿酒店公寓,海珠广场,867,4.5,218,4.4,4.6,4.7,23.117224,113.26501
迷途主题旅馆,海珠广场,983,4.2,220,4.4,4.1,4.3,23.128832,113.27717
广州佰合国际公寓酒店(沿江金融大厦店),海珠广场,857,4.4,264,4.4,4.4,4.4,23.117128,113.26518
乐享家酒店式服务公寓(广州长堤民间金融大厦店),海珠广场,844,4.3,299,4.4,4.4,4.5,23.117249,113.26525
阳光国际酒店公寓（广州北京路金润铂宫店）,海珠广场,972,4.3,408,4.4,4.3,4.4,23.128805,113.27701
广州靓天阁酒店,海珠广场,872,0,189,4.4,0,0,23.127825,113.27687
文星连锁酒店北京路店,海珠广场,554,4.2,178,4.3,3.9,4.2,23.12619,113.2724
广州考拉青年旅舍（北京路店）,海珠广场,752,4.6,100,4.3,4.3,4.5,23.127747,113.2742
嘉明宾馆,海珠广场,816,2.4,105,4.3,2.4,2.4,23.12819,113.27476
索特来文艺酒店,海珠广场,976,4.3,160,4.3,4.1,4.3,23.123302,113.26303
广州私享家酒店公寓(北京路金润铂宫店),海珠广场,972,4.3,367,4.3,4.3,4.3,23.128805,113.27701
广州迷途主题酒店(海珠广场店),海珠广场,414,4.1,197,4.2,3.8,4.1,23.117704,113.273705
广州迅游青年旅舍,岗顶,248,5,0,5,5,5,23.140778,113.34857
广州遇见你真好青年旅舍华师地铁站店,岗顶,710,0,71,5,0,0,23.145458,113.35059
广州早安青年旅舍,岗顶,628,5,65,4.8,4.9,5,23.144793,113.350204
遇家精品服务公寓（广州天河体育中心正佳广场店）,岗顶,809,4.9,0,4.8,4.7,4.7,23.144173,113.339294
丽枫酒店(广州天河石牌桥地铁站店),岗顶,779,4.5,120,4.7,4.4,4.6,23.13676,113.33973
柏高商务酒店(龙口西店),岗顶,496,4.6,344,4.6,4.5,4.7,23.143444,113.34247
丽枫酒店(天河岗顶地铁站店),岗顶,354,4.6,337,4.6,4.5,4.6,23.14002,113.34956
辉盛阁酒店公寓,岗顶,866,4.5,892,4.6,4.6,4.7,23.13815,113.33808
广州悠然文化青年旅舍,岗顶,164,0,48,4.6,0,0,23.140585,113.34454
金凰宾馆(黄埔大道西),岗顶,902,0,158,4.6,0,0,23.132425,113.34647
地中海国际酒店,岗顶,337,4.4,429,4.5,4.4,4.5,23.138756,113.343475
汉庭酒店(广州岗顶地铁站店),岗顶,393,4.5,284,4.5,4.3,4.6,23.141317,113.34991
广州维多利酒店,岗顶,992,4.5,530,4.5,4.4,4.6,23.131992,113.34336
良友启程酒店,岗顶,778,4.5,338,4.5,4.5,4.6,23.134314,113.349625
广州国德国际大酒店,岗顶,756,4.4,683,4.5,4.3,4.5,23.141842,113.33889
优众服务式酒店公寓,岗顶,203,4.4,276,4.5,4.3,4.4,23.14237,113.34622
丽枫酒店(广州天河正佳广场店),岗顶,903,4.6,299,4.5,4.4,4.5,23.137068,113.338165
广州爱家连锁酒店(天河店),岗顶,278,4.6,54,4.5,4.2,4.4,23.138815,113.34417
广州佰合国际公寓酒店丽柏店,岗顶,219,4.5,0,4.5,4.4,4.5,23.14249,113.34582
嘉逸国际酒店,岗顶,827,4.5,486,4.4,4.4,4.5,23.146505,113.34131
广州东圃合景福朋喜来登酒店,三溪,886,4.5,603,4.4,4.5,4.7,23.11801,113.42421
彩虹公寓酒店,南洲,494,4,168,4.5,4,4,23.074253,113.303246
广轩大厦,南洲,710,4.5,100,4.2,4.6,4.7,23.0642,113.30745
如家快捷酒店(广州海珠东晓南地铁站店),南洲,580,4,135,4.1,3.9,4.1,23.074297,113.30126
E家连锁酒店（海珠客运站店）,南洲,71,3.9,118,4,3.7,3.8,23.069292,113.304504
逸米酒店(广州南洲地铁站店),南洲,364,4,106,4,3.8,3.9,23.072847,113.30276
金天酒店,南洲,582,0,119,4,0,0,23.072105,113.29919
广州凯旋酒店,南洲,554,3.9,0,4,3.7,4.2,23.07471,113.30285
美夜精品酒店(东晓南地铁店),南洲,849,0,138,4,0,0,23.074423,113.29765
广州新再线酒店,南洲,934,4.6,153,4,4.6,4.6,23.076551,113.29875
7天连锁酒店(广州东晓南地铁站店),南洲,833,4.5,210,3.8,4.4,4.5,23.073704,113.297325
东晶商务酒店,南洲,636,4.1,160,3.8,4.1,4.1,23.073536,113.29954
南洲大酒店,南洲,312,3.8,108,3.7,3.7,3.9,23.070042,113.30743
柏晓宾馆,南洲,715,4,97,3.7,3.8,3.8,23.074993,113.30006
广州星山宾馆,南洲,908,4.5,115,3.7,4.5,4.5,23.076696,113.30933
广州科泰宾馆海珠店,南洲,870,3.3,92,3.6,2.9,3.2,23.075905,113.29887
爱都宾馆,南洲,282,3.5,117,3.4,3.2,3.3,23.07246,113.30455
99旅馆(东晓南地铁站店),南洲,930,3.7,74,3.4,3.7,3.7,23.076494,113.29874
圣贤宾馆,南洲,405,1,86,3.3,1,2,23.070265,113.30831
富祥宾馆,南洲,630,3.6,86,3.1,3.4,3.6,23.074648,113.30096
广州7夕连锁公寓海珠客运站店,南洲,318,0,80,3,0,0,23.07144,113.307014
广州市裕华酒店,小北,287,3.8,320,5,3.8,4.5,23.145046,113.28563
鸿景酒店,小北,285,4.5,158,4.7,4.5,4.5,23.148197,113.28381
广州中心皇冠假日酒店,小北,661,4.6,870,4.5,4.6,4.7,23.144724,113.2893
万顺宾馆,小北,273,0,140,4.5,0,0,23.145885,113.2856
广州越秀宾馆金钥匙楼层,小北,620,4.5,436,4.5,4.4,4.5,23.141884,113.278564
越秀宾馆,小北,614,4.4,446,4.4,4.3,4.5,23.141874,113.27866
白云宾馆(广州),小北,986,4.5,463,4.4,4.3,4.6,23.1441,113.292404
城市便捷酒店(广州麓苑路淘金店),小北,860,4.5,229,4.4,4.3,4.6,23.147099,113.29123
广东亚洲国际大酒店(广州),小北,394,4.3,507,4.2,4.2,4.4,23.144485,113.28653
广储宾馆,小北,389,4.3,154,4.2,4.1,4.2,23.142653,113.284676
7天连锁酒店(广州建设大马路店),小北,746,4.4,199,4.2,4.2,4.4,23.140251,113.2871
广视宾馆,小北,601,4.3,216,4.1,4.1,4.3,23.147648,113.288445
广州家俱乐部世贸宾馆,小北,851,4.1,170,4.1,3.9,4,23.143307,113.290825
7天连锁酒店(广州火车站店),小北,618,4.4,167,4,4.3,4.5,23.147202,113.27709
花城宾馆-蓝天楼,小北,253,3.7,164,4,3.6,3.8,23.144009,113.28136
7天连锁酒店(广州环市中广东电视台店),小北,482,4.5,169,4,4.4,4.4,23.147406,113.2873
7天连锁酒店(环市中二店),小北,407,4.3,159,4,4.2,4.3,23.142847,113.28534
好世界酒店公寓(建设五马路店),小北,954,3.8,520,4,3.7,3.9,23.140963,113.29067
翁源宾馆,小北,688,0,158,4,2.8,2.8,23.141108,113.278496
伊思德公寓,小北,564,3.9,200,3.9,3.9,3.9,23.143715,113.28799
如家快捷酒店(广州芳村花地湾店),花地湾,672,4.3,151,4.4,4.1,4.3,23.095692,113.234764
恒朝假日酒店,花地湾,703,4.3,138,4.4,4.4,4.5,23.094244,113.23386
依家宾馆,花地湾,634,3.7,146,4,3.5,3.7,23.096218,113.23556
渲鹏旅店,花地湾,857,1,97,4,1,1,23.09996,113.24376
花地大厦酒店,花地湾,747,4.1,159,3.9,3.9,4.1,23.09944,113.239235
广州英姿快捷酒店,花地湾,851,3.8,129,3.9,3.8,3.8,23.099924,113.23743
新世纪酒店,花地湾,999,3.9,96,3.6,3.5,3.8,23.10147,113.23785
盛源商务宾馆,花地湾,836,4,131,3.5,3.6,4,23.085518,113.23864
东泰宾馆,花地湾,817,3.5,68,3.1,2,3.5,23.09005,113.23316
常聚宾馆,花地湾,824,2.9,85,3,2.8,3.5,23.100246,113.24044
景盛旅业部,花地湾,658,2.9,73,2.9,2.9,2.9,23.095053,113.23458
景泰宾馆,花地湾,872,0,108,2.4,0,0,23.1,113.2371
广州迎宾宾馆（非自营）,花地湾,761,0,78,2.1,0,0,23.094402,113.23331
佳裕酒店(浣花西路),花地湾,991,2,86,1.7,2,2,23.089603,113.23152
广州花城商务公寓,花地湾,539,0,98,-1,0,0,23.097675,113.24081
广州6月青年驿站,团一大广场,833,0,29,4.8,0,0,23.125406,113.27652
广州人民公社青年旅舍北京路店,团一大广场,729,0,20,4.7,4.8,4.7,23.12552,113.27757
7天连锁酒店(广州越秀南客运站店),团一大广场,317,4.6,0,4.6,4.5,4.6,23.127066,113.28509
广州岭南五号酒店,团一大广场,482,4.6,1231,4.6,4.5,4.7,23.121948,113.28057
如家快捷酒店(较场西路店),团一大广场,709,4.1,189,4.6,4.1,4.3,23.128439,113.2898
广州呈爱精品酒店北京路地铁站店,团一大广场,783,5,199,4.6,4.7,4.9,23.124222,113.27691
广州东逸湾酒店,团一大广场,753,4.4,495,4.5,4.5,4.5,23.119612,113.28993
南北纵横国际公寓(金润铂宫店),团一大广场,954,4.3,455,4.5,4.5,4.5,23.128977,113.27677
7天连锁酒店(广州北京路三店),团一大广场,390,4.5,165,4.4,4.3,4.5,23.125914,113.281204
广州桃花江豪生酒店,团一大广场,743,4.5,498,4.4,4.5,4.7,23.12163,113.27788
迷途主题旅馆,团一大广场,912,4.2,220,4.4,4.1,4.3,23.128832,113.27717
阳光国际酒店公寓（广州北京路金润铂宫店）,团一大广场,924,4.3,408,4.4,4.3,4.4,23.128805,113.27701
广州御江苑国际公寓,团一大广场,928,4.2,340,4.4,4.3,4.4,23.121613,113.275955
广州靓天阁酒店,团一大广场,881,0,189,4.4,0,0,23.127825,113.27687
家园宾馆(越秀店),团一大广场,70,3.7,140,4.3,3.6,3.7,23.12363,113.28471
柏高商务酒店(白云店),团一大广场,446,4.3,148,4.3,4.3,4.5,23.124203,113.28893
广州私享家酒店公寓(北京路金润铂宫店),团一大广场,924,4.3,367,4.3,4.3,4.3,23.128805,113.27701
如家快捷酒店(广州白云路店),团一大广场,522,4.2,135,4.2,4.1,4.3,23.124016,113.28967
海友酒店(广州市二宫纺织码头店),团一大广场,954,4.4,135,4.2,4,4.3,23.117664,113.27859
广州御庭酒店(沿江东店),团一大广场,717,4.3,159,4.2,5,5,23.120262,113.290085
广州市湘粤公寓,萝岗,769,2.2,83,4.2,1.9,1.9,23.180113,113.49593
广州理想公寓（演艺中心店）,萝岗,741,4.1,77,3.5,3.7,4,23.18003,113.495636
广州大塱公寓,萝岗,995,0,74,-1,0,0,23.17621,113.49656
广州得利酒店式公寓,西场,513,5,115,5,5,5,23.145231,113.2401
世通宾馆,西场,974,5,138,4.7,4.2,4.6,23.148884,113.25174
万信慧选酒店（广州荔湾路店）,西场,879,4.4,0,4.4,4.3,4.4,23.138233,113.25133
速8酒店(广州西村地铁站店),西场,958,4.4,221,4.4,4.4,4.5,23.148594,113.2518
锦江之星酒店(彩虹桥店),西场,719,4.4,161,4.3,4.3,4.5,23.139969,113.25071
荔群宾馆,西场,259,4.2,116,4.2,4.2,4.3,23.143734,113.24212
雀洲酒店,西场,867,4.4,164,4.2,4.3,4.4,23.138458,113.25137
明韩商务酒店荔湾店,西场,937,3.8,113,4.1,3.5,3.7,23.137358,113.25127
汇金港公寓,西场,988,4.1,227,4.1,4,4.4,23.151995,113.244
布丁酒店(荔湾路彩虹桥店),西场,579,4.3,107,4,4.2,4.4,23.139927,113.24904
7天连锁酒店(广州荔湾路店),西场,884,4.5,144,4,4.4,4.5,23.138348,113.25148
海友酒店(荔湾彩虹桥店),西场,953,4.2,99,4,3.9,4.1,23.138474,113.2524
微八连锁酒店西村分店,西场,381,4.2,127,3.9,4.1,4.3,23.146132,113.24634
锦苑宾馆,西场,395,2.8,96,3.9,2.5,2.5,23.14665,113.244995
鸣虹宾馆西湾店,西场,526,4.1,142,3.9,4,4.1,23.143543,113.24969
精途酒店（广州西场地铁站店）,西场,553,0,143,3.8,2.2,2.5,23.142546,113.23919
文苑宾馆,西场,165,4.1,116,3.7,3.7,4,23.143324,113.24296
源泰宾馆,西场,420,3.2,98,3.5,3,3.5,23.14245,113.24052
吉旅连锁宾馆荔湾店,西场,599,3.7,92,3.5,3.5,3.6,23.142097,113.23881
尚悦宾馆,西场,771,3.3,102,3.5,3.3,3.5,23.139206,113.2508
尚辉国际酒店(中山八路地铁站店),坦尾,867,4.4,188,4.3,4.4,4.6,23.130545,113.23318
海角红楼度假酒店,坦尾,577,3.9,221,3.7,3.8,4,23.129356,113.23004
广州逸米酒店坦尾地铁站店,坦尾,273,4.7,82,3,4.4,4.6,23.128775,113.22563
花田公寓,会江,101,0,153,4.5,0,0,23.018316,113.29343
7天连锁酒店(广州高铁南站会江地铁站店),会江,106,4.5,158,4.4,4.4,4.5,23.018625,113.29385
广州致信酒店·壹会馆,会江,747,0,0,4.1,0,0,23.01995,113.30019
广州官坑客栈,会江,797,4,68,3.2,3,4,23.0149,113.28665
广州番禺会江村石中二路85号住宿,会江,880,0,49,2.5,0,0,23.014936,113.300255
怡和出租屋,梅花园,768,5,47,5,5,5,23.188185,113.32719
金园宾馆,梅花园,445,4.6,338,4.6,4.6,4.7,23.184444,113.32428
桐园别墅酒店,梅花园,411,4.5,256,4.6,4.5,4.5,23.184832,113.32803
城市便捷酒店(广州天平架地铁站店),梅花园,987,4.3,180,4.4,4.2,4.4,23.172604,113.329025
广州云溪电梯公寓,梅花园,960,0,60,4.4,0,0,23.186735,113.33422
广州1+1连锁公寓女生部,梅花园,904,0,0,4.4,0,0,23.188778,113.33035
梅花园酒店,梅花园,430,4.2,248,4.3,4.2,4.3,23.185097,113.32762
速8酒店(梅花园地铁站店),梅花园,417,4.3,155,4.3,4.2,4.4,23.184996,113.32644
7天连锁酒店(广州梅花园地铁站店),梅花园,871,4.6,129,4.3,4.5,4.6,23.175146,113.33227
文星连锁酒店(梅花园地铁口店),梅花园,719,4.4,109,4.2,4,4.2,23.175337,113.32414
广州七喜商务公寓梅花园店,梅花园,434,0,90,4.2,0,0,23.185175,113.32671
雅园宾馆,梅花园,281,4.2,109,4.1,4.3,4.4,23.179178,113.32539
7夕连锁公寓,梅花园,486,5,107,4.1,3.6,3.9,23.18549,113.32823
天虹宾馆(军休大厦西),梅花园,849,4.3,167,4,4.1,4.3,23.178143,113.334526
今天连锁酒店,梅花园,450,3.7,119,4,3.7,4,23.17774,113.32479
广州云友宾馆,梅花园,375,4.4,179,4,4.4,4.5,23.18464,113.32666
广州骏怡连锁酒店,梅花园,474,4.1,97,4,3.7,3.9,23.184877,113.324455
圣沣大酒店,梅花园,914,3.9,119,3.9,3.9,3.9,23.17324,113.32888
兴隆招待所,梅花园,587,3,70,3.9,2.9,2.7,23.186556,113.3271
家园酒店(梅花园店),梅花园,225,3.9,110,3.7,3.5,3.8,23.183273,113.326614
广州Xbed互联网住宿保利中达店,大剧院,575,5,688,5,5,5,23.122034,113.33682
广州Xbed互联网住宿汇峰国际公寓店,大剧院,713,0,378,4.8,3,5,23.126423,113.3355
广州四季酒店,大剧院,290,4.7,1437,4.7,4.8,4.8,23.123316,113.32939
广州富力丽思卡尔顿酒店,大剧院,277,4.7,1261,4.7,4.7,4.8,23.122055,113.33385
柏悦酒店,大剧院,467,4.7,1631,4.7,4.8,4.9,23.124405,113.32812
礼顿酒店,大剧院,947,4.6,474,4.6,4.5,4.6,23.12682,113.32416
合景W酒店,大剧院,748,4.5,1264,4.6,4.6,4.7,23.127012,113.33519
广州富力君悦大酒店,大剧院,786,4.6,1272,4.5,4.5,4.6,23.128326,113.33006
雅诗阁服务公寓,大剧院,409,4.6,1019,4.5,4.7,4.7,23.12443,113.32906
广州喜运服务公寓(保利中达广场店),大剧院,531,0,402,4.5,4.5,4.3,23.121504,113.33645
广州双城礼顿公寓,大剧院,562,4.4,0,4.5,4.3,4.4,23.124653,113.327095
广州Hart鹿途·坑坑家庭式公寓,大剧院,717,0,233,4.5,4.5,4.5,23.12504,113.33699
维纳斯酒店公寓（广州珠江新城店）,大剧院,892,4.4,328,4.5,4.4,4.4,23.12668,113.32473
广州兴盛国际公寓,大剧院,914,4.3,404,4.4,4.2,4.4,23.127123,113.33761
伊思德国际公寓（广州保利中达）,大剧院,573,4.3,665,4.4,4.3,4.4,23.121387,113.33686
广州蓝精灵酒店公寓,大剧院,910,4.5,0,4.4,4.2,4.4,23.126644,113.32447
广州阳光假日酒店公寓,大剧院,899,4.4,0,4.4,4.3,4.3,23.1266,113.32456
广州锐得-保利中达公寓,大剧院,525,4.4,111,4.3,4.5,4.5,23.121164,113.33639
广州嘻哈酒店公寓(珠江新城保利中达广场店),大剧院,576,4.3,378,4.3,4.4,4.4,23.1216,113.336876
双城国际公寓,大剧院,854,4.2,98,4.3,4.1,4.3,23.125938,113.324554
瑞季精品酒店佛山桂城店,朝安,954,5,120,4.9,5,5,23.042156,113.14166
维也纳酒店(佛山岭南明珠体育馆店),朝安,602,4.6,209,4.6,4.6,4.7,23.029896,113.13598
佛山暖暖居青年旅舍,朝安,904,4.8,45,4.6,4.6,4.6,23.030943,113.131874
汇畅宾馆,朝安,661,4.3,43,4.5,4.5,4.5,23.037384,113.13514
柏丽酒店(佛山禅城店),朝安,433,4.4,161,4.3,4.4,4.5,23.034079,113.13599
金逸宾馆,朝安,850,4.3,113,4.3,4.2,4.3,23.039642,113.13499
私享家连锁公寓酒店(佛山君誉财富公馆店),朝安,866,3,150,4.2,3.3,4.1,23.033154,113.131744
佛山美邦酒店式公寓(桂城地铁站店),朝安,758,4.1,60,4.1,4,4.3,23.037287,113.146484
如家快捷酒店(佛山普君北路地铁站店),朝安,796,4.4,95,4.1,4.3,4.4,23.035059,113.13256
伯顿酒店,朝安,915,4.1,60,4,3.9,4.2,23.026323,113.13618
7天连锁酒店(佛山朝安地铁站佛平路店),朝安,951,3.3,88,3.9,3.6,3.5,23.041853,113.13745
蓝益宾馆,朝安,450,4.5,288,3.8,4.5,4.5,23.037733,113.14016
港丰商务酒店,朝安,809,4.5,158,3.8,2.5,2.5,23.040709,113.13814
佛山呱呱宾馆,朝安,642,2.6,58,3.5,2.1,2.4,23.037653,113.135635
锦圆宾馆,朝安,42,4.5,63,2.6,3.5,4.5,23.034044,113.14031
永赞旅店,朝安,973,0,50,1.6,0,0,23.042076,113.13749
源泉商务酒店,朝安,183,0,0,-1,0,0,23.034634,113.13873
西尔曼酒店公寓（广州中山医院店）,东山口,63,4.7,0,4.7,4.8,4.7,23.13076,113.30264
锦江之星酒店广州东山口地铁站店,东山口,375,4.8,249,4.7,4.8,4.8,23.129488,113.29867
广州有客宿信酒店式公寓(东山口东山铭泰店),东山口,56,4.5,213,4.6,4.2,4.3,23.13072,113.30259
行客酒店公寓,东山口,748,4.2,207,4.6,4.4,4.4,23.136848,113.30409
江岭北壹号 广州酒店第2499名,东山口,440,0,56,4.5,4.3,4.4,23.126434,113.301506
广州时代客栈,东山口,942,0,297,4.5,0,0,23.129896,113.293015
广州艺星宾馆艺星雅居,东山口,719,4.1,203,4.4,3.8,4.1,23.136774,113.302986
广州别院客栈,东山口,592,4.4,329,4.4,4.4,4.5,23.125015,113.302055
柏高商务酒店区庄地铁站店,东山口,987,4.5,348,4.4,4.3,4.5,23.138933,113.30465
广州优众酒店公寓（东山口店）,东山口,82,4.3,241,4.3,4.4,4.4,23.130978,113.302635
城迹酒店(广州区庄地铁站店),东山口,972,4.5,199,4.3,4.5,4.6,23.137474,113.30772
东山宾馆,东山口,744,4.2,267,4.2,4,4.3,23.13624,113.30566
7天连锁酒店(广州东山口地铁站店),东山口,221,4.5,199,4.2,4.3,4.5,23.128736,113.30093
如家快捷酒店(广州越秀东山口地铁站店),东山口,331,4.4,143,4.2,4.1,4.4,23.127909,113.30034
东盛宾馆,东山口,420,3.7,118,4.2,3.1,3.8,23.12669,113.30113
三寓宾馆,东山口,716,4.2,284,4.1,3.9,4.2,23.13423,113.30781
邮电大厦,东山口,266,4.2,457,4.1,3.9,4.3,23.131283,113.299835
汉庭全季酒店(农林下路店),东山口,225,4.2,318,4.1,4,4.2,23.132336,113.3026
7天连锁酒店(广州农林下路王府井店),东山口,985,4.3,189,4.1,4.2,4.4,23.13893,113.30458
气象局招待所,东山口,868,4,165,4.1,4,4.4,23.134838,113.309166
广州牵牛花青年旅舍天河客运站店,天河客运站,184,0,25,4.8,0,0,23.178026,113.35099
美思阁国际公寓,天河客运站,84,4.7,258,4.7,4.7,4.8,23.177128,113.34998
广州雅朵汇live主题酒店公寓（天河客运站店）,天河客运站,79,0,165,4.6,0,0,23.17712,113.350075
广州新源公寓,天河客运站,301,4.7,48,4.6,4.5,4.5,23.178726,113.35201
广州欣欣公寓,天河客运站,767,0,78,4.6,0,0,23.176483,113.35789
中青旅山水连锁酒店(天河客运站店),天河客运站,830,0,216,4.5,4.4,4.6,23.173923,113.34274
广州CD创意园公寓,天河客运站,335,4.8,144,4.4,4.8,4.7,23.176722,113.34711
素舍酒店,天河客运站,292,4.4,0,4.4,4.3,4.6,23.178246,113.348274
维也纳智好酒店(广州燕岭路店),天河客运站,830,4.4,0,4.4,4.5,4.5,23.173946,113.342735
99时尚酒店连锁广州天河客运站店,天河客运站,585,4.1,169,4.4,4.1,4.2,23.175793,113.344696
如家快捷酒店(广州天河客运站店),天河客运站,649,4.4,143,4.3,4.2,4.4,23.180769,113.346085
海友酒店(广州天河客运站地铁站店),天河客运站,217,0,112,4.3,0,0,23.17791,113.35182
广州柏高商务酒店天河客运站店,天河客运站,550,4.3,188,4.3,4.3,4.5,23.17485,113.35547
华舍连锁酒店(元岗店),天河客运站,260,0,109,4.3,4.1,4,23.178228,113.3487
7天连锁酒店(广州天河客运站二店),天河客运站,800,4.5,130,4.1,4.4,4.5,23.18353,113.348885
阳光公寓,天河客运站,626,0,34,4.1,3,4,23.176716,113.3565
广州华舍连锁酒店燕岭路店,天河客运站,516,4.5,88,4,4.2,4.7,23.175694,113.3454
华舍连锁酒店（天河客运站店）,天河客运站,371,4.2,98,3.9,4.1,4.2,23.176897,113.34678
广州归客驿站,天河客运站,760,4.2,99,3.9,4.2,4.4,23.171726,113.35574
南北公寓 广州酒店第3187名,天河客运站,418,3.1,98,3.9,3.2,3.8,23.175882,113.34634
汉庭酒店(西塱店),西朗,399,4.4,178,4.4,4.4,4.5,23.073948,113.24081
广州丽枫酒店(欧曼顿酒店),西朗,636,4.3,108,4.3,4.1,4.3,23.075096,113.24294
海之悦酒店,西朗,509,4,135,4,3.9,4,23.066977,113.23619
微八连锁酒店西朗分店,西朗,265,4.4,129,3.8,4.2,4.4,23.06871,113.23782
广东荔湾大厦,陈家祠,471,4.5,218,5,4,4.4,23.131254,113.25737
广州同古舍公寓,陈家祠,955,5,0,5,5,5,23.12464,113.247314
广州宿阅青年旅舍,陈家祠,881,4.7,55,4.7,4.8,4.8,23.134119,113.260956
幸福宾馆,陈家祠,935,0,71,4.7,0,0,23.127249,113.2606
速8酒店(广州中山七路陈家祠地铁站店),陈家祠,226,4.5,288,4.6,4.5,4.6,23.13142,113.25498
景都宾馆(荔湾路),陈家祠,340,4.2,138,4.6,4.2,4.4,23.133854,113.25051
丽枫酒店(广州陈家祠地铁站店),陈家祠,553,4.8,120,4.6,4.7,5,23.128275,113.2568
全季酒店(广州西门口店),陈家祠,594,4.4,297,4.4,4.4,4.5,23.131237,113.258575
江月宾馆(广州中山八路总店),陈家祠,773,4.4,211,4.4,4.2,4.4,23.130852,113.245255
万信慧选酒店（广州荔湾路店）,陈家祠,751,4.4,0,4.4,4.3,4.4,23.138233,113.25133
丽枫酒店(广州西门口地铁站店),陈家祠,824,4.6,140,4.4,4.5,4.6,23.132671,113.26076
广州萝卜青年旅社西关风情店,陈家祠,915,0,47,4.4,5,5,23.125526,113.24675
锦江之星酒店(彩虹桥店),陈家祠,953,4.4,161,4.3,4.3,4.5,23.139969,113.25071
如家快捷酒店(广州小西关店),陈家祠,533,4.3,135,4.2,4.1,4.3,23.135284,113.24941
7天连锁酒店(上下九长寿路地铁站店),陈家祠,714,4.5,169,4.2,4.3,4.5,23.12694,113.24798
雀洲酒店,陈家祠,774,4.4,164,4.2,4.3,4.4,23.138458,113.25137
逸米酒店(广州西华路店),陈家祠,744,4.4,116,4.2,4.1,4.3,23.136992,113.25712
史遇旅馆（西门口地铁人民中路分店）,陈家祠,863,4,0,4.2,4,5,23.127941,113.260216
广新宾馆,陈家祠,457,1,125,4.2,1,1,23.13518,113.25055
明韩商务酒店荔湾店,陈家祠,657,3.8,113,4.1,3.5,3.7,23.137358,113.25127
广州同古舍公寓,长寿路,143,5,0,5,5,5,23.12464,113.247314
广州西关荔园公寓,长寿路,887,5,320,5,5,5,23.130247,113.24306
广州十甫假日酒店,长寿路,650,4.6,678,4.6,4.5,4.6,23.118814,113.25131
丽枫酒店(广州陈家祠地铁站店),长寿路,959,4.8,120,4.6,4.7,5,23.128275,113.2568
广州萝卜青年旅社西关风情店,长寿路,245,0,47,4.4,5,5,23.125526,113.24675
江月宾馆(广州中山八路总店),长寿路,824,4.4,211,4.4,4.2,4.4,23.130852,113.245255
迎商酒店（广州中山八地铁站店）,长寿路,999,4.3,279,4.4,4.2,4.4,23.130955,113.24227
如家快捷酒店(广州上下九长寿路地铁站店),长寿路,256,4.3,167,4.2,4,4.3,23.123323,113.24622
7天连锁酒店(上下九长寿路地铁站店),长寿路,322,4.5,169,4.2,4.3,4.5,23.12694,113.24798
宝湾酒店(长寿西路),长寿路,114,4,197,4.1,3.9,4.2,23.123505,113.249504
7天连锁酒店(广州上下九店),长寿路,385,4.5,230,4.1,4.3,4.4,23.121511,113.2511
北华时尚酒店,长寿路,296,3.9,160,4.1,3.4,3.6,23.12143,113.248474
鄱湖宾馆,长寿路,267,4.7,138,4.1,4.4,4.7,23.122011,113.2499
海友酒店(广州上下九步行街店),长寿路,538,3.9,107,4.1,3.6,3.9,23.12891,113.24801
广州馨乐庭荔枝湾服务公寓,长寿路,643,4.3,320,4.1,4.2,4.4,23.126137,113.2427
广州奇圣公寓（原海悦酒店）,长寿路,361,4.1,138,4,3.9,4,23.12157,113.25081
7天连锁酒店(广州陈家祠地铁站二店),长寿路,723,4.5,205,4,4.2,4.4,23.129671,113.25223
圣玛登酒店,长寿路,796,4.2,224,4,4,4.2,23.131107,113.24699
健升酒店,长寿路,970,4.2,258,4,4.1,4.4,23.130934,113.24269
广州帝欧酒店,长寿路,382,0,134,4,3.8,3.9,23.121344,113.25083
Blue House民宿（广州达标国际店）,江泰路,706,5,137,4.9,4.6,5,23.094534,113.285225
广州随意宅青年旅舍,江泰路,828,5,44,4.8,5,5,23.094921,113.2831
7天连锁酒店(广州江泰路地铁站店),江泰路,162,4.2,138,4.3,3.9,4.1,23.086987,113.2866
锦江之星酒店(广州海珠江泰路地铁站店),江泰路,317,4.3,246,4.3,4.1,4.3,23.086164,113.28506
逸米酒店,江泰路,814,4.1,179,4.3,3.9,4,23.09419,113.29188
im青年驿站,江泰路,743,5,49,4.3,5,4.5,23.093962,113.28298
达镖国际酒店,江泰路,949,4.2,405,4.2,4.2,4.4,23.096148,113.28312
万马宾馆,江泰路,801,4,89,4.2,3.8,4,23.082714,113.28218
广州招牌酒店公寓,江泰路,954,4.1,268,4.2,4,4.1,23.096075,113.282845
广州现代家酒店式公寓,江泰路,942,4.5,238,4.2,4.4,4,23.096098,113.28315
柏高精品酒店江泰路店,江泰路,191,4.2,88,4.1,4,4.1,23.089806,113.28594
汉庭酒店(广州燕子岗店),江泰路,611,4.3,174,4.1,4.1,4.3,23.084288,113.28303
7天连锁酒店(广昌岗美术学院二店),江泰路,261,4.3,166,4.1,4.1,4.2,23.090273,113.28546
时代酒店公寓,江泰路,869,4,213,4.1,4,4.1,23.095587,113.28367
广州嘻哈酒店公寓(昌岗店),江泰路,933,4,285,4.1,3.9,4,23.095955,113.28303
广州城市驿站酒店公寓(昌岗店),江泰路,936,3.4,238,4.1,2.1,2.5,23.09606,113.28322
海友酒店(广州江泰路店),江泰路,159,4.1,127,4,3.8,4,23.08698,113.28724
广州江泰酒店,江泰路,295,4.1,167,4,4,4.1,23.089039,113.28981
广州吉桔酒店江泰路地铁站万科里店,江泰路,256,4.6,157,4,4.1,4.3,23.090454,113.28587
广州星驿国际酒店公寓,江泰路,953,3.9,222,4,3.8,3.9,23.096134,113.283
广州朋友家活动公馆,珠江新城,754,0,49,5,0,0,23.121641,113.32142
广州Xbed互联网住宿保利中达店,珠江新城,998,5,688,5,5,5,23.122034,113.33682
广州Xbed互联网住宿汇峰国际公寓店,珠江新城,810,0,378,4.8,3,5,23.126423,113.3355
柏悦酒店,珠江新城,99,4.7,1631,4.7,4.8,4.9,23.124405,113.32812
广州四季酒店,珠江新城,273,4.7,1437,4.7,4.8,4.8,23.123316,113.32939
广州富力丽思卡尔顿酒店,珠江新城,720,4.7,1261,4.7,4.7,4.8,23.122055,113.33385
广州美豪丽致酒店（五羊新城店）,珠江新城,956,4.8,490,4.7,4.7,4.8,23.126413,113.31843
礼顿酒店,珠江新城,403,4.6,474,4.6,4.5,4.6,23.12682,113.32416
合景W酒店,珠江新城,792,4.5,1264,4.6,4.6,4.7,23.127012,113.33519
广州富力君悦大酒店,珠江新城,422,4.6,1272,4.5,4.5,4.6,23.128326,113.33006
广州双城礼顿公寓,珠江新城,86,4.4,0,4.5,4.3,4.4,23.124653,113.327095
雅诗阁服务公寓,珠江新城,165,4.6,1019,4.5,4.7,4.7,23.12443,113.32906
广州喜运服务公寓(保利中达广场店),珠江新城,985,0,402,4.5,4.5,4.3,23.121504,113.33645
维纳斯酒店公寓（广州珠江新城店）,珠江新城,343,4.4,328,4.5,4.4,4.4,23.12668,113.32473
广州Hart鹿途·坑坑家庭式公寓,珠江新城,951,0,233,4.5,4.5,4.5,23.12504,113.33699
威珀斯酒店,珠江新城,656,4.2,558,4.4,4.3,4.5,23.130411,113.324646
广州蓝精灵酒店公寓,珠江新城,365,4.5,0,4.4,4.2,4.4,23.126644,113.32447
广州阳光假日酒店公寓,珠江新城,355,4.4,0,4.4,4.3,4.3,23.1266,113.32456
双城国际公寓,珠江新城,331,4.2,98,4.3,4.1,4.3,23.125938,113.324554
华美达酒店(中明月一路店),珠江新城,985,4.4,569,4.3,4.1,4.4,23.119987,113.31991
广州帝豪斯公寓琶洲会展中心店,磨碟沙,522,0,814,5,0,0,23.104317,113.34292
广州宜家人公寓,磨碟沙,465,5,157,4.7,4.4,5,23.104305,113.343475
和颐酒店(琶洲会展中心店),磨碟沙,451,4.5,263,4.5,4.4,4.6,23.103235,113.34378
凯港精品酒店（赤岗店）,磨碟沙,874,4.3,386,4.5,4.4,4.5,23.099571,113.3412
速8酒店(广州琶洲会展店),磨碟沙,417,3.6,266,4.2,3.6,3.7,23.103497,113.34405
广州沃嘉酒店,磨碟沙,224,4.1,218,4.1,4,4.2,23.103107,113.34627
琶洲酒店,磨碟沙,331,4.1,132,4.1,3.9,4.2,23.104877,113.34486
广州xbed互联网酒店邦泰国际店,磨碟沙,265,3.9,301,4.1,3.9,4,23.104734,113.34548
绿景公寓酒店,磨碟沙,958,4,185,4.1,3.8,3.9,23.101995,113.339005
汇银宾馆,磨碟沙,738,4,146,4,3.9,4.1,23.102703,113.35504
广州佰运行程酒店琶洲店,磨碟沙,959,2.4,140,3.9,3,3.6,23.101997,113.339
朗逸商务酒店,磨碟沙,697,4,88,3.8,3.9,4.1,23.10135,113.34202
穗海酒店,磨碟沙,674,4.5,244,3.8,1,1,23.10135,113.34227
广州印象琶洲酒店公寓,磨碟沙,55,3.9,120,3.6,4,4,23.104727,113.347755
轩逸酒店(粤信商业中心北),磨碟沙,994,4.1,139,3.4,4,4.1,23.100748,113.33911
海晖宾馆,磨碟沙,634,3.4,100,3,3,3.5,23.101679,113.34252
新青年社区,磨碟沙,247,0,0,-1,0,0,23.10451,113.34563
螺音公寓（广州会展西岸店）,磨碟沙,478,0,1080,-1,0,0,23.105055,113.34343
广州海螺e家公寓琶洲会展店,磨碟沙,574,0,898,-1,5,5,23.105188,113.3425
广州优享家家庭式公寓,磨碟沙,477,0,0,-1,0,0,23.104412,113.34336
途美酒店,礌岗,521,4.4,148,4.6,4.5,4.6,23.045933,113.15829
佛山围城连锁酒店公寓,礌岗,656,4.6,118,4.6,4.6,4.7,23.044537,113.16557
维也纳国际酒店（佛山千灯湖店）,礌岗,568,4.5,148,4.5,4.5,4.6,23.054262,113.16324
维也纳国际酒店(佛山南海城市广场店),礌岗,734,4.6,100,4.5,4.6,4.6,23.043043,113.164055
佛山维福顿公寓,礌岗,600,4.7,143,4.5,4.8,4.9,23.045177,113.16558
新湖大酒店,礌岗,613,4.3,186,4.4,4.2,4.4,23.0448,113.15839
佳高商务酒店,礌岗,989,4.4,269,4.4,4.3,4.5,23.041134,113.158035
佛山美邦酒店公寓(万科店),礌岗,670,0,128,4.3,4.2,4.2,23.044546,113.16583
希尔顿花园酒店,礌岗,286,4.5,342,4.2,4.5,4.7,23.051735,113.16279
国顺酒店,礌岗,768,3.9,98,4.1,3.7,3.8,23.053741,113.16759
昌融宾馆,礌岗,919,4.5,76,4,4.2,3.9,23.044615,113.154434
锦澜雅居,礌岗,378,4.5,103,3.9,3.8,3.8,23.047743,113.15855
佛山喜驿酒店公寓,礌岗,662,4.3,98,3.8,4.5,4.7,23.04789,113.168106
佛山金穗酒店公寓,礌岗,604,0,103,3.5,0,0,23.045166,113.16563
愉丰宾馆,礌岗,753,3,90,3,2,3,23.045176,113.156
佛山義华宾馆,礌岗,764,4.5,78,3,4.5,4.5,23.048786,113.16927
广州大学城Weekend Inn公寓,大学城北,981,5,63,5,5,5,23.068972,113.40021
广州大学城兰馨阁公寓,大学城北,948,0,69,4.8,0,0,23.069778,113.39922
广州罗曼的假日公寓,大学城北,955,4.9,57,4.7,4.7,4.8,23.067366,113.400734
橙子小屋公寓（广州康衢大街店）,大学城北,897,4,78,4.7,3.9,4,23.067448,113.4001
广州青萝公寓,大学城北,838,4.7,0,4.7,4.7,4.8,23.067717,113.39935
广州漫爱公寓,大学城北,853,0,49,4.7,4.4,5,23.0678,113.399475
7夕宾馆,大学城北,744,4.7,128,4.7,4.6,4.7,23.067139,113.39862
广州大学城丽思漫酒店式公寓,大学城北,873,4.2,50,4.6,4.3,4.2,23.067286,113.399925
这里,大学城北,989,4.6,0,4.6,4.6,4.7,23.066862,113.40125
广州大学城99时尚公寓,大学城北,711,0,98,4.6,0,0,23.066969,113.39835
广州大学城一尚公寓连锁新天地店,大学城北,775,4,25,4.6,3.9,4.1,23.067139,113.39896
广州大学城1314爱情公寓,大学城北,761,4.6,89,4.5,4.4,4.4,23.067661,113.398544
广州大学城QQ公寓贝岗店,大学城北,722,0,71,4.5,3.6,3.3,23.067034,113.39844
广州大学城旺角公寓,大学城北,894,0,59,4.5,0,0,23.067898,113.399864
广州兴港公寓,大学城北,877,4.6,33,4.5,4.4,4.6,23.067774,113.39974
广州鑫雅公寓,大学城北,994,4.1,58,4.5,4.1,4.2,23.067574,113.40106
广州红8号公寓,大学城北,874,4.7,58,4.5,4.4,4.7,23.06885,113.39906
广州大学城UMe特色公寓,大学城北,827,0,53,4.4,4,3.4,23.067839,113.39917
广州新期天公寓,大学城北,845,4.7,55,4.4,4.5,4.6,23.067806,113.399376
广州大学城雅舍特色公寓,大学城北,872,4.4,68,4.4,3.9,4.3,23.067295,113.39991
家易宾馆,大沙地,722,4.3,134,4.2,4.3,4.2,23.115038,113.45038
迎商黄埔酒店,大沙地,143,4.2,178,4.1,4,4.2,23.109873,113.45344
IU酒店(广州黄埔港湾店),大沙地,435,0,179,4.1,4.7,4.7,23.1053,113.45435
悦海酒店(港前路),大沙地,948,3.9,196,4.1,3.7,4,23.100857,113.45577
广州九天宾馆,大沙地,330,3.9,107,3.9,3.7,3.9,23.110216,113.455444
如苑宾馆,大沙地,338,3.3,108,3.8,3.1,3.3,23.110748,113.45516
吉祥宾馆,大沙地,247,3.6,118,3.8,3.5,4,23.107475,113.45446
金沙湾宾馆,大沙地,135,3.8,218,3.7,3.5,3.9,23.109291,113.4538
爱尚宾馆,大沙地,426,0,111,3.6,4,4,23.10567,113.45024
悦凯宾馆(大沙地东),大沙地,348,4,88,3.4,4,4,23.110813,113.45523
新皇酒店,大沙地,45,4,108,3,3.1,4,23.109001,113.45298
吉轩商务酒店,大沙地,150,4.1,110,3,3.8,4,23.108688,113.454025
进来发宾馆,大沙地,855,4,138,3,4.3,4.5,23.110447,113.46075
金顺宾馆,大沙地,543,1,87,2.8,2,3,23.111765,113.45684
广州黄埔港湾住宿,大沙地,394,5,49,2.6,3,4,23.112343,113.45327
金煌宾馆,大沙地,527,3.5,89,2.1,3.5,3.5,23.111582,113.45679
广州黄埔丰乐公寓住宿,大沙地,903,0,57,2.1,0,0,23.114258,113.45917
广州七夕公寓大沙地店,大沙地,564,0,98,-1,0,0,23.111864,113.45701
7天连锁酒店(广州黄村地铁站店),黄村,248,4.5,184,3.9,4.4,4.5,23.13969,113.41162
顺荣酒店,黄村,784,3.9,99,3.7,3.7,3.6,23.132624,113.41787
广州双红宾馆,黄村,929,4,88,3.6,3,3,23.130638,113.41662
广州天河怡心住宿,黄村,947,3.1,46,3.5,2.6,3.1,23.131113,113.41822
广州市同富商务宾馆,黄村,960,4.3,98,3.5,4.1,4.3,23.129997,113.412415
金晖宾馆,黄村,909,2.3,127,3.4,2.6,2.8,23.130587,113.41575
奥林匹克大酒店,黄村,526,3,223,3.2,2.7,2.9,23.1432,113.41469
鼎福休闲酒店,黄村,831,3.3,248,3.2,3.1,3.7,23.131115,113.414536
广州黄村鑫源住宿,黄村,930,1,97,1,1,1,23.13105,113.41774
广州肥窝青年旅舍客村地铁站店,广州塔,930,5,29,4.9,5,5,23.10423,113.326385
广州珠江帝景青年旅舍,广州塔,257,4.5,54,4.7,4.4,4.4,23.109678,113.32962
广州盘丝洞青年旅社,广州塔,914,4.6,58,4.7,4.3,4.6,23.104397,113.32636
广州左岸驿站青年旅舍,广州塔,440,4.5,58,4.6,4.3,4.4,23.110296,113.32589
广州迷路麋鹿青年旅舍（广州塔店）,广州塔,705,0,82,4.6,4.8,4.8,23.105818,113.328224
广州asa青年旅舍（原小蛮腰阿傻公寓）,广州塔,387,4.3,107,4.4,4.3,4.3,23.110489,113.333206
广州迷路麋鹿青年公寓江塔景观2店,广州塔,955,0,274,4.4,5,5,23.104801,113.33491
维也纳酒店(广州塔店),广州塔,627,4.5,259,4.3,4.4,4.6,23.110878,113.32378
广州八零后公寓,广州塔,500,4,58,4.3,3.9,4,23.10957,113.333916
纺园公寓酒店,广州塔,920,4.3,298,4.2,4.2,4.2,23.103872,113.33156
广州珠江新岸酒店,广州塔,913,4.1,243,4.1,4.2,4.3,23.10947,113.32129
7天连锁酒店(广州客村地铁站二店),广州塔,770,4.4,221,4.1,4.2,4.4,23.105314,113.32776
广州丽芙精品酒店广州塔店,广州塔,722,4.6,223,4.1,4.5,4.8,23.105719,113.32795
理想居酒店,广州塔,904,4.2,264,4.1,4.3,4,23.10948,113.32137
广州美忆家酒店公寓（珠江新岸店）,广州塔,864,4,248,4,4.1,4.1,23.110281,113.32154
广州她他会酒店公寓珠江新岸店,广州塔,868,4,211,3.9,4,4.1,23.110142,113.32154
广东第二师范学院-培训楼宾馆,广州塔,923,3,219,3.8,2.8,2.9,23.106,113.32354
广州珠江帝景酒店,广州塔,506,3.9,529,3.6,3.6,3.9,23.109386,113.333855
俪士连锁酒店,广州塔,995,3.8,230,3.4,3.6,4,23.10431,113.33478
广州赏月阁公寓珠江新岸店,广州塔,913,0,241,2.9,0,0,23.109411,113.32131
广州嘉华公寓江夏店,萧岗,768,0,54,4.8,0,0,23.2114,113.28504
广州逸林假日酒店,萧岗,812,4.3,439,4.5,4.3,4.1,23.203781,113.2947
平安住宿(广州江夏店),萧岗,802,0,59,4.4,0,0,23.211636,113.2847
城迹酒店白云山广外店,萧岗,860,4.3,129,4.2,4.2,4.3,23.207628,113.29459
卡尔文大酒店,萧岗,984,4,300,4,4,4.1,23.199507,113.27899
广州盈宾公寓,萧岗,896,4.1,51,4,3.9,4.2,23.210726,113.29262
兴盛旅馆,萧岗,955,3.8,88,3.8,3.8,3.8,23.21308,113.28483
广州美福酒店外语外贸学院店,萧岗,930,3.7,0,3.7,3.6,3.8,23.20788,113.29523
美田酒店,萧岗,842,2.8,75,3.6,2.9,2,23.21087,113.29157
凯利酒店,萧岗,882,3.6,91,3.6,3.5,3.6,23.212353,113.28461
广州自如寓酒店公寓,萧岗,902,4.5,88,3.6,4.2,4.2,23.20827,113.29473
星际宾馆,萧岗,851,3.5,88,3.2,3.1,3.6,23.207502,113.294556
木格子网吧,萧岗,843,3,88,2.8,3,3,23.211987,113.28458
千耀宾馆,萧岗,988,1,98,2.8,1,1,23.213402,113.28496
广富公寓,萧岗,997,4.2,57,2.7,3.5,3.3,23.211365,113.29332
梦吧公寓,萧岗,851,3,68,2.5,3,3,23.211988,113.28433
广州福来公寓陈田店,萧岗,841,0,49,2.5,0,0,23.21096,113.2914
广州情缘住宿江夏店,萧岗,886,0,55,2.4,0,0,23.212263,113.284134
广州市天天来公寓,萧岗,975,0,44,1.9,0,0,23.212938,113.28358
佳美公寓,萧岗,885,1.5,52,1.2,1,1.5,23.210865,113.29226
广州布衣青年旅社,广州东站,475,5,0,5,5,5,23.151949,113.33283
广州小如家公寓,广州东站,916,0,67,5,0,0,23.162926,113.33536
广州东站阳光青年旅舍,广州东站,554,4.8,59,4.8,4.7,4.7,23.15112,113.33269
8090青年旅舍(东站店),广州东站,312,0,34,4.8,0,0,23.153496,113.332565
广州乐其俗青年旅舍,广州东站,436,4.7,59,4.7,4.6,4.6,23.152292,113.33273
广州天使恋人主题酒店,广州东站,831,4.7,272,4.7,4.7,4.9,23.14876,113.33355
广州趣玩青年旅舍,广州东站,563,4.8,48,4.7,4.7,4.8,23.15104,113.33268
广州海航威斯汀酒店,广州东站,761,4.6,801,4.6,4.5,4.7,23.149193,113.332756
广州Elevs爱屋公寓,广州东站,272,0,133,4.6,5,5,23.153887,113.3325
广州征途青年旅舍,广州东站,316,4.5,69,4.6,4.4,4.7,23.15465,113.33366
广州良木青年旅舍,广州东站,452,4.7,54,4.6,4.6,4.7,23.152163,113.332794
广州隐舍青年旅舍,广州东站,727,5,30,4.6,5,5,23.150923,113.33556
广州东站友佳青年旅社,广州东站,432,2.4,10,4.6,2,1.8,23.15233,113.33272
广州东站SpaceMZC精品民宿,广州东站,329,0,168,4.6,5,5,23.15377,113.33317
广州建国酒店,广州东站,316,4.4,420,4.5,4.3,4.5,23.153605,113.332794
全季酒店(广州天河火车东站店),广州东站,226,4.5,297,4.5,4.5,4.6,23.154362,113.3324
广州乐家青年旅舍,广州东站,239,0,45,4.5,4.3,4.5,23.15432,113.33253
星伦国际酒店公寓（广州火车东站店）,广州东站,215,4.5,0,4.5,4.4,4.6,23.154057,113.32993
广州伊思德保利中汇国际公寓,广州东站,212,4.3,357,4.5,4.4,4.4,23.154104,113.3299
广州东站-逸拾光青年旅舍,广州东站,379,0,56,4.5,4.2,3.9,23.15302,113.33297
小熊家庭连锁公寓(体育西路二店),天河南,314,5,0,5,5,5,23.136831,113.32763
广州乐途青年旅舍体育西路店,天河南,537,4.7,9,4.8,4.5,4.7,23.138912,113.32583
丽枫酒店(广州天河石牌桥地铁站店),天河南,924,4.5,120,4.7,4.4,4.6,23.13676,113.33973
辉盛阁酒店公寓,天河南,764,4.5,892,4.6,4.6,4.7,23.13815,113.33808
广州富力君悦大酒店,天河南,977,4.6,1272,4.5,4.5,4.6,23.128326,113.33006
方圆奥克伍德国际酒店,天河南,512,4.5,875,4.5,4.5,4.6,23.135117,113.33522
丽枫酒店(广州天河正佳广场店),天河南,764,4.6,299,4.5,4.4,4.5,23.137068,113.338165
广州国德国际大酒店,天河南,990,4.4,683,4.5,4.3,4.5,23.141842,113.33889
天河大厦,天河南,836,4.2,450,4.4,4,4.3,23.143518,113.32645
威珀斯酒店,天河南,966,4.2,558,4.4,4.3,4.5,23.130411,113.324646
华侨友谊酒店,天河南,953,4.4,330,4.4,4.2,4.4,23.137016,113.34002
广州星座酒店式公寓体育西店,天河南,429,4.7,131,4.4,4.3,5,23.136295,113.32658
盛雅服务公寓,天河南,655,4.6,522,4.4,4.4,4.6,23.141891,113.326965
广州馨缘时尚家庭公寓,天河南,692,4.5,173,4.4,4.2,4.5,23.141083,113.325485
广州遇家酒店公寓,天河南,289,0,655,4.4,0,0,23.138342,113.33318
广州正佳金殿维福顿公寓,天河南,195,4.1,499,4.3,4.2,4.3,23.137571,113.33253
柏高商务酒店(广州体育西路地铁站店),天河南,437,4.4,118,4.3,4.3,4.5,23.1363,113.32651
广州皇家国际饭店,天河南,768,4.2,505,4.3,4.1,4.3,23.140194,113.323975
广州天美酒店,天河南,670,3.2,304,4.3,2.8,4,23.139654,113.33663
广州文星连锁酒店(冼村二店),天河南,812,4.1,199,4.3,3.9,4,23.133202,113.337425
广州穗发快捷酒店,嘉禾望岗,179,4.3,178,4.4,4.1,4.3,23.24269,113.29639
富安酒店,嘉禾望岗,798,4.3,168,4.3,4.3,4.4,23.24452,113.28733
广州云商大酒店,嘉禾望岗,653,5,140,4.3,5,5,23.238705,113.29192
广州甲壳虫酒店式公寓,嘉禾望岗,160,4.1,120,4.2,3.9,4.3,23.244661,113.29385
广州金龟子宾馆,嘉禾望岗,281,4.2,83,4.2,4.1,4.3,23.24347,113.29238
广州7夕连锁公寓嘉禾望岗地铁站店,嘉禾望岗,648,3.9,87,4.1,4.2,4.3,23.243507,113.288765
富煌酒店,嘉禾望岗,790,3.9,120,4.1,3.6,4.1,23.250486,113.292496
广州米蘭商务公寓嘉禾望岗地铁站店,嘉禾望岗,269,0,107,4.1,3,2.5,23.243162,113.292564
广州五星公寓,嘉禾望岗,163,3.9,55,4,3.7,3.7,23.24343,113.29355
惠港酒店,嘉禾望岗,196,0,178,4,3.8,3.8,23.243786,113.29703
仕金酒店,嘉禾望岗,901,3.2,125,4,2.5,1.8,23.241047,113.286804
康乐养生酒店,嘉禾望岗,747,3.8,99,4,3.3,4,23.239616,113.28937
广州木的地酒店,嘉禾望岗,466,3.8,157,3.9,3.6,4.1,23.24099,113.29171
豪泉大酒店,嘉禾望岗,821,4.1,219,3.9,3.9,4.1,23.242678,113.287155
广州白云旭升宾馆,嘉禾望岗,813,1,55,3.9,1,1,23.244635,113.28719
帝荣大酒店,嘉禾望岗,621,3.5,105,3.8,3.3,3.5,23.245802,113.28943
广州卓群酒店,嘉禾望岗,656,4,174,3.8,4,4,23.245583,113.28899
嘉俊酒店,嘉禾望岗,856,5,125,3.7,5,5,23.241385,113.28714
广州好再来公寓望岗店,嘉禾望岗,793,3.3,44,3.1,3,3.3,23.246296,113.287834
汇丰公寓,嘉禾望岗,715,2.5,76,2.5,2.5,3.1,23.247353,113.28927
龙溪公寓,龙溪,557,0,0,-1,0,0,23.076778,113.20038
小熊家庭连锁公寓(体育西路二店),黄埔大道,570,5,0,5,5,5,23.136831,113.32763
广州乐途青年旅舍体育西路店,黄埔大道,866,4.7,9,4.8,4.5,4.7,23.138912,113.32583
广州Xbed互联网住宿汇峰国际公寓店,黄埔大道,839,0,378,4.8,3,5,23.126423,113.3355
柏悦酒店,黄埔大道,963,4.7,1631,4.7,4.8,4.9,23.124405,113.32812
礼顿酒店,黄埔大道,950,4.6,474,4.6,4.5,4.6,23.12682,113.32416
合景W酒店,黄埔大道,766,4.5,1264,4.6,4.6,4.7,23.127012,113.33519
辉盛阁酒店公寓,黄埔大道,952,4.5,892,4.6,4.6,4.7,23.13815,113.33808
广州富力君悦大酒店,黄埔大道,492,4.6,1272,4.5,4.5,4.6,23.128326,113.33006
方圆奥克伍德国际酒店,黄埔大道,516,4.5,875,4.5,4.5,4.6,23.135117,113.33522
丽枫酒店(广州天河正佳广场店),黄埔大道,887,4.6,299,4.5,4.4,4.5,23.137068,113.338165
雅诗阁服务公寓,黄埔大道,937,4.6,1019,4.5,4.7,4.7,23.12443,113.32906
维纳斯酒店公寓（广州珠江新城店）,黄埔大道,919,4.4,328,4.5,4.4,4.4,23.12668,113.32473
广州双城礼顿公寓,黄埔大道,974,4.4,0,4.5,4.3,4.4,23.124653,113.327095
威珀斯酒店,黄埔大道,688,4.2,558,4.4,4.3,4.5,23.130411,113.324646
广州兴盛国际公寓,黄埔大道,922,4.3,404,4.4,4.2,4.4,23.127123,113.33761
广州星座酒店式公寓体育西店,黄埔大道,598,4.7,131,4.4,4.3,5,23.136295,113.32658
广州蓝精灵酒店公寓,黄埔大道,940,4.5,0,4.4,4.2,4.4,23.126644,113.32447
广州阳光假日酒店公寓,黄埔大道,937,4.4,0,4.4,4.3,4.3,23.1266,113.32456
广州遇家酒店公寓,黄埔大道,670,0,655,4.4,0,0,23.138342,113.33318
广州正佳金殿维福顿公寓,黄埔大道,568,4.1,499,4.3,4.2,4.3,23.137571,113.33253
竹园宾馆,五山,520,3.9,376,4.7,3.7,3.9,23.161085,113.36255
广州佳驿连锁酒店五山分店,五山,41,2.9,228,4,2.7,3,23.158361,113.35805
如家快捷酒店(理工大学店),五山,590,4,256,4,3.7,3.8,23.154896,113.35403
华南理工大学-西湖苑宾馆,五山,939,4.1,325,4,4,4.2,23.160114,113.34947
华南理工大学-学者楼,五山,981,3.6,219,3.8,3.4,3.9,23.155628,113.349304
五山旅店,五山,160,2.9,140,3.6,2.6,2.9,23.157679,113.35986
丰悦宾馆,五山,242,2,0,3.3,5,5,23.157696,113.360725
悦凯宾馆(五山路),五山,207,3.8,105,2.4,3,3,23.157652,113.36035
艺尚宫艺术主题酒店（江南西地铁站店）,江南西,691,4.7,200,4.8,4.8,4.9,23.099726,113.27504
广州M·米时尚雅筑公寓晓港地铁站店,江南西,944,4.4,368,4.8,5,5,23.098804,113.28798
丽枫酒店(广州宝岗大道广百新一城店),江南西,988,4.6,247,4.5,4.6,4.6,23.104578,113.27074
聚富宾馆,江南西,884,4.5,123,4.4,4.3,4.4,23.111439,113.28168
如家快捷酒店(江南西地铁站店),江南西,547,4.4,156,4.3,4.2,4.4,23.108,113.278
旺顺宾馆,江南西,720,4,98,4.3,3,4,23.109995,113.28131
广州柒天酒店江南西地铁站富力海珠城店,江南西,223,0,169,4.2,5,5,23.103542,113.282524
达镖国际酒店,江南西,873,4.2,405,4.2,4.2,4.4,23.096148,113.28312
广州自由行青年旅舍,江南西,831,4.2,56,4.2,4.1,4.4,23.09615,113.28128
广州招牌酒店公寓,江南西,872,4.1,268,4.2,4,4.1,23.096075,113.282845
广州现代家酒店式公寓,江南西,880,4.5,238,4.2,4.4,4,23.096098,113.28315
7天连锁酒店(江南西地铁站店),江南西,353,4.3,159,4.1,4.2,4.3,23.106583,113.27923
广州海军华海大厦(海军南海舰队第一招待所),江南西,393,4,128,4.1,3.8,4.1,23.100191,113.28144
速8酒店(广州江南西地铁站店),江南西,262,4.3,183,4.1,4.2,4.4,23.105623,113.27907
时代酒店公寓,江南西,951,4,213,4.1,4,4.1,23.095587,113.28367
广州嘻哈酒店公寓(昌岗店),江南西,891,4,285,4.1,3.9,4,23.095955,113.28303
广州城市驿站酒店公寓(昌岗店),江南西,886,3.4,238,4.1,2.1,2.5,23.09606,113.28322
珀丽酒店,江南西,755,4.2,327,4,3.9,4.2,23.097036,113.28234
广州星驿国际酒店公寓,江南西,870,3.9,222,4,3.8,3.9,23.096134,113.283
广州天域国际酒店公寓,江南西,886,4,191,4,3.9,4,23.096046,113.28318
时光琉璃精品酒店式公寓(万达广场店),千灯湖,922,5,143,5,4.9,5,23.069313,113.1645
佛山HOYA酒店公寓,千灯湖,900,0,158,4.7,0,0,23.069107,113.16451
佛山乐活特色主题酒店万达唯美店,千灯湖,926,4.2,174,4.6,4.4,4.6,23.069365,113.16445
佛山市莱士顿公寓酒店,千灯湖,921,4.2,156,4.6,4.3,4.2,23.06934,113.164375
佛山围城酒店式公寓(万达广场店),千灯湖,928,4.6,0,4.6,4.4,4.6,23.069384,113.16443
佛山保利洲际酒店,千灯湖,786,4.6,684,4.5,4.6,4.7,23.063194,113.15456
维也纳国际酒店（佛山千灯湖店）,千灯湖,798,4.5,148,4.5,4.5,4.6,23.054262,113.16324
佛山啪啪爱公寓主题酒店（万达店）,千灯湖,921,4,140,4.3,4.1,4.1,23.069273,113.16461
美朵酒店式公寓（佛山万达广场店）,千灯湖,894,4.2,0,4.3,4.2,4.1,23.06923,113.16371
佛山柯瑞斯公寓万达广场店,千灯湖,867,4.2,161,4.3,4.1,4.3,23.06913,113.16258
2513服务公寓（佛山南海万达店）,千灯湖,879,4,90,4.2,4,4.1,23.06907,113.16384
佛山幸福里酒店公寓（万达广场店）,千灯湖,887,0,143,4.2,5,5,23.069157,113.16378
佛山八号公寓万达广场店,千灯湖,903,4.3,143,4.2,4.2,4.4,23.069414,113.162994
佛山洛淇主题公寓酒店南海万达广场店,千灯湖,879,2.4,158,4.2,2.4,3,23.06908,113.1638
佛山万达铂韵国际公寓酒店,千灯湖,870,3.8,152,3.9,3.9,4.1,23.069118,113.16299
菲猎世纪酒店（佛山万达店）,千灯湖,892,3.9,143,3.9,3.9,4.1,23.069199,113.163795
佛山Free hotel公寓酒店（万达总店）,千灯湖,887,4.1,77,3.6,4,4.1,23.069109,113.16402
佛山市喜运莱公寓式酒店(万达广场店),千灯湖,920,3,146,3.2,3,3,23.069294,113.16449
广州得利酒店式公寓,西村,909,5,115,5,5,5,23.145231,113.2401
广州千千公寓,西村,927,5,78,4.9,5,5,23.149506,113.25738
世通宾馆,西村,348,5,138,4.7,4.2,4.6,23.148884,113.25174
广州普兰内特概念酒店,西村,663,4.6,388,4.6,4.6,4.6,23.14705,113.25486
广州铁路招待所环市西路店,西村,907,0,65,4.6,0,0,23.151718,113.25636
广州潘姐家庭旅馆,西村,889,0,68,4.6,0,0,23.151585,113.25625
速8酒店(广州西村地铁站店),西村,347,4.4,221,4.4,4.4,4.5,23.148594,113.2518
广州瓦迪客酒店公寓火车站财富公馆店,西村,935,0,204,4.4,4.7,4.6,23.156399,113.24759
广州家庭住宿,西村,744,0,64,4.4,0,0,23.152155,113.25419
广州金哥家庭旅馆,西村,951,0,66,4.4,0,0,23.152168,113.2566
锦江之星酒店(彩虹桥店),西村,924,4.4,161,4.3,4.3,4.5,23.139969,113.25071
上苑世贸大酒店,西村,778,4.4,353,4.3,4.4,4.5,23.148008,113.256065
私享家酒店式公寓,西村,987,4.1,212,4.3,4.3,4.4,23.156857,113.24751
韶关供销公司招待所,西村,958,4.2,97,4.3,4.2,4.4,23.148232,113.25783
飞宇酒店,西村,529,4,134,4.2,3.9,4,23.149954,113.25319
运鸿大酒店,西村,593,4.4,255,4.2,4.2,4.4,23.150715,113.25347
荔群宾馆,西村,804,4.2,116,4.2,4.2,4.3,23.143734,113.24212
星和泰祥商务酒店,西村,954,4.5,208,4.2,4.3,4.5,23.148087,113.25778
广州上苑商务宾馆站前路分店,西村,674,4.3,298,4.2,3.9,4.3,23.147661,113.255035
维帝客服务式公寓,西村,911,4.5,208,4.2,4.6,4.5,23.156195,113.24776
大塘宾馆,大塘,492,4.1,232,3.6,3.8,4,23.086334,113.33208
汇金主题酒店,大塘,956,2.9,118,3.6,2.9,3.2,23.09224,113.327415
爱客酒店,大塘,712,5,300,3.2,3,3,23.086992,113.33419
兴塘宾馆,大塘,780,1.8,112,3.1,2.3,1.9,23.08936,113.33271
广州怡苑宾馆,大塘,856,0,98,2.1,0,0,23.091341,113.32738
广州海珠区时代公寓,大塘,381,0,98,-1,0,0,23.086275,113.325806
98时尚公寓,大塘,285,0,98,-1,0,0,23.084244,113.32551
广州6月青年驿站,农讲所,994,0,29,4.8,0,0,23.125406,113.27652
广州人民公社青年旅舍北京路店,农讲所,929,0,20,4.7,4.8,4.7,23.12552,113.27757
广州易成国际酒店公寓,农讲所,988,4.6,329,4.7,4.7,4.7,23.131926,113.27217
7天连锁酒店(广州越秀南客运站店),农讲所,735,4.6,0,4.6,4.5,4.6,23.127066,113.28509
逸米米公寓北京路捷登都会店,农讲所,943,4.3,367,4.6,4.5,4.6,23.132067,113.2726
如家快捷酒店(较场西路店),农讲所,960,4.1,189,4.6,4.1,4.3,23.128439,113.2898
广州希尔顿逸林酒店,农讲所,672,4.5,780,4.5,4.5,4.7,23.1376,113.277596
南北纵横国际公寓(金润铂宫店),农讲所,674,4.3,455,4.5,4.5,4.5,23.128977,113.27677
广州柏高商务酒店东风路省政府店,农讲所,982,4.4,464,4.5,4.4,4.6,23.138393,113.28934
广州大厦大酒店,农讲所,644,4.4,305,4.4,4.2,4.4,23.134909,113.275856
7天连锁酒店(广州北京路三店),农讲所,782,4.5,165,4.4,4.3,4.5,23.125914,113.281204
迷途主题旅馆,农讲所,656,4.2,220,4.4,4.1,4.3,23.128832,113.27717
雅兰酒店(越华路),农讲所,940,4.3,308,4.4,4.2,4.4,23.135748,113.2731
阳光国际酒店公寓（广州北京路金润铂宫店）,农讲所,669,4.3,408,4.4,4.3,4.4,23.128805,113.27701
广州靓天阁酒店,农讲所,757,0,189,4.4,0,0,23.127825,113.27687
广东大厦,农讲所,996,4.4,354,4.3,4.1,4.4,23.13827,113.27395
广州考拉青年旅舍（北京路店）,农讲所,965,4.6,100,4.3,4.3,4.5,23.127747,113.2742
广州私享家酒店公寓(北京路金润铂宫店),农讲所,669,4.3,367,4.3,4.3,4.3,23.128805,113.27701
嘉明宾馆,农讲所,890,2.4,105,4.3,2.4,2.4,23.12819,113.27476
7天连锁酒店(广州建设大马路店),农讲所,978,4.4,199,4.2,4.2,4.4,23.140251,113.2871
广州等花开青年旅社,车陂,855,0,30,5,0,0,23.128635,113.39384
广州百合青年旅舍,车陂,714,5,23,5,5,5,23.130072,113.394936
广州平价住宿,车陂,986,0,49,4.9,0,0,23.133331,113.39265
维也纳酒店(车陂地铁站店),车陂,465,0,257,4.7,0,0,23.128035,113.398415
广州车陂高地住宿,车陂,298,0,60,4.5,0,0,23.128307,113.40311
玉合宾馆,车陂,960,4.1,138,4.5,4.1,4.3,23.123547,113.407074
怡莱广州车陂酒店,车陂,171,5,151,4.3,4.6,5,23.132261,113.40155
7天优品酒店(苏宁广场店),车陂,126,4.5,208,4.3,4.4,4.5,23.131424,113.40288
芒果公寓(广州棠东店),车陂,928,3,57,4.3,3,3,23.13282,113.39308
广州天河醉爱情侣主题酒店,车陂,221,4.3,181,4.2,4.1,4.4,23.131424,113.40391
广州景辉连锁酒店,车陂,343,4.3,128,4.2,4.1,4.2,23.133587,113.4032
广州祥云商务酒店,车陂,167,4.1,159,4.1,4,4.1,23.132223,113.40155
君豪酒店,车陂,174,4,158,4,3.8,4,23.131279,113.400276
广州华呈精品酒店,车陂,266,4.2,138,4,4,4.2,23.131907,113.3996
7天连锁酒店(东圃天河广场店),车陂,638,4.5,158,4,4.4,4.5,23.128265,113.40751
瑞星大酒店,车陂,746,4.1,300,3.9,3.9,4.1,23.125917,113.396805
广州凯尔卡顿大酒店,车陂,752,4.5,392,3.9,4.6,4.7,23.132153,113.39468
广州艾丽斯酒店,车陂,903,4.1,158,3.9,4,4.1,23.127724,113.41008
汉庭酒店,车陂,953,0,135,3.9,0,0,23.1235,113.40686
广州帝豪公寓东圃店,车陂,868,3,66,3.9,2.9,2.9,23.12373,113.40561
广州大学城Family青年旅舍,大学城南,439,5,0,4.7,4.6,4.4,23.0485,113.41106
广州大学城雅乐轩酒店,大学城南,728,4.5,418,4.5,4.5,4.6,23.04581,113.41269
威利斯酒店,黄边,459,4.2,272,4.2,4.2,4.4,23.224005,113.29359
绿之洲酒店,黄边,682,3.9,115,4.1,3.4,3.6,23.223467,113.29804
伯爵大酒店,黄边,857,4,266,3.8,3.9,4.2,23.224876,113.301315
广州扬光时尚公寓酒店,黄边,734,2.8,127,3.8,2.5,3.2,23.222406,113.29729
睡吧时尚宾馆,黄边,995,4.5,132,3.7,1,1,23.220066,113.2895
广州凯瑞连锁酒店白云嘉禾店,黄边,710,4,98,3.6,3.9,4,23.22607,113.300285
惠金酒店,黄边,466,3.4,129,3.6,3.4,3.4,23.229595,113.28943
大众公寓(广州三号店),黄边,972,0,0,-1,0,0,23.230696,113.284615
心雨屋家庭旅馆,广州火车站,459,5,58,5,5,5,23.156998,113.25954
广州中国大酒店(首层食街),广州火车站,953,3.7,0,5,4,4,23.14614,113.2666
广州常来家庭旅馆,广州火车站,480,0,75,5,0,0,23.157152,113.259415
广州站西87号住宿,广州火车站,491,5,39,5,5,5,23.157152,113.25925
广州千千公寓,广州火车站,694,5,78,4.9,5,5,23.149506,113.25738
广州金满园家庭旅馆,广州火车站,390,0,61,4.8,0,0,23.15646,113.25989
广州张龙家庭旅馆,广州火车站,480,0,300,4.8,0,0,23.157152,113.259415
广州萍乡家庭公寓,广州火车站,479,0,66,4.8,0,0,23.156918,113.25913
广州发财家庭旅馆,广州火车站,434,0,60,4.8,0,0,23.15665,113.25946
广州真诚家庭旅馆,广州火车站,440,0,43,4.7,0,0,23.156694,113.25943
广州霞姐家庭旅馆,广州火车站,518,0,64,4.7,0,0,23.15265,113.257416
广州老刘住宿,广州火车站,399,0,72,4.7,0,0,23.156605,113.25993
广州永昌家庭旅馆,广州火车站,498,0,49,4.7,0,0,23.157125,113.25911
广州荔湾友缘公寓,广州火车站,292,1,68,4.6,1,1,23.151611,113.260704
广州常德家庭旅馆,广州火车站,566,0,59,4.6,0,0,23.15279,113.2569
广州闫姐家庭旅馆,广州火车站,372,0,68,4.6,0,0,23.15593,113.25955
广州园园家庭旅馆,广州火车站,480,0,54,4.6,0,0,23.157272,113.25958
广州火车站匆匆客栈,广州火车站,395,0,0,4.6,0,0,23.156162,113.259476
广州云贵川招待所,广州火车站,391,0,71,4.6,0,0,23.156696,113.2602
广州阳光穆斯林之家住宿,广州火车站,481,0,46,4.6,0,0,23.15716,113.259415
锦江之星酒店广州东山口地铁站店,东湖,953,4.8,249,4.7,4.8,4.8,23.129488,113.29867
如家快捷酒店(较场西路店),东湖,951,4.1,189,4.6,4.1,4.3,23.128439,113.2898
广州东逸湾酒店,东湖,583,4.4,495,4.5,4.5,4.5,23.119612,113.28993
江岭北壹号 广州酒店第2499名,东湖,841,0,56,4.5,4.3,4.4,23.126434,113.301506
广州时代客栈,东湖,960,0,297,4.5,0,0,23.129896,113.293015
广州别院客栈,东湖,797,4.4,329,4.4,4.4,4.5,23.125015,113.302055
柏高商务酒店(白云店),东湖,712,4.3,148,4.3,4.3,4.5,23.124203,113.28893
如家快捷酒店(广州白云路店),东湖,634,4.2,135,4.2,4.1,4.3,23.124016,113.28967
如家快捷酒店(广州越秀东山口地铁站店),东湖,881,4.4,143,4.2,4.1,4.4,23.127909,113.30034
7天连锁酒店(广州东山口地铁站店),东湖,991,4.5,199,4.2,4.3,4.5,23.128736,113.30093
广州御庭酒店(沿江东店),东湖,546,4.3,159,4.2,5,5,23.120262,113.290085
东盛宾馆,东湖,832,3.7,118,4.2,3.1,3.8,23.12669,113.30113
7天连锁酒店(广州海印桥店),东湖,82,4.5,142,4.1,4.3,4.5,23.121298,113.29448
广州呈爱主题精品酒店白云路店（广湾18商务港）,东湖,712,4.3,199,4.1,4.2,4.2,23.124203,113.28893
逸米酒店(广州大沙头码头店),东湖,544,4.3,136,4.1,4,4.2,23.120161,113.29014
珠岛宾馆,东湖,376,3.9,388,4,3.7,4.1,23.118706,113.297325
广州水善坊酒店,东湖,593,4.1,391,4,3.9,4.1,23.126434,113.293015
广州合群大酒店,东湖,603,3.9,360,4,3.8,4,23.124949,113.29981
大沙岛宾馆,东湖,406,4.5,155,4,4.1,4.4,23.11994,113.291664
7天连锁酒店(广州江湾店),东湖,810,4.4,142,4,4.2,4.4,23.124023,113.28782
秀天楼酒店,三元里,765,0,110,5,0,0,23.167372,113.25654
城市便捷酒店(广州三元里地铁站店),三元里,329,4.5,210,4.7,3,4.5,23.163704,113.261024
广州情缘公寓瑶台店,三元里,401,0,118,4.7,0,0,23.163778,113.26017
丽枫酒店(广州三元里店),三元里,938,4.7,110,4.6,4.7,4.7,23.173073,113.259995
安华宾馆,三元里,900,4.7,183,4.6,4.4,4.7,23.172434,113.25942
广州园园家庭旅馆,三元里,992,0,54,4.6,0,0,23.157272,113.25958
广州喆啡酒店,三元里,560,4.7,323,4.5,4.8,4.8,23.16933,113.260345
文昌酒店(海南城总店),三元里,707,4.1,376,4.5,3.9,4.2,23.171667,113.26458
广州网络公寓,三元里,899,4.8,108,4.5,4,4.7,23.157772,113.26678
山西大厦,三元里,251,4.3,194,4.4,4.2,4.4,23.16673,113.26175
汉庭酒店(广州三元里店),三元里,276,4.4,183,4.4,4.3,4.5,23.163374,113.26207
广州鸿源酒店,三元里,417,4.3,317,4.4,4.2,4.4,23.161911,113.265335
城市便捷酒店(广州三元里地铁站二店),三元里,386,4.3,0,4.4,4.4,4.5,23.167849,113.26108
富华酒店,三元里,863,4.7,143,4.4,4.4,4.7,23.165691,113.27215
广州中兴家庭旅馆,三元里,998,0,65,4.4,0,0,23.157192,113.25962
格林联盟酒店(广州三元里大道三元里地铁站店),三元里,187,4.4,221,4.3,4.1,4.3,23.163673,113.26351
维也纳国际酒店,三元里,826,4.3,241,4.3,4.2,4.4,23.171576,113.25928
速8酒店(广州三元里店),三元里,801,4.3,177,4.3,4.1,4.3,23.171818,113.26024
凯莱宾馆(瑶华街),三元里,519,3.9,98,4.2,3.6,3.9,23.166811,113.25887
广州比家美家庭旅馆,三元里,996,5,57,4.2,2.8,3.2,23.15724,113.259575
宝发青年公寓,一德路,694,0,0,4.9,0,0,23.116726,113.257416
广州温馨家园公寓,一德路,558,0,54,4.7,0,0,23.116817,113.25883
幸福宾馆,一德路,961,0,71,4.7,0,0,23.127249,113.2606
登巴国际连锁客栈广州店,一德路,650,4.5,30,4.6,4.5,4.4,23.124655,113.261734
四海一家宾馆,一德路,392,4.7,215,4.6,4.2,4.6,23.118324,113.259964
广州玉楼金殿酒店公寓,一德路,246,4.5,218,4.4,4.6,4.7,23.117224,113.26501
广州合好国际酒店公寓（沿江金融大厦店）,一德路,258,4.5,208,4.4,4.3,4.4,23.117249,113.26525
乐享家酒店式服务公寓(广州长堤民间金融大厦店),一德路,258,4.3,299,4.4,4.4,4.5,23.117249,113.26525
广州佰合国际公寓酒店(沿江金融大厦店),一德路,265,4.4,264,4.4,4.4,4.4,23.117128,113.26518
维也纳酒店(惠福西路店),一德路,834,4.4,209,4.3,4.3,4.5,23.126358,113.26167
荔源宾馆,一德路,463,3,97,4.3,3,3,23.12314,113.26265
索特来文艺酒店,一德路,473,4.3,160,4.3,4.1,4.3,23.123302,113.26303
广州相遇青年旅舍,一德路,687,3.5,43,4.3,3.2,3.9,23.11676,113.257484
广州煌子酒店,一德路,468,0,178,4.2,0,0,23.120207,113.25929
广州天星酒店,一德路,466,3.8,151,4.2,3.6,3.9,23.123272,113.263306
广州星辰公寓,一德路,762,3.7,118,4.2,3.4,3.4,23.124474,113.25909
威力斯酒店,一德路,307,4.1,258,4.1,3.9,4.1,23.116327,113.26393
上苑连锁酒店,一德路,262,4.3,179,4.1,4.3,4.5,23.121237,113.26265
广州民间金融大厦酒店公寓(原富丽华大酒店),一德路,256,3.9,0,4.1,4.1,4.2,23.117254,113.26522
逸米酒店广州驿米公寓,一德路,414,4.2,179,4.1,4.1,4.2,23.122566,113.26226
壹号公寓,黄陂,436,5,83,5,5,5,23.193953,113.44386
广州花生时尚宾馆,黄陂,506,4.3,128,4.4,4.1,4.3,23.193958,113.44455
广州容发宾馆,黄陂,891,4.5,134,4.2,4.2,4.2,23.199476,113.43295
广州萝岗区长安公寓,黄陂,530,0,58,-1,0,0,23.194075,113.44479
小熊家庭连锁公寓(体育西路二店),体育中心,864,5,0,5,5,5,23.136831,113.32763
广州乐途青年旅舍体育西路店,体育中心,953,4.7,9,4.8,4.5,4.7,23.138912,113.32583
遇家精品服务公寓（广州天河体育中心正佳广场店）,体育中心,586,4.9,0,4.8,4.7,4.7,23.144173,113.339294
丽枫酒店(广州天河石牌桥地铁站店),体育中心,660,4.5,120,4.7,4.4,4.6,23.13676,113.33973
广州天使恋人主题酒店,体育中心,902,4.7,272,4.7,4.7,4.9,23.14876,113.33355
广州海航威斯汀酒店,体育中心,965,4.6,801,4.6,4.5,4.7,23.149193,113.332756
辉盛阁酒店公寓,体育中心,432,4.5,892,4.6,4.6,4.7,23.13815,113.33808
柏高商务酒店(龙口西店),体育中心,826,4.6,344,4.6,4.5,4.7,23.143444,113.34247
广州悠然文化青年旅舍,体育中心,982,0,48,4.6,0,0,23.140585,113.34454
广州国德国际大酒店,体育中心,422,4.4,683,4.5,4.3,4.5,23.141842,113.33889
地中海国际酒店,体育中心,900,4.4,429,4.5,4.4,4.5,23.138756,113.343475
丽枫酒店(广州天河正佳广场店),体育中心,525,4.6,299,4.5,4.4,4.5,23.137068,113.338165
方圆奥克伍德国际酒店,体育中心,626,4.5,875,4.5,4.5,4.6,23.135117,113.33522
广州爱家连锁酒店(天河店),体育中心,968,4.6,54,4.5,4.2,4.4,23.138815,113.34417
华侨友谊酒店,体育中心,664,4.4,330,4.4,4.2,4.4,23.137016,113.34002
天河大厦,体育中心,921,4.2,450,4.4,4,4.3,23.143518,113.32645
嘉逸国际酒店,体育中心,913,4.5,486,4.4,4.4,4.5,23.146505,113.34131
中国市长大厦,体育中心,973,4.4,435,4.4,4.2,4.5,23.14765,113.329094
盛雅服务公寓,体育中心,825,4.6,522,4.4,4.4,4.6,23.141891,113.326965
广州星座酒店式公寓体育西店,体育中心,987,4.7,131,4.4,4.3,5,23.136295,113.32658
Blue House民宿（广州达标国际店）,晓港,623,5,137,4.9,4.6,5,23.094534,113.285225
广州M·米时尚雅筑公寓晓港地铁站店,晓港,71,4.4,368,4.8,5,5,23.098804,113.28798
广州随意宅青年旅舍,晓港,728,5,44,4.8,5,5,23.094921,113.2831
逸米酒店,晓港,678,4.1,179,4.3,3.9,4,23.09419,113.29188
im青年驿站,晓港,812,5,49,4.3,5,4.5,23.093962,113.28298
达镖国际酒店,晓港,642,4.2,405,4.2,4.2,4.4,23.096148,113.28312
广州柒天酒店江南西地铁站富力海珠城店,晓港,755,0,169,4.2,5,5,23.103542,113.282524
广州招牌酒店公寓,晓港,670,4.1,268,4.2,4,4.1,23.096075,113.282845
广州自由行青年旅舍,晓港,805,4.2,56,4.2,4.1,4.4,23.09615,113.28128
广州现代家酒店式公寓,晓港,642,4.5,238,4.2,4.4,4,23.096098,113.28315
广州海军华海大厦(海军南海舰队第一招待所),晓港,712,4,128,4.1,3.8,4.1,23.100191,113.28144
方洁银都酒店,晓港,802,3.9,188,4.1,3.9,4.1,23.096445,113.295525
时代酒店公寓,晓港,635,4,213,4.1,4,4.1,23.095587,113.28367
广州嘻哈酒店公寓(昌岗店),晓港,662,4,285,4.1,3.9,4,23.095955,113.28303
广州城市驿站酒店公寓(昌岗店),晓港,639,3.4,238,4.1,2.1,2.5,23.09606,113.28322
珀丽酒店,晓港,665,4.2,327,4,3.9,4.2,23.097036,113.28234
广州星驿国际酒店公寓,晓港,653,3.9,222,4,3.8,3.9,23.096134,113.283
广州天域国际酒店公寓,晓港,643,4,191,4,3.9,4,23.096046,113.28318
广州嘉驿国际酒店公寓,晓港,663,3.8,183,4,3.7,3.9,23.096,113.282974
7天连锁酒店(广州昌岗地铁站店),晓港,544,4.4,233,3.9,4.2,4.3,23.098581,113.28309
广州柏啦图Holiday主题公寓,石壁,244,0,244,5,0,0,23.001192,113.28257
广州南景华公寓,石壁,882,0,88,4.9,0,0,23.001682,113.2763
广州她他会酒店式公寓南站店,石壁,194,4.5,178,4.8,4.4,4.4,23.001379,113.28323
广州苹果屋主题公寓,石壁,308,4.9,0,4.8,4.9,4.9,23.001795,113.282196
广州南站红影酒店公寓奥园越时代店,石壁,272,4.9,166,4.8,4.9,4.9,23.001507,113.282425
我家连锁酒店公寓广州南站奥园店,石壁,553,0,123,4.8,5,5,22.99548,113.28406
广州e家人宾馆,石壁,788,5,0,4.8,4.8,5,23.001602,113.277214
广州花园别墅宾馆,石壁,953,5,68,4.8,4.3,5,23.003866,113.27628
广州衡阳人家,石壁,865,5,95,4.8,4.4,5,23.001678,113.27647
广州外婆家快捷酒店,石壁,848,4.8,73,4.7,4.5,4.7,23.002329,113.27679
高赛思酒店公寓（南站店）,石壁,606,0,188,4.7,0,0,22.994987,113.28417
丽枫酒店(广州南站店),石壁,235,4.6,349,4.6,4.7,4.7,23.00136,113.282745
广州南站8天酒店式公寓（原长隆8天儿童主题式公寓广州南站店）,石壁,272,4.5,118,4.6,4.5,4.6,23.00137,113.28236
广州高赛思酒店公寓,石壁,256,4.4,168,4.6,4.5,4.5,23.001448,113.28257
广州南站唯家客栈,石壁,821,4.8,86,4.6,4.6,4.7,22.999119,113.2769
广州南铁酒店(南站店),石壁,767,4.7,88,4.6,3.7,4.1,22.997524,113.278
美途国际公寓(汉溪大道店),石壁,751,0,179,4.6,0,0,22.994005,113.28247
广州南站四季宾馆,石壁,856,0,96,4.6,5,5,23.004656,113.277824
维也纳酒店(广州番禺南站店),石壁,584,4.3,284,4.5,4.7,4.8,22.995203,113.28406
言馨酒店公寓（广州南站石壁地铁站店）,石壁,266,4.2,56,4.4,5,5,23.001253,113.28237
广州温馨公寓人和地铁站店,人和,403,5,45,5,5,5,23.3387,113.3049
广州伐木累青年旅舍,人和,77,0,35,4.9,0,0,23.342127,113.30289
汇港假日公寓,人和,991,0,89,4.9,0,0,23.350416,113.30136
广州舒心住宿,人和,38,0,44,4.8,0,0,23.341852,113.30264
丽枫酒店(广州白云国际机场店),人和,750,4.7,275,4.7,4.8,4.8,23.348265,113.30167
空客酒店,人和,736,4,123,4.7,4,4,23.34816,113.3019
白云机场飞行记青年旅舍,人和,139,4.6,198,4.7,4.4,4.6,23.342733,113.30294
尚客优快捷酒店(新机场店),人和,321,4.4,146,4.5,4.3,4.5,23.344397,113.30189
维也纳酒店(广州机场2店),人和,751,4.4,203,4.5,4.4,4.5,23.348293,113.30191
广州牵牛花青年旅社,人和,61,4.7,49,4.5,4.5,4.6,23.342106,113.30253
广州顺心公寓,人和,503,0,52,4.5,0,0,23.337362,113.3006
广州人和凯旋公寓,人和,885,5,86,4.5,4,4,23.34927,113.30029
洪恩酒店(广州白云机场店),人和,302,4.5,198,4.4,4.3,4.5,23.343254,113.30015
维也纳酒店(广州机场店),人和,84,4.2,278,4.4,4.1,4.2,23.341372,113.30165
广州白云机场智选假日酒店,人和,732,4.6,262,4.4,4.5,4.6,23.347866,113.30039
广州昊悦茶业客栈,人和,273,3.6,60,4.4,3.6,3.9,23.342432,113.29996
新时代住宿,人和,139,4.5,25,4.4,2.4,2.4,23.34077,113.30353
广州金鸿公寓,人和,344,0,40,4.4,0,0,23.339544,113.30502
广州七星公寓,人和,35,3.4,60,4.3,3.2,3.6,23.341879,113.30247
7天连锁酒店(白云国际机场店),人和,91,4.2,169,4.3,4,4.2,23.341656,113.30335
蓝湾住宿,季华园,386,5,53,5,5,5,23.015816,113.11314
佛山祖庙安然时光青年旅舍,季华园,437,4.8,0,4.6,4.1,4.8,23.016726,113.114426
丽枫酒店(佛山魁奇路地铁站店),季华园,955,4.7,218,4.5,4.7,4.7,23.004656,113.11224
唯美·堤岸酒店,季华园,812,4.4,98,4.4,4.4,4.6,23.01251,113.12302
佛山世佳酒店公寓,季华园,149,4.3,113,4.4,4.2,4.3,23.01401,113.11581
私享家酒店公寓(星星华园店),季华园,148,4.3,79,4.3,4.2,4.3,23.014013,113.11579
尚客优快捷酒店(佛山季华园地铁站店),季华园,654,4,116,4.3,3.9,4.1,23.00724,113.11706
宝行商务酒店,季华园,584,5,168,4.3,4.7,4.7,23.01793,113.11368
滨利大酒店,季华园,832,4.2,98,4.3,4.1,4.4,23.016197,113.12236
佛山布莱曼主题酒店,季华园,99,4.3,228,4.2,4.2,4.3,23.012083,113.1156
佛山甜果世界酒店,季华园,225,4.2,118,4.2,4.2,4.2,23.010862,113.11559
国汇假日酒店,季华园,530,4.2,99,4.2,4.2,4.3,23.01216,113.109955
佛山金港银城酒店,季华园,248,3.8,148,4.1,3.8,4,23.01112,113.11353
都市客栈(惠景路店),季华园,940,3.5,128,4.1,3.1,3.6,23.004515,113.11672
7天连锁酒店(佛山季华园地铁站店),季华园,578,4.5,109,4,4.5,4.5,23.007751,113.11394
金腾季华大酒店(季华店),季华园,855,3.9,64,3.9,3.9,4.4,23.014389,113.123276
佛华酒店,季华园,795,3.6,99,3.6,3.3,3.3,23.016157,113.12197
佛山七亿连锁酒店(华远分店),季华园,998,3.9,75,3.5,3.7,3.8,23.008797,113.123795
睦昌商务酒店,季华园,895,3.7,138,3.5,3,3.4,23.015759,113.123245
时代公寓,季华园,214,0,35,3.4,0,0,23.010927,113.114815
途美酒店,南桂路,665,4.4,148,4.6,4.5,4.6,23.045933,113.15829
佛山晟逸精品酒店,南桂路,811,0,138,4.6,0,0,23.034042,113.156425
佛山围城连锁酒店公寓,南桂路,701,4.6,118,4.6,4.6,4.7,23.044537,113.16557
维也纳国际酒店(佛山南海城市广场店),南桂路,475,4.6,100,4.5,4.6,4.6,23.043043,113.164055
佛山维福顿公寓,南桂路,751,4.7,143,4.5,4.8,4.9,23.045177,113.16558
佛山豪门公寓,南桂路,944,4.5,43,4.5,4.5,4.5,23.033476,113.16599
佳高商务酒店,南桂路,268,4.4,269,4.4,4.3,4.5,23.041134,113.158035
新湖大酒店,南桂路,544,4.3,186,4.4,4.2,4.4,23.0448,113.15839
元生态休闲酒店(佛山店),南桂路,738,4.5,290,4.3,4.2,4.4,23.035498,113.16548
佛山美邦酒店公寓(万科店),南桂路,721,0,128,4.3,4.2,4.2,23.044546,113.16583
海云轩酒店,南桂路,202,4.2,196,4.1,4,4.1,23.040442,113.15852
7天连锁酒店(佛山千灯湖南桂路地铁站店),南桂路,668,4.5,129,4.1,4.4,4.6,23.034342,113.15965
美高时尚酒店,南桂路,900,3.3,80,4,3.4,4.1,23.032526,113.158035
昌融宾馆,南桂路,784,4.5,76,4,4.2,3.9,23.044615,113.154434
悦凯商务酒店,南桂路,515,2,153,3.9,2,2,23.035715,113.16125
红林宾馆,南桂路,741,3.9,83,3.9,3.8,3.7,23.0343,113.15735
红叶坊时尚酒店,南桂路,709,3.6,118,3.9,3.7,3.8,23.03411,113.16217
锦澜雅居,南桂路,851,4.5,103,3.9,3.8,3.8,23.047743,113.15855
九月连锁酒店（佛山南海店）,南桂路,375,4,139,3.8,3.8,4.1,23.038956,113.16386
佛山市南海悦来宾馆,南桂路,970,2.8,63,3.8,2.8,2.8,23.038841,113.15114
星驿国际公寓（广州番禺万达广场店),南村万博,228,4.4,138,5,4.3,4.5,23.01218,113.355606
广州长隆港湾服务式公寓,南村万博,324,4.8,137,4.9,4.7,4.7,23.01251,113.35668
广州长隆奇幻旅馆主题式酒店公寓,南村万博,428,4.9,318,4.9,4.9,4.9,23.014072,113.35576
西尔曼度假公寓长隆东门店,南村万博,543,4.5,218,4.9,4.4,4.5,23.00559,113.35545
长隆欢乐公寓酒店,南村万博,402,0,0,4.9,0,0,23.007053,113.356
伦多国际公寓酒店,南村万博,184,4.7,140,4.8,4.7,4.7,23.0118,113.355446
广州途安国际酒店公寓,南村万博,242,0,75,4.8,0,0,23.012087,113.35598
广州长隆钧玺主题式酒店公寓(万达广场店),南村万博,207,4.6,138,4.7,4.5,4.6,23.011976,113.355576
广州伦斯度假公寓,南村万博,216,4.7,148,4.7,4.7,4.6,23.012045,113.35561
广州万敏酒店式公寓,南村万博,295,4.8,118,4.7,4.7,4.8,23.012539,113.35621
广州舒怡嘉酒店式公寓长隆万达广场店,南村万博,507,4.4,143,4.7,4.4,4.4,23.014948,113.35482
广州辰安酒店式公寓番禺万达广场店,南村万博,243,4.5,128,4.7,4.5,4.6,23.012278,113.355705
广州欢乐住服务式公寓,南村万博,195,4.6,109,4.6,4.6,4.7,23.011847,113.35556
雅泰酒店,南村万博,204,4.7,122,4.6,4.6,4.7,23.011885,113.355675
广州嘻哈英伦亲子主题度假酒店公寓（原嘻哈酒店公寓长隆万达店）,南村万博,432,4.5,88,4.6,4.5,4.6,23.01415,113.35558
乐途酒店公寓（广州长隆番禹万达店）,南村万博,204,4.6,127,4.6,4.6,4.7,23.011887,113.35566
广州长隆快乐时光儿童主题酒店式公寓,南村万博,242,4.7,118,4.6,4.6,4.8,23.012423,113.35536
广州七彩童年亲子主题公寓,南村万博,211,4.8,122,4.6,4.9,5,23.01205,113.35552
广州番禺长隆悠幽主题酒店式公寓,南村万博,303,4.6,0,4.6,4.6,4.7,23.012865,113.35576
广州长隆欢乐世界亲子主题公寓番禺万达广场店,南村万博,203,0,167,4.6,4.7,4.7,23.011873,113.355675
汉庭酒店(西塱店),鹤洞,730,4.4,178,4.4,4.4,4.5,23.073948,113.24081
广州丽枫酒店(欧曼顿酒店),鹤洞,482,4.3,108,4.3,4.1,4.3,23.075096,113.24294
怡安宾馆,鹤洞,72,3.8,68,4,3.4,3.8,23.07823,113.247025
广州坑口公寓,鹤洞,127,5,76,3.5,3,4,23.0781,113.24508
帝濠宾馆,鹤洞,462,3.7,84,2.3,3.5,3.5,23.080599,113.249954
东华宾馆,鹤洞,740,1,100,1,1,1,23.080643,113.25302
小熊家庭连锁公寓(体育西路二店),体育西路,42,5,0,5,5,5,23.136831,113.32763
广州海月小筑,体育西路,846,0,28,5,0,0,23.132816,113.32106
广州栖巢生活住宿,体育西路,914,0,59,5,0,0,23.133444,113.319916
广州乐途青年旅舍体育西路店,体育西路,315,4.7,9,4.8,4.5,4.7,23.138912,113.32583
广州天河亚朵酒店,体育西路,818,0,491,4.7,4.8,4.7,23.142048,113.32228
广州圣丰索菲特大酒店,体育西路,980,4.5,500,4.5,4.6,4.7,23.144053,113.32238
广州富力君悦大酒店,体育西路,978,4.6,1272,4.5,4.5,4.6,23.128326,113.33006
方圆奥克伍德国际酒店,体育西路,761,4.5,875,4.5,4.5,4.6,23.135117,113.33522
天河大厦,体育西路,751,4.2,450,4.4,4,4.3,23.143518,113.32645
威珀斯酒店,体育西路,802,4.2,558,4.4,4.3,4.5,23.130411,113.324646
广州星座酒店式公寓体育西店,体育西路,163,4.7,131,4.4,4.3,5,23.136295,113.32658
盛雅服务公寓,体育西路,563,4.6,522,4.4,4.4,4.6,23.141891,113.326965
广州馨缘时尚家庭公寓,体育西路,530,4.5,173,4.4,4.2,4.5,23.141083,113.325485
广州遇家酒店公寓,体育西路,550,0,655,4.4,0,0,23.138342,113.33318
柏高商务酒店(广州体育西路地铁站店),体育西路,170,4.4,118,4.3,4.3,4.5,23.1363,113.32651
广州皇家国际饭店,体育西路,551,4.2,505,4.3,4.1,4.3,23.140194,113.323975
广州正佳金殿维福顿公寓,体育西路,466,4.1,499,4.3,4.2,4.3,23.137571,113.33253
广州天美酒店,体育西路,930,3.2,304,4.3,2.8,4,23.139654,113.33663
雪龙商务酒店,体育西路,979,4.5,199,4.3,4.4,4.6,23.136833,113.3376
私享家连锁酒店公寓(广州正佳广场店),体育西路,520,0,408,4.3,0,0,23.138348,113.33288
广州新造嘉福住宿,新造,716,3.3,55,3.3,3.5,3.5,23.040854,113.42355
广州新造四楼平价住宿租房,新造,935,0,68,-1,0,0,23.042921,113.42306
金顺宾馆,客村,791,4.5,128,5,4.5,4.5,23.099348,113.33424
广州肥窝青年旅舍客村地铁站店,客村,246,5,29,4.9,5,5,23.10423,113.326385
广州木春公寓,客村,790,4.8,318,4.8,4.8,4.9,23.103666,113.334656
广州盘丝洞青年旅社,客村,265,4.6,58,4.7,4.3,4.6,23.104397,113.32636
广州珠江帝景青年旅舍,客村,878,4.5,54,4.7,4.4,4.4,23.109678,113.32962
广州迷路麋鹿青年旅舍（广州塔店）,客村,426,0,82,4.6,4.8,4.8,23.105818,113.328224
广州左岸驿站青年旅舍,客村,918,4.5,58,4.6,4.3,4.4,23.110296,113.32589
逸米精选酒店(广州客村地铁站敦和店),客村,881,4.4,197,4.6,4.2,4.7,23.094454,113.324905
广州汇鹏公寓敦和大厦店,客村,878,0,50,4.5,0,0,23.095106,113.32315
影星宾馆,客村,298,4.3,274,4.4,4,4.3,23.101353,113.32432
城市便捷酒店(客村地铁站会展中心店),客村,612,0,159,4.4,0,0,23.101713,113.33309
丽枫酒店(客村地铁站琶洲会展中心店),客村,765,0,100,4.4,0,0,23.099583,113.334076
迎商酒店(广州大道南店),客村,879,4.3,78,4.4,4.2,4.4,23.095095,113.323166
维也纳酒店(会展中心赤岗店),客村,919,4.2,212,4.4,4.1,4.2,23.096882,113.334076
城市便捷酒店(广州客村立交地铁站店),客村,847,3.7,170,4.4,3.6,3.7,23.095537,113.32294
广州市龙强国际酒店公寓,客村,997,4.6,217,4.4,4.6,4.6,23.101671,113.33686
广州迷路麋鹿青年公寓江塔景观2店,客村,851,0,274,4.4,5,5,23.104801,113.33491
广州市迎商酒店丽影广场店,客村,508,4.3,78,4.3,4.1,4.3,23.102182,113.332085
广州合晋帝苑酒店,客村,705,4.2,174,4.3,4.1,4.2,23.100533,113.33379
广州星城服务式公寓客村店,客村,160,0,69,4.2,0,0,23.101002,113.326126
广州驿家人连锁客栈南站店,洛溪,160,0,59,4.9,4,4,23.047995,113.30458
驿舍连锁客栈广州长隆高铁南站店,洛溪,172,3.9,62,4.7,3.4,3.9,23.048033,113.30427
广州莫泰连锁酒店高铁南站南浦地铁口店,洛溪,909,0,143,4.6,4.5,4.5,23.04186,113.301544
丽枫酒店(洛溪新城店),洛溪,24,4.6,308,4.5,4.6,4.7,23.049204,113.30542
盈基公馆(丽江店),洛溪,739,0,0,4.5,0,0,23.044476,113.300255
广州恒基如家住宿,洛溪,716,5,68,4.4,5,5,23.044159,113.30102
大都连锁酒店(广州洛溪地铁站店),洛溪,117,4,70,4.3,3.8,4,23.050323,113.30488
如家快捷酒店(广州高铁南站南浦地铁口店),洛溪,838,4.3,180,4.3,4.2,4.5,23.04238,113.30198
私享家连锁酒店公寓（广州洛溪地铁站渔人码头店）,洛溪,717,4.4,227,4.1,4.3,4.5,23.054834,113.30159
荔江宾馆,洛溪,881,4.4,148,4.1,4.4,4.5,23.041452,113.304054
莫泰168酒店(广州高铁南站南浦地铁口店),洛溪,836,4.2,0,4.1,4,4.2,23.042372,113.302055
广州途家斯维登度假服务公寓渔人码头店,洛溪,585,4.4,98,4,4.3,4.5,23.054258,113.303246
坑坑背包客栈(洛溪地铁站店),洛溪,639,0,108,4,0,0,23.05356,113.309425
格林联盟酒店,洛溪,970,4.1,153,3.9,3.9,4.1,23.040869,113.30281
椰枫酒店,洛溪,745,3.5,160,3.9,3.5,3.5,23.04337,113.30183
布丁酒店(洛溪地铁站店),洛溪,625,4.2,119,3.8,4,4.4,23.045614,113.30982
广州芳香公寓,洛溪,696,1,97,3.8,3,4,23.044071,113.30148
南浦宾馆,洛溪,748,0,113,3.7,4,4,23.043638,113.30128
广州南浦家公馆酒店,洛溪,724,2.8,118,3.6,2.2,2.6,23.044271,113.30073
广州安达宾馆,洛溪,295,4.5,88,2.8,3,4,23.048883,113.30806
广州Xbed互联网住宿保利中达店,妇儿中心,900,5,688,5,5,5,23.122034,113.33682
广州Xbed互联网住宿汇峰国际公寓店,妇儿中心,484,0,378,4.8,3,5,23.126423,113.3355
广州四季酒店,妇儿中心,582,4.7,1437,4.7,4.8,4.8,23.123316,113.32939
柏悦酒店,妇儿中心,534,4.7,1631,4.7,4.8,4.9,23.124405,113.32812
广州富力丽思卡尔顿酒店,妇儿中心,742,4.7,1261,4.7,4.7,4.8,23.122055,113.33385
合景W酒店,妇儿中心,429,4.5,1264,4.6,4.6,4.7,23.127012,113.33519
礼顿酒店,妇儿中心,740,4.6,474,4.6,4.5,4.6,23.12682,113.32416
广州富力君悦大酒店,妇儿中心,117,4.6,1272,4.5,4.5,4.6,23.128326,113.33006
雅诗阁服务公寓,妇儿中心,480,4.6,1019,4.5,4.7,4.7,23.12443,113.32906
广州丹顿行政公寓,妇儿中心,989,4.6,511,4.5,4.5,4.6,23.130205,113.34066
方圆奥克伍德国际酒店,妇儿中心,863,4.5,875,4.5,4.5,4.6,23.135117,113.33522
广州喜运服务公寓(保利中达广场店),妇儿中心,923,0,402,4.5,4.5,4.3,23.121504,113.33645
广州双城礼顿公寓,妇儿中心,582,4.4,0,4.5,4.3,4.4,23.124653,113.327095
广州Hart鹿途·坑坑家庭式公寓,妇儿中心,691,0,233,4.5,4.5,4.5,23.12504,113.33699
维纳斯酒店公寓（广州珠江新城店）,妇儿中心,686,4.4,328,4.5,4.4,4.4,23.12668,113.32473
威珀斯酒店,妇儿中心,712,4.2,558,4.4,4.3,4.5,23.130411,113.324646
广州兴盛国际公寓,妇儿中心,666,4.3,404,4.4,4.2,4.4,23.127123,113.33761
广州蓝精灵酒店公寓,妇儿中心,713,4.5,0,4.4,4.2,4.4,23.126644,113.32447
广州阳光假日酒店公寓,妇儿中心,705,4.4,0,4.4,4.3,4.3,23.1266,113.32456
伊思德国际公寓（广州保利中达）,妇儿中心,958,4.3,665,4.4,4.3,4.4,23.121387,113.33686
广州如悦酒店,大石,149,4.6,244,4.6,4.6,4.7,23.022192,113.32782
万盛名家酒店,大石,949,4.4,286,4.6,4.4,4.5,23.018108,113.32091
爱晚酒店,大石,839,4.6,188,4.6,4.5,4.6,23.021572,113.32016
广州喆啡酒店公寓长隆大石地铁站店,大石,117,0,199,4.5,4.6,4.5,23.022532,113.32766
笆笆拉酒店,大石,1000,4.7,218,4.5,4.6,4.8,23.015217,113.33185
美瓷酒店,大石,859,4.5,38,4.4,4.4,4.6,23.01641,113.33138
城市便捷酒店(广州番禺大石店),大石,843,4.3,164,4.4,4.2,4.4,23.023989,113.31986
广州好再来公寓,大石,430,3,43,4.4,3,3,23.019814,113.32931
广州丰顺公寓,大石,755,0,41,4.4,0,0,23.028221,113.32277
广州平安公寓南大路店,大石,939,0,48,4.4,0,0,23.016636,113.33342
悉恩假日酒店,大石,473,4.4,168,4.3,4.4,4.5,23.019564,113.326355
7天连锁酒店(广州番禺大石地铁站店),大石,769,4.5,154,4.3,4.2,4.4,23.023293,113.32057
广州鑫豪公寓,大石,742,4.5,48,4.3,4.5,4.5,23.028214,113.32293
汉庭酒店(长隆北门店),大石,860,4.2,113,4.2,4,4.2,23.016254,113.33099
广州小鹿酒店,大石,715,4.2,150,4.2,4.1,4.2,23.019402,113.32271
广州华冠酒店,大石,827,3.9,99,4.2,3.7,3.9,23.029108,113.32275
广州白云公寓大山村店,大石,575,4.4,28,4.2,4.2,4.2,23.02607,113.3232
快8连锁酒店（广州番禺大石店）,大石,514,3.6,113,4.1,3.4,3.5,23.019754,113.32516
百友汇公寓（广州大石店）,大石,426,3.4,107,4.1,3.3,3.4,23.022566,113.32405
欣怡宾馆,大石,927,3.9,92,4.1,3.6,4,23.030407,113.33319
广州西关荔园公寓,中山八,384,5,320,5,5,5,23.130247,113.24306
丽枫酒店(广州中山八路地铁站店),中山八,199,4.7,133,4.8,4.7,4.7,23.132084,113.241165
金枫宾馆,中山八,297,4.7,0,4.8,5,5,23.131126,113.242355
广州阿莲家青年旅舍,中山八,374,4.5,44,4.6,4.3,4.5,23.129658,113.23621
广州丽天连锁酒店中山八地铁站店,中山八,37,4.4,166,4.4,4.3,4.5,23.131042,113.23976
迎商酒店（广州中山八地铁站店）,中山八,289,4.3,279,4.4,4.2,4.4,23.130955,113.24227
江月宾馆(广州中山八路总店),中山八,594,4.4,211,4.4,4.2,4.4,23.130852,113.245255
如家快捷酒店(黄沙大道如意坊地铁站店),中山八,857,4.4,177,4.4,4.2,4.4,23.123644,113.237915
广州萝卜青年旅社西关风情店,中山八,979,0,47,4.4,5,5,23.125526,113.24675
尚辉国际酒店(中山八路地铁站店),中山八,646,4.4,188,4.3,4.4,4.6,23.130545,113.23318
7天连锁酒店(上下九长寿路地铁站店),中山八,994,4.5,169,4.2,4.3,4.5,23.12694,113.24798
广州馨乐庭荔枝湾服务公寓,中山八,656,4.3,320,4.1,4.2,4.4,23.126137,113.2427
海友酒店(广州上下九步行街店),中山八,911,3.9,107,4.1,3.6,3.9,23.12891,113.24801
健升酒店,中山八,332,4.2,258,4,4.1,4.4,23.130934,113.24269
佳园连锁酒店荔湾湖店,中山八,483,4,122,4,3.9,4.1,23.127995,113.23629
圣玛登酒店,中山八,770,4.2,224,4,4,4.2,23.131107,113.24699
广州圣庭酒店中山八地铁站店,中山八,812,4.2,124,4,3.8,4.1,23.13171,113.24738
广州莱喜酒店,中山八,872,3.2,140,4,4,4,23.123384,113.23951
逸米酒店广州长寿路地铁站店,中山八,956,3.6,0,3.9,3.6,3.6,23.128843,113.248436
金鹏宾馆(龙津西路店),中山八,776,3.2,93,3.9,1,2.5,23.129913,113.24692
人在旅途公寓,钟村,438,5,78,5,5,5,22.990849,113.31888
广州南国奥园度假酒店公寓,钟村,690,4.8,588,4.7,4.5,4.8,22.994371,113.329216
广州佳诚度假酒店,钟村,945,4.1,117,4.6,4.1,4.2,22.984865,113.318146
广州金柏豪酒店,钟村,897,4.1,135,4.5,4.4,4.5,22.984282,113.32096
普琳商务酒店,钟村,895,4.3,128,4.4,4.3,4.4,22.98412,113.322266
维也纳酒店,钟村,888,4.4,313,4.3,4.3,4.4,22.984165,113.322586
南国奥园高尔夫酒店,钟村,609,4.1,334,4.2,4.1,4.3,22.994104,113.32848
广州欧时快捷酒店钟村店,钟村,957,4.4,92,4.2,4.3,4.5,22.983597,113.32181
广州鸿胜商务酒店,钟村,645,4.2,108,4,4.1,4.1,22.986483,113.32155
利康宾馆,钟村,742,4.5,89,3.6,4.3,4.4,22.98557,113.32167
华雅宾馆,钟村,918,4,92,3.4,3,4,22.983952,113.32404
广州大金福公寓,钟村,978,4.3,86,3.4,4.1,4.2,22.983416,113.32407
广州如佳住宿,钟村,433,3,49,3.2,2,5,22.9893,113.32003
城品酒店(广州高铁南站番禺长隆店),钟村,898,0,0,-1,0,0,22.984089,113.323494
广州七日阳光住宿,钟村,600,0,0,-1,0,0,22.98938,113.32795
广州客家住宿南站店,钟村,437,0,80,-1,0,0,22.989471,113.31978
广州花城文艺客栈,钟村,748,0,137,-1,0,0,22.992561,113.330215
广州番禺豪华住宿,钟村,593,0,49,-1,0,0,22.98777,113.31961
广州长隆度假公寓,钟村,758,0,780,-1,0,0,22.990961,113.330215
广州新媛驿站,钟村,812,0,525,-1,0,0,22.990728,113.3307
恒鑫宾馆,黄阁,629,3.1,93,3.6,3.1,3.4,22.831972,113.51914
永发公寓,黄阁,449,0,100,1.3,0,0,22.832153,113.520996
广州嘉华公寓江夏店,江夏,831,0,54,4.8,0,0,23.2114,113.28504
广州陈田阳光住宿,江夏,624,0,74,4.8,0,0,23.212374,113.291954
广州尚馨休闲客栈,江夏,207,4.8,99,4.7,4.2,4.6,23.21849,113.29141
广州市新丰公寓,江夏,711,0,44,4.6,0,0,23.212168,113.29336
广州亮帆假日酒店,江夏,215,4.4,0,4.4,4.4,4.5,23.21951,113.28957
7天连锁酒店(广州江夏地铁站店),江夏,205,4.7,169,4.4,4.6,4.7,23.215925,113.288734
平安住宿(广州江夏店),江夏,831,0,59,4.4,0,0,23.211636,113.2847
如家快捷酒店(广州广东外语外贸大学白云大道店),江夏,639,4.3,135,4.3,4.1,4.3,23.214062,113.2946
永发住宿(陈田店),江夏,150,4.1,60,4.2,3.5,4.3,23.216394,113.29036
名豪大酒店,江夏,152,4.3,188,4.2,4.3,4.5,23.216625,113.28857
广州东方明珠酒店(江夏地铁站店),江夏,792,3.8,210,4.2,3.6,3.6,23.213625,113.296104
威利斯酒店,江夏,820,4.2,272,4.2,4.2,4.4,23.224005,113.29359
尚美酒店白云大道店,江夏,823,4.2,98,4.1,4,4.3,23.211355,113.29402
广州金腾商务酒店,江夏,637,4.2,0,4.1,3.9,4.3,23.212378,113.29228
广州御福公寓,江夏,98,4,80,4,4,4,23.217085,113.28884
文星连锁酒店(江夏地铁口店),江夏,301,4.3,149,4,4.2,4.5,23.215631,113.287575
广州盈宾公寓,江夏,819,4.1,51,4,3.9,4.2,23.210726,113.29262
广州飞翔公寓,江夏,483,4,80,4,4,4,23.214962,113.28586
广州佳兴酒店,江夏,595,4,148,3.9,4,4.1,23.21383,113.28548
富春景宾馆,江夏,594,4.4,98,3.9,3.4,4.4,23.214155,113.29412
宝利旅业,坑口,747,0,155,4.6,3.9,3.2,23.0867,113.23209
东鹏湾酒店,坑口,741,3.9,125,4,3.8,4.1,23.087044,113.232285
盛源商务宾馆,坑口,106,4,131,3.5,3.6,4,23.085518,113.23864
广州坑口公寓,坑口,953,5,76,3.5,3,4,23.0781,113.24508
东泰宾馆,坑口,851,3.5,68,3.1,2,3.5,23.09005,113.23316
铭浩宾馆,坑口,407,1,115,3,1,1,23.084175,113.23509
佳裕酒店(浣花西路),坑口,947,2,86,1.7,2,2,23.089603,113.23152
广州候航精品酒店公寓,潭村,398,5,328,5,4,5,23.12481,113.34917
再公寓(珠江新城店),潭村,921,4.4,340,4.9,4.4,4.4,23.130445,113.35665
广州捷然酒店服务公寓,潭村,406,4.5,375,4.6,4.5,4.6,23.124817,113.34908
捷然酒店,潭村,407,4.6,0,4.6,4.5,4.7,23.124683,113.349
广州马会酒店,潭村,665,4.3,200,4.4,4.3,4.5,23.129044,113.35227
云来斯堡酒店,潭村,998,4.6,705,4.4,4.5,4.6,23.131197,113.34845
私享家连锁酒店公寓（广州财富世纪广场店）,潭村,981,4.3,423,4.4,4.3,4.3,23.13054,113.34747
广州木莲庄酒店,潭村,927,4.4,329,4.3,4.3,4.5,23.128817,113.34601
柏高商务酒店(赛马场店),潭村,782,4.6,295,4.3,4.5,4.6,23.126074,113.35948
广州伊莲·萨维尔国际酒店公寓,潭村,317,4.2,376,4.2,4.3,4.5,23.123833,113.34958
雅尔康商务酒店,潭村,818,4.1,309,4.2,4.1,4.3,23.128937,113.34774
赫曼酒店,潭村,829,4.2,157,4.1,3.9,4.3,23.129702,113.35627
7天连锁酒店(广州珠江新城赛马场店),潭村,938,4.5,167,4,4.3,4.5,23.130402,113.35709
广州帕斐乐酒店公寓,潭村,432,4.3,353,4,4.5,4.5,23.124882,113.34883
广州市天河区东旺宾馆,潭村,967,3.8,157,4,3.5,3.6,23.13049,113.3575
广州遇家精品酒店公寓(天河珠江新城店),潭村,972,4.8,437,4,4.7,4.7,23.130285,113.34721
南国酒店,潭村,328,3.9,412,3.8,3.9,4.1,23.120125,113.352196
广州她他柏华酒店式公寓,潭村,940,3.3,314,3.5,3.4,3.8,23.129839,113.35808
广州燕子的旅馆,潭村,794,0,138,3.5,0,0,23.126535,113.35936
广州Xbed互联网住宿财富世纪广场店,潭村,988,0,468,3.4,5,5,23.130486,113.34725
广州6月青年驿站,北京路,53,0,29,4.8,0,0,23.125406,113.27652
广州人民公社青年旅舍北京路店,北京路,129,0,20,4.7,4.8,4.7,23.12552,113.27757
广州易成国际酒店公寓,北京路,893,4.6,329,4.7,4.7,4.7,23.131926,113.27217
广州呈爱精品酒店北京路地铁站店,北京路,90,5,199,4.6,4.7,4.9,23.124222,113.27691
广州岭南五号酒店,北京路,533,4.6,1231,4.6,4.5,4.7,23.121948,113.28057
逸米米公寓北京路捷登都会店,北京路,887,4.3,367,4.6,4.5,4.6,23.132067,113.2726
7天连锁酒店(广州越秀南客运站店),北京路,911,4.6,0,4.6,4.5,4.6,23.127066,113.28509
南北纵横国际公寓(金润铂宫店),北京路,450,4.3,455,4.5,4.5,4.5,23.128977,113.27677
广州桃花江豪生酒店,北京路,393,4.5,498,4.4,4.5,4.7,23.12163,113.27788
7天连锁酒店(广州北京路三店),北京路,495,4.5,165,4.4,4.3,4.5,23.125914,113.281204
迷途主题旅馆,北京路,439,4.2,220,4.4,4.1,4.3,23.128832,113.27717
阳光国际酒店公寓（广州北京路金润铂宫店）,北京路,434,4.3,408,4.4,4.3,4.4,23.128805,113.27701
广州御江苑国际公寓,北京路,372,4.2,340,4.4,4.3,4.4,23.121613,113.275955
广州靓天阁酒店,北京路,324,0,189,4.4,0,0,23.127825,113.27687
如家快捷酒店(广州解放中路公园前地铁站店),北京路,926,4.3,151,4.3,4,4.3,23.129713,113.26906
文星连锁酒店北京路店,北京路,440,4.2,178,4.3,3.9,4.2,23.12619,113.2724
广州考拉青年旅舍（北京路店）,北京路,390,4.6,100,4.3,4.3,4.5,23.127747,113.2742
嘉明宾馆,北京路,403,2.4,105,4.3,2.4,2.4,23.12819,113.27476
广州私享家酒店公寓(北京路金润铂宫店),北京路,434,4.3,367,4.3,4.3,4.3,23.128805,113.27701
家园宾馆(越秀店),北京路,854,3.7,140,4.3,3.6,3.7,23.12363,113.28471
遇家精品服务公寓（广州天河体育中心正佳广场店）,石牌桥,588,4.9,0,4.8,4.7,4.7,23.144173,113.339294
丽枫酒店(广州天河石牌桥地铁站店),石牌桥,291,4.5,120,4.7,4.4,4.6,23.13676,113.33973
辉盛阁酒店公寓,石牌桥,93,4.5,892,4.6,4.6,4.7,23.13815,113.33808
柏高商务酒店(龙口西店),石牌桥,660,4.6,344,4.6,4.5,4.7,23.143444,113.34247
广州悠然文化青年旅舍,石牌桥,673,0,48,4.6,0,0,23.140585,113.34454
地中海国际酒店,石牌桥,540,4.4,429,4.5,4.4,4.5,23.138756,113.343475
广州国德国际大酒店,石牌桥,325,4.4,683,4.5,4.3,4.5,23.141842,113.33889
丽枫酒店(广州天河正佳广场店),石牌桥,212,4.6,299,4.5,4.4,4.5,23.137068,113.338165
方圆奥克伍德国际酒店,石牌桥,526,4.5,875,4.5,4.5,4.6,23.135117,113.33522
广州维多利酒店,石牌桥,939,4.5,530,4.5,4.4,4.6,23.131992,113.34336
优众服务式酒店公寓,石牌桥,902,4.4,276,4.5,4.3,4.4,23.14237,113.34622
广州爱家连锁酒店(天河店),石牌桥,610,4.6,54,4.5,4.2,4.4,23.138815,113.34417
广州佰合国际公寓酒店丽柏店,石牌桥,870,4.5,0,4.5,4.4,4.5,23.14249,113.34582
华侨友谊酒店,石牌桥,287,4.4,330,4.4,4.2,4.4,23.137016,113.34002
嘉逸国际酒店,石牌桥,895,4.5,486,4.4,4.4,4.5,23.146505,113.34131
广州颐园酒店公寓（地中海店）,石牌桥,550,4.5,272,4.4,4.3,4.5,23.13824,113.34352
广州遇家酒店公寓,石牌桥,518,0,655,4.4,0,0,23.138342,113.33318
广州天美酒店,石牌桥,176,3.2,304,4.3,2.8,4,23.139654,113.33663
雪龙商务酒店,石牌桥,246,4.5,199,4.3,4.4,4.6,23.136833,113.3376
莱福·广武酒店,石牌桥,749,4.1,303,4.3,3.7,3.9,23.140728,113.345276
广州Lenovo青年居,鹭江,103,4.8,46,4.8,4.7,4.8,23.100904,113.31388
广州市海珠区史遇宾馆,鹭江,594,4.5,174,4.6,4.3,4.4,23.10662,113.31585
如家快捷酒店(中山大学东门店),鹭江,156,0,215,4.4,4,4.5,23.102173,113.3135
影星宾馆,鹭江,978,4.3,274,4.4,4,4.3,23.101353,113.32432
广州凡偲电影主题酒店中大北门店,鹭江,660,0,298,4.4,0,0,23.107304,113.3144
广州雕刻时光公社,鹭江,879,0,45,4.2,5,5,23.106737,113.321075
丽芙吉桔酒店(广州中大北门店),鹭江,689,4.1,0,4.1,4.2,4.4,23.10734,113.312935
广州瑞湖商务宾馆,鹭江,864,4.1,158,4.1,3.8,4.1,23.109135,113.31438
广州潇雅轩公寓,鹭江,819,4.1,88,4.1,3.3,3.8,23.10823,113.31183
桂田宾馆,鹭江,824,2,163,4.1,2.5,2,23.099289,113.322495
莫泰酒店(广州鹭江地铁站中山大学东门店),鹭江,154,4.7,215,4,4.2,4.4,23.102127,113.313484
居佳宾馆,鹭江,978,4.2,73,4,3.8,4.1,23.09732,113.32325
新珠江大酒店,鹭江,825,4.1,413,3.9,3.8,4.1,23.108786,113.31517
7天连锁酒店(广州客村店),鹭江,838,4.6,200,3.9,4.4,4.5,23.099266,113.322624
广州中山大学南校区校友公寓,鹭江,873,2,98,3.9,2,3,23.107878,113.309975
韵馨公寓,鹭江,943,3.1,78,3.8,2.7,3,23.107998,113.309
中山大学学生公寓,鹭江,857,1,78,3.7,1,3,23.107687,113.30995
广州私享家珠光高派酒店公寓,鹭江,931,3.7,190,3.7,3.6,3.7,23.108965,113.310905
柏逸酒店,鹭江,535,3.7,138,3.6,3.4,3.6,23.10189,113.31996
佰圆宾馆,鹭江,505,3.7,127,3.6,3.6,3.7,23.101934,113.319664
南丰朗豪酒店,新港东,323,4.6,733,4.7,4.6,4.7,23.103071,113.36646
广州野原小窝公寓琶洲展馆店,新港东,632,0,64,4.7,5,5,23.105032,113.36986
广交会威斯汀酒店,新港东,696,4.6,761,4.6,4.7,4.7,23.101875,113.36989
汇银宾馆,新港东,907,4,146,4,3.9,4.1,23.102703,113.35504
艺尚宫艺术主题酒店（江南西地铁站店）,沙园,996,4.7,200,4.8,4.8,4.9,23.099726,113.27504
广州青蓝莓主题酒店,沙园,423,4.3,248,4.5,4.3,4.5,23.096752,113.26348
如家快捷酒店(广州工业大道沙园店),沙园,206,4.5,151,4.3,4.3,4.4,23.093513,113.26851
船舶太古酒店,沙园,600,4.2,254,4.3,4.1,4.3,23.09566,113.26119
7天连锁酒店(广州江南西二店),沙园,640,4.3,0,4.3,4.1,4.4,23.098167,113.271965
7天连锁酒店(工业大道北沙园地铁站店),沙园,391,4.6,159,4.2,4.5,4.6,23.09777,113.26509
海友酒店(广州凤凰新村店),沙园,934,3.9,118,4.2,4,4.2,23.101795,113.26207
红帆酒店,沙园,638,4,128,4.1,3.8,4,23.092934,113.261024
广州悦品四季主题酒店,沙园,579,4.3,226,4.1,4.2,4.4,23.090128,113.26968
7天连锁酒店(广州凤凰新村地铁站店),沙园,904,4.6,138,4.1,4.5,4.6,23.099318,113.25968
广州宝丰宾馆(南田路店),沙园,881,4.3,93,4.1,3.7,3.9,23.102547,113.268196
逸米酒店广州宝岗大道地铁站店,沙园,643,4,136,3.9,3.9,3.8,23.090904,113.271706
科尔酒店,沙园,889,4,235,3.9,3.9,4.1,23.09966,113.27378
索非特酒店,沙园,846,3.6,132,3.6,3.5,3.5,23.088314,113.27146
广州君逸宾馆,沙园,224,3.5,0,3.5,3.4,3.5,23.096529,113.26604
顺龙宾馆,沙园,903,4,105,3.5,3.7,3.9,23.102694,113.26535
君怡宾馆,沙园,874,3.5,99,3.5,3.4,3.5,23.10245,113.26843
广州太古仓江景酒店,沙园,851,3.4,319,3.5,3.2,3.6,23.095861,113.258736
君皇商务酒店,沙园,696,3.5,73,3.4,3.3,3.5,23.097525,113.27304
广州市海珠区昌中宾馆,沙园,914,4,118,3.2,3.5,3.7,23.091858,113.27535
广州平价住宿牛地塘店,文冲,292,0,54,4.4,0,0,23.106863,113.47527
赛楠商务宾馆,文冲,863,3.9,135,4.4,3.6,4.2,23.102604,113.47941
山水时尚酒店(黄埔店),文冲,709,4.2,303,4.2,4.1,4.3,23.10667,113.46927
