name,subway,distance,service_rating,price,environment_rating,overall_rating,location_lat,location_lng
广州太古仓电影库,沙涌,890,0,80,0,1,23.095448,113.25919
金光海岸国际水会,芳村,544,0,113,0,3.1,23.103798,113.23687
盛会,芳村,754,0,100,0,2.4,23.097672,113.24066
西部牛仔KTV,芳村,681,0,100,0,4,23.098272,113.24331
芳草堂,芳村,649,0,99,0,4.2,23.09998,113.2379
健行轩推拿,越秀公园,56,0,68,0,5,23.145893,113.2676
棕南海SPA水疗,越秀公园,345,0,233,0,3.5,23.146324,113.264366
成功路卡拉ok歌舞厅,越秀公园,124,0,60,0,4,23.1474,113.26722
碧澄健康中心(越秀店),越秀公园,989,0,68,0,4.5,23.138954,113.26242
金之辉娱乐城,越秀公园,543,0,78,0,3.7,23.141682,113.2663
仙足足道,越秀公园,652,0,88,0,4.4,23.142115,113.26337
颐尊水疗(瑞士恒安店),祖庙,509,0,180,0,4.3,23.032352,113.1138
奥斯兰帝保健休闲中心,祖庙,373,0,158,0,3.1,23.029516,113.11797
步步高沐足阁卫国分店,祖庙,617,0,88,0,4.3,23.029633,113.12371
金城大酒店-步云阁沐足中心,祖庙,437,0,183,0,4.3,23.031805,113.11461
千足堂沐足休闲中心,祖庙,949,0,114,0,4.2,23.0413,113.1196
红灯笼沐足,祖庙,638,0,98,0,3.9,23.030767,113.112915
海怡阁,祖庙,445,0,110,0,4.2,23.03319,113.11442
新海悦足道养生,祖庙,718,0,118,0,4.1,23.039194,113.11779
豪城沐足,祖庙,957,0,76,0,3.9,23.040457,113.123024
飞来阁沐足中心,祖庙,693,0,50,0,3.7,23.038982,113.11789
金盆池足浴,祖庙,716,0,158,0,3.5,23.032745,113.125755
玉玄宫,祖庙,434,0,200,0,5,23.029606,113.1212
海迪沐足,祖庙,941,0,79,0,3.5,23.024591,113.12102
康扬健康推拿,祖庙,781,0,60,0,4.8,23.02989,113.1118
珠江休闲,祖庙,917,0,118,0,3,23.041042,113.11852
朝歌KTV,动物园,48,0,69,0,3.8,23.140308,113.31349
枕边游戏(环市东店),动物园,138,0,200,0,3.5,23.140446,113.312454
东浚水汇,动物园,342,0,326,0,2.9,23.137571,113.31346
健一推拿(水荫直街),动物园,503,0,59,0,4.2,23.144842,113.31563
金怡足道(水荫路店),动物园,960,0,100,0,3.6,23.147524,113.319466
足满堂(广联店),动物园,814,0,116,0,4,23.13737,113.30666
圣丰索菲特大酒店-水疗中心,动物园,915,0,1500,0,5,23.144041,113.32195
健康人休闲中心(中山一分店),动物园,778,0,74,0,3.4,23.134808,113.318016
逸康推拿理疗,动物园,787,0,68,0,5,23.133585,113.313065
龙腾休闲会所,动物园,865,0,352,0,-1,23.14671,113.319084
广州塞纳河之夜,动物园,935,0,1300,0,3.5,23.143694,113.32232
金燊汗蒸养生馆(水荫路店),动物园,703,0,88,0,4.4,23.145536,113.318146
花城广场,猎德,901,0,140,0,4.7,23.120588,113.331055
润元堂,猎德,195,0,132,0,4,23.12588,113.33979
广州金逸国际影城(维家思店),猎德,884,0,55,0,4.3,23.130981,113.334114
御都桑拿,猎德,951,0,269,0,4.2,23.131964,113.3431
芭黎晚香私人形象定制,猎德,433,0,348,0,-1,23.12538,113.33479
康逸居保健(海安店),猎德,933,0,153,0,4.7,23.130592,113.34496
广州碧桂园康乐部,南浦,452,0,60,0,5,23.037111,113.29689
富蓉堂休闲会所,南浦,311,0,118,0,2.2,23.037624,113.29841
富蓉堂沐足,南浦,242,0,168,0,2.3,23.03819,113.29868
财神棋艺休闲中心,员村,386,0,130,0,3.5,23.118078,113.37053
翔峰沐足,员村,664,0,100,0,3.4,23.12544,113.36549
手功王(员村店),员村,647,0,216,0,4.4,23.127274,113.36925
克莱顿酒店-沐足,员村,897,0,98,0,4.3,23.121225,113.37919
陶醉馆,员村,872,0,94,0,-1,23.124565,113.36254
汇茵中医会馆,员村,816,0,68,0,2,23.125252,113.363525
金御湾休闲沐足城,澜石,619,0,111,0,2.8,22.989906,113.11981
禾居水疗中心,番禺广场,261,0,300,0,4.5,22.941137,113.389404
新悦沐足,番禺广场,610,0,108,0,3.8,22.946783,113.38925
飞扬88量版KTV,番禺广场,829,0,80,0,4.5,22.946995,113.38599
扶元堂(东瀚园店),番禺广场,956,0,96,0,4,22.941599,113.40118
幸福盲人按摩院,番禺广场,994,0,200,0,3.7,22.936014,113.38447
居氏颈肩腰自然法,番禺广场,713,0,100,0,5,22.946817,113.38744
花城广场,海心沙,367,0,140,0,4.7,23.120588,113.331055
广州大剧院,海心沙,476,0,298,0,4.7,23.121054,113.32866
芭黎晚香私人形象定制,海心沙,984,0,348,0,-1,23.12538,113.33479
帝景酒店沐足中心,海心沙,947,0,78,0,5,23.109213,113.33384
瑞足轩商务养生会所,海心沙,996,0,75,0,4.4,23.111092,113.32385
金盆池足浴,普君北路,371,0,158,0,3.5,23.032745,113.125755
步步高沐足阁卫国分店,普君北路,715,0,88,0,4.3,23.029633,113.12371
博爱盲人推拿(虎门店),普君北路,515,0,70,0,-1,23.035095,113.134026
玉玄宫,普君北路,934,0,200,0,5,23.029606,113.1212
堂会KTV(机场店),白云公园,593,0,69,0,4.2,23.186766,113.271675
汇都国际水疗会,白云公园,732,0,390,0,4.2,23.189808,113.28422
SiN Key罪恶之匙密室逃脱（5号停机坪店）,白云公园,654,0,51,0,3.9,23.188408,113.27095
傲云谷保健按摩中心,市二宫,505,0,216,0,3.7,23.112814,113.27138
健怡推拿,市二宫,883,0,95,0,3.4,23.10754,113.269295
富侨保健(广州旗舰店),市二宫,775,0,70,0,3.1,23.11514,113.26939
金辉健康中心,市二宫,736,0,90,0,4,23.112913,113.28343
聚脚点(前进路),市二宫,854,0,61,0,4.3,23.107233,113.28262
小朱沐足馆（海珠店）,市二宫,504,0,89,0,3,23.114403,113.28061
聚龙湾温泉广州办,市二宫,906,0,83,0,5,23.106434,113.270035
富侨棋牌沐足,市二宫,768,0,61,0,3.4,23.115074,113.269424
广州筋骨堂（海珠）总店,市二宫,775,0,120,0,5,23.112848,113.26872
月茗居,市二宫,893,0,50,0,4.2,23.104195,113.27602
脊柱梳理(怡安路店),市二宫,452,0,69,0,4.1,23.114166,113.28016
足三里,市二宫,952,0,83,0,-1,23.109703,113.26737
摩斯广州真人密室逃脱,市二宫,941,0,52,0,3.8,23.118126,113.28288
水云间休闲,科韵路,479,0,168,0,3,23.128466,113.38711
河棠月色ＫＴＶ,科韵路,743,0,53,0,3.4,23.131153,113.38741
克莱顿酒店-沐足,科韵路,663,0,98,0,4.3,23.121225,113.37919
龙安水疗会,科韵路,778,0,198,0,3.3,23.132225,113.38311
金宝莱休闲汇,科韵路,869,0,128,0,4.1,23.133068,113.38332
大圣客,科韵路,734,0,77,0,2.3,23.130585,113.38822
聚景沐足,科韵路,814,0,128,0,4.7,23.13222,113.38648
时代养生会所(中山大道西),科韵路,853,0,78,0,3.7,23.132946,113.38396
尚御天使休闲中心,科韵路,859,0,90,0,3.5,23.132042,113.38801
艾菲芭(骏景北苑会所),科韵路,807,0,2290,0,5,23.1296,113.39029
3号星际荟,科韵路,383,0,600,0,-1,23.128414,113.38549
中医推拿,科韵路,626,0,55,0,-1,23.12841,113.389046
靓之堂(骏景欣颜坊店),科韵路,700,0,96,0,5,23.12701,113.39053
第哥休闲会所,纪念堂,452,0,148,0,3.5,23.135609,113.27317
南方剧院,纪念堂,988,0,50,0,4.2,23.129725,113.27254
碧澄健康中心(越秀店),纪念堂,759,0,68,0,4.5,23.138954,113.26242
金之辉娱乐城,纪念堂,523,0,78,0,3.7,23.141682,113.2663
X先生密室,纪念堂,766,0,87,0,4.1,23.131378,113.27037
扶元堂(东风中路店),纪念堂,878,0,165,0,4.6,23.13767,113.27838
仙足足道,纪念堂,786,0,88,0,4.4,23.142115,113.26337
康乐盲人按摩中心,纪念堂,801,0,91,0,4.5,23.131824,113.26627
健行轩推拿,纪念堂,878,0,68,0,5,23.145893,113.2676
塔罗牌魔法屋,纪念堂,778,0,98,0,-1,23.132042,113.27331
妙手通养生会所,纪念堂,984,0,100,0,3.7,23.142008,113.27853
瓦匠工社,纪念堂,849,0,61,0,4.7,23.133406,113.26339
广州五航商务服务有限公司,纪念堂,779,0,5000,0,-1,23.131256,113.2702
花城广场,花城大道,472,0,140,0,4.7,23.120588,113.331055
广州大剧院,花城大道,498,0,298,0,4.7,23.121054,113.32866
广州UA花城汇影院,花城大道,817,0,56,0,4.1,23.132187,113.331276
广州金逸国际影城(维家思店),花城大道,742,0,55,0,4.3,23.130981,113.334114
康逸居沐足推拿(花城大道店),花城大道,606,0,143,0,3.7,23.12474,113.325356
芭黎晚香私人形象定制,花城大道,363,0,348,0,-1,23.12538,113.33479
非凡足迹(广州珠江新城店),花城大道,920,0,257,0,4.6,23.123901,113.32235
慧足轩大型休闲中心,花城大道,614,0,80,0,4.2,23.125065,113.32529
润元堂,花城大道,877,0,132,0,4,23.12588,113.33979
恒大院线,花城大道,912,0,137,0,-1,23.132713,113.33378
潇洒皇宫休闲中心,中大,920,0,160,0,2.3,23.092018,113.29372
根据地休闲中心,中大,507,0,61,0,4,23.100304,113.2951
龙城推拿浴药沐足,中大,651,0,300,0,2.9,23.097778,113.30591
CK沐足,中大,688,0,110,0,5,23.092163,113.29876
养真堂盲人按摩,中大,814,0,70,0,4.1,23.105639,113.29945
魅力喜舍健康养疗,中大,803,0,59,0,4.7,23.10221,113.292946
木易克斯(广州睿媛店),中大,712,0,137,0,-1,23.102232,113.294044
汇都国际水疗会,白云文化广场,745,0,390,0,4.2,23.189808,113.28422
翡翠湾沐足养生会所,白云文化广场,722,0,60,0,4,23.199896,113.27621
康乐养生馆,白云文化广场,851,0,148,0,2,23.19714,113.27376
好乐迪(同济店),同济路,99,1.9,58,2.8,5,23.024502,113.114
颐尊水疗(瑞士恒安店),同济路,856,0,180,0,4.3,23.032352,113.1138
奥斯兰帝保健休闲中心,同济路,616,0,158,0,3.1,23.029516,113.11797
红灯笼沐足,同济路,702,0,98,0,3.9,23.030767,113.112915
海迪沐足,同济路,622,0,79,0,3.5,23.024591,113.12102
金城大酒店-步云阁沐足中心,同济路,787,0,183,0,4.3,23.031805,113.11461
康扬健康推拿,同济路,657,0,60,0,4.8,23.02989,113.1118
中泰盲人传统按摩院,同济路,716,0,63,0,4.6,23.01993,113.11961
福生圆(佛山季华店),同济路,851,0,120,0,3.9,23.017956,113.11105
鸿胜堂,同济路,619,0,59,0,4.4,23.020452,113.11883
海怡阁,同济路,942,0,110,0,4.2,23.03319,113.11442
玉玄宫,同济路,840,0,200,0,5,23.029606,113.1212
福鑫阁沐足棋牌会所,东圃,732,0,124,0,3.6,23.122253,113.40918
逸东堂会所,东圃,800,0,168,0,3.9,23.12289,113.40706
添豪国际水疗会所,白云大道北,567,0,284,0,2.8,23.225094,113.309296
清足,白云大道北,417,0,268,0,3,23.224918,113.30353
夜猫量贩式PTV,白云大道北,493,0,188,0,3.8,23.224798,113.307884
日日休闲中心(云堡酒店西),白云大道北,554,0,180,0,3,23.232103,113.30869
咏乐汇量贩式连锁KTV(白宫店),白云大道北,551,0,58,0,3.9,23.224741,113.301414
福康沐足中心,白云大道北,530,0,59,0,4.3,23.223644,113.30549
爱琴海KTV,白云大道北,721,0,150,0,3.1,23.226225,113.311714
零点水会,白云大道北,904,0,111,0,3.7,23.22341,113.29807
凤凰花开,白云大道北,854,0,76,0,3.9,23.22407,113.31197
品高休闲会所,白云大道北,529,0,80,0,5,23.22521,113.308914
卡迪量贩式KTV,白云大道北,807,0,140,0,4.1,23.235207,113.30782
歌聚KTV,白云大道北,854,0,65,0,2.9,23.224066,113.31197
松之盛养生会所（永泰店）,白云大道北,442,0,168,0,4.8,23.231323,113.30799
国交休闲会所,白云大道北,845,0,108,0,1.9,23.225657,113.312775
伯爵宫馆,白云大道北,556,0,80,0,4.4,23.224762,113.30132
雅兴休闲沐足中心,白云大道北,682,0,168,0,2.7,23.23393,113.307945
翡翠湾沐足养生会所,白云大道北,533,0,136,0,1,23.225763,113.30943
港岛沐足,白云大道北,624,0,128,0,3,23.228662,113.31117
悠然居会所,白云大道北,737,0,58,0,-1,23.23473,113.3029
乐艺陶坊,白云大道北,879,0,58,0,4.8,23.224766,113.29742
KPARTY量贩式KTV(赤岗店),赤岗,514,0,128,0,4.2,23.098433,113.3385
东海桑拿,赤岗,664,0,138,0,2.2,23.096148,113.3411
心宜足道,赤岗,302,0,88,0,3.7,23.100557,113.33913
新乐轩水会,赤岗,958,0,211,0,3.8,23.096882,113.334114
御足轩休闲馆,赤岗,813,0,130,0,4,23.100574,113.333786
向康中医养生馆,赤岗,857,0,120,0,4.1,23.094418,113.34101
国交休闲会所,永泰,73,0,108,0,1.9,23.225657,113.312775
爱琴海KTV,永泰,120,0,150,0,3.1,23.226225,113.311714
添豪国际水疗会所,永泰,391,0,284,0,2.8,23.225094,113.309296
凤凰花开,永泰,266,0,76,0,3.9,23.22407,113.31197
歌聚KTV,永泰,266,0,65,0,2.9,23.224066,113.31197
夜猫量贩式PTV,永泰,538,0,188,0,3.8,23.224798,113.307884
品高休闲会所,永泰,424,0,80,0,5,23.22521,113.308914
日日休闲中心(云堡酒店西),永泰,773,0,180,0,3,23.232103,113.30869
港岛沐足,永泰,315,0,128,0,3,23.228662,113.31117
翡翠湾沐足养生会所,永泰,358,0,136,0,1,23.225763,113.30943
福康沐足中心,永泰,812,0,59,0,4.3,23.223644,113.30549
清足,永泰,968,0,268,0,3,23.224918,113.30353
松之盛养生会所（永泰店）,永泰,749,0,168,0,4.8,23.231323,113.30799
雅兴休闲沐足中心,永泰,986,0,168,0,2.7,23.23393,113.307945
颐足堂,永泰,720,0,68,0,-1,23.226135,113.31994
海上皇宫水疗会所,淘金,534,0,291,0,3.4,23.140924,113.298004
千里行沐足中心,淘金,327,0,81,0,4.5,23.13992,113.292076
天润会所,淘金,518,0,398,0,5,23.144844,113.288635
闲庭信步养生保健会所,淘金,353,0,155,0,3.5,23.140005,113.291306
御足堂(华粤店),淘金,648,0,113,0,4.4,23.140251,113.29889
骑士养生馆,淘金,461,0,93,0,4.4,23.138584,113.29255
IMIX私加花园,淘金,292,0,64,0,4.2,23.142979,113.29598
日康推拿,淘金,349,0,60,0,4.2,23.139599,113.29368
知足常乐(粤新沐足),淘金,729,0,78,0,4.1,23.14542,113.286644
华山沐足休闲中心,淘金,950,0,80,0,3.5,23.140507,113.302124
金淘沐足中心,淘金,742,0,62,0,5,23.147594,113.29808
御足堂(裕华店),淘金,810,0,124,0,4.5,23.145046,113.28563
卡玛俱乐部,淘金,907,0,100,0,5,23.150005,113.29709
暗流酒馆密室逃脱,淘金,950,0,73,0,5,23.140501,113.302124
金燊汗蒸养生馆(淘金坑店),淘金,355,0,77,0,4.3,23.145893,113.29301
劲鹰KTV,淘金,783,0,120,0,3.9,23.147251,113.287285
岁康盲人按摩,淘金,761,0,66,0,4.9,23.14954,113.29358
月都城桑拿沐足,横沙,346,0,220,0,3,23.165016,113.216415
魅力金莎KTV,横沙,369,0,159,0,4.4,23.165112,113.21662
沙湾水汇,横沙,800,0,268,0,2.6,23.156782,113.21495
福康盲人按摩沐足,横沙,191,0,78,0,4.7,23.162357,113.21428
安然纳米汗蒸馆(金沙洲店),横沙,285,0,96,0,4.4,23.165005,113.21577
广州中影乐佳影城,华师,149,0,50,0,3.8,23.147448,113.35115
盛友汇,华师,373,0,143,0,4.4,23.149605,113.351456
盈泰健康休闲会所,华师,604,0,125,0,4.5,23.150208,113.347786
汇潮阁休闲中心,华师,895,0,200,0,3.8,23.138474,113.34967
丽柏国际酒店柏悦棋牌足浴会所,华师,731,0,85,0,4.9,23.142351,113.34611
动静界(天河北店),华师,671,0,151,0,4,23.146687,113.34531
御兰轩艾灸养生馆,华师,659,0,158,0,5,23.147799,113.34562
百莲凯(昌岗中路),宝岗大道,97,0,113,0,3,23.091846,113.275276
泰殿水会,宝岗大道,753,0,309,0,3.4,23.090258,113.26909
金城桑拿,宝岗大道,530,0,318,0,3.6,23.096865,113.275116
星都会KTV,宝岗大道,956,0,80,0,4.5,23.089724,113.28511
星都养生馆,宝岗大道,514,0,111,0,3.8,23.094316,113.28062
足绿阁沐足,宝岗大道,735,0,80,0,4.1,23.097921,113.27257
金太阳(青柳大街),宝岗大道,840,0,78,0,3.8,23.099743,113.27613
扶元堂(昌岗中路店),宝岗大道,753,0,172,0,4.4,23.096375,113.28194
康城沐足(江南大道中),宝岗大道,887,0,98,0,4.4,23.097336,113.28278
翠逸阁足浴中心,宝岗大道,894,0,55,0,5,23.09687,113.26905
扶之堂中医推拿馆,宝岗大道,437,0,97,0,4.7,23.08945,113.27923
逸美健养生中心,宝岗大道,806,0,78,0,4.2,23.0952,113.283325
yoyopark儿童主题乐园,宝岗大道,263,0,64,0,4.1,23.089815,113.276215
邓老师中医养生馆,宝岗大道,725,0,50,0,4.4,23.0963,113.281654
紫禁之城星都会KTV(润政广场店),宝岗大道,953,0,66,0,-1,23.090084,113.28519
燕岭自然养生堂,燕塘,150,0,78,0,5,23.165207,113.3328
神州休闲会馆,燕塘,637,0,1364,0,2.5,23.166681,113.32786
粤都保健沐足,燕塘,296,0,98,0,2,23.163336,113.33466
银河大酒店休闲服务中心,燕塘,675,0,88,0,1,23.17181,113.33233
圣贤堂(诚安店),燕塘,560,0,80,0,3.5,23.16484,113.32869
怡足坊,燕塘,636,0,80,0,4.3,23.166674,113.327866
豪廷国际KTV,燕塘,683,0,230,0,4.2,23.166407,113.32738
莉菀养生会所,燕塘,647,0,107,0,4.3,23.160963,113.33733
皇廷俱乐部(兴华路),燕塘,785,0,300,0,-1,23.16513,113.32641
安然纳米汗蒸馆(五仙花园店),燕塘,965,0,76,0,4.6,23.171993,113.32726
广州白云机场铂尔曼大酒店-桑拿浴,机场南,325,0,600,0,5,23.39518,113.31019
颐尊水疗(铂尔曼店),机场南,320,0,298,0,4.4,23.395142,113.31016
岭南会休闲中心,如意坊,574,0,80,0,3.7,23.125591,113.23631
知足常乐(多宝路),如意坊,679,0,66,0,3.9,23.122372,113.244606
芝美,如意坊,963,0,139,0,2,23.122446,113.247444
丛桂路,如意坊,889,0,75,0,-1,23.117737,113.24628
Cocok,海珠广场,501,0,50,0,4.4,23.121426,113.2772
活力无限KTV(北京路店),海珠广场,748,0,61,0,3.9,23.127003,113.27603
南方剧院,海珠广场,947,0,50,0,4.2,23.129725,113.27254
唐潮棋牌,海珠广场,541,0,50,0,3.3,23.125984,113.273346
启悦沐足,海珠广场,533,0,198,0,3.5,23.124104,113.26814
风吕足道休闲中心,海珠广场,742,0,101,0,3.8,23.127258,113.27535
银海KTV,海珠广场,900,0,75,0,4.5,23.121895,113.28107
东亚会会所,海珠广场,904,0,146,0,3.7,23.117022,113.26471
富侨保健(广州旗舰店),海珠广场,737,0,70,0,3.1,23.11514,113.26939
小朱沐足馆(北京路店),海珠广场,817,0,89,0,4.3,23.127487,113.27645
傲云谷保健按摩中心,海珠广场,937,0,216,0,3.7,23.112814,113.27138
沐足城,海珠广场,921,0,68,0,-1,23.126305,113.2794
富侨棋牌沐足,海珠广场,742,0,61,0,3.4,23.115074,113.269424
足之轩沐足,海珠广场,979,0,72,0,4.5,23.116335,113.26432
逃出广州,海珠广场,835,0,68,0,4,23.12757,113.27665
谜室,海珠广场,698,0,53,0,-1,23.127342,113.27377
广州筋骨堂（海珠）总店,海珠广场,998,0,120,0,5,23.112848,113.26872
F276,海珠广场,890,0,164,0,4.4,23.121574,113.281
K歌王量贩式KTV(天河东路店),岗顶,695,2.8,67,3.1,4.1,23.142649,113.339745
广州中影乐佳影城,岗顶,922,0,50,0,3.8,23.147448,113.35115
国德国际大酒店-水疗桑拿馆,岗顶,784,0,500,0,3.8,23.141806,113.33861
潮汇PTV,岗顶,952,0,64,0,3.2,23.13282,113.35019
嘉年华桑拿,岗顶,695,0,406,0,3.1,23.134438,113.344666
汇潮阁休闲中心,岗顶,427,0,200,0,3.8,23.138474,113.34967
金城桑拿,岗顶,981,0,50,0,3.6,23.13231,113.34963
丽柏国际酒店柏悦棋牌足浴会所,岗顶,201,0,85,0,4.9,23.142351,113.34611
世外桃源至尊国际休闲会所,岗顶,784,0,368,0,3.7,23.141787,113.33861
天之骄桑拿健身中心,岗顶,597,0,260,0,2.2,23.13613,113.34949
源缘棋牌沐足,岗顶,692,0,69,0,4.2,23.135492,113.35012
嘉逸国际酒店-沐足与推拿中心,岗顶,824,0,70,0,-1,23.146582,113.34148
动静界(天河北店),岗顶,688,0,151,0,4,23.146687,113.34531
华侨友谊酒店懂生沐足中心,岗顶,740,0,131,0,3.4,23.137096,113.33995
LAVISKI,岗顶,890,0,87,0,5,23.14474,113.33873
捷硕科技,岗顶,221,0,80,0,5,23.138968,113.344826
青城承道推拿,岗顶,586,0,198,0,-1,23.14184,113.34059
华威达健康中心,岗顶,924,0,100,0,1.5,23.13293,113.34979
华威达KTV,岗顶,978,0,50,0,3.2,23.13235,113.34965
御兰轩艾灸养生馆,岗顶,808,0,158,0,5,23.147799,113.34562
茱迪DIY蛋糕坊,三溪,447,0,100,0,4.7,23.114265,113.42235
道辉养心堂中医推拿,三溪,410,0,220,0,-1,23.113798,113.42334
安然纳米汗蒸馆(美林店),三溪,704,0,90,0,4.4,23.11607,113.41959
岸尚水堂水疗会馆,南洲,53,0,404,0,2.3,23.069464,113.304504
水晶宫商务休闲会馆,南洲,312,0,323,0,3.4,23.07272,113.3047
粤明休闲会馆,南洲,614,0,380,0,2.6,23.073801,113.30009
劲派KTV,南洲,802,0,57,0,3.4,23.073755,113.29772
南悦休闲会所,南洲,579,0,280,0,2.8,23.07495,113.30588
南洲芬兰浴沐足中心,南洲,335,0,50,0,3.5,23.070276,113.307625
泰丰休闲会所,南洲,765,0,100,0,2.9,23.073473,113.29795
紫龙桑拿沐足健康中心,南洲,827,0,138,0,2.1,23.07494,113.31034
东晶富足堂,南洲,535,0,108,0,3.9,23.072731,113.30011
富侨健康休闲中心,南洲,812,0,87,0,3.3,23.077213,113.30372
维雅沐足,南洲,844,0,65,0,3.2,23.077463,113.30535
嘉乐城休闲中心,南洲,901,0,68,0,3.2,23.076603,113.309364
祝健推拿,南洲,834,0,60,0,4,23.07465,113.31071
富源休闲会所,小北,374,0,76,0,3.7,23.148277,113.28538
东日休闲健康中心,小北,379,0,164,0,3.1,23.148815,113.284584
知足常乐(粤新沐足),小北,381,0,78,0,4.1,23.14542,113.286644
天润会所,小北,591,0,398,0,5,23.144844,113.288635
御足堂(裕华店),小北,287,0,124,0,4.5,23.145046,113.28563
妙手通养生会所,小北,614,0,100,0,3.7,23.142008,113.27853
广州市越秀区醍思觅生活馆,小北,582,0,58,0,-1,23.140562,113.28226
劲鹰KTV,小北,474,0,120,0,3.9,23.147251,113.287285
漂亮宝贝儿童摄影城,小北,235,0,103,0,4,23.146713,113.280876
波涛阁桑拿沐足休闲中心,花地湾,658,0,200,0,3.2,23.09505,113.23459
盛会,花地湾,538,0,100,0,2.4,23.097672,113.24066
西部牛仔KTV,花地湾,667,0,100,0,4,23.098272,113.24331
芳草堂,花地湾,839,0,99,0,4.2,23.09998,113.2379
平步青云沐足堂,团一大广场,201,0,135,0,4.5,23.122515,113.284004
P-PASS派歌量贩式KTV,团一大广场,315,0,65,0,4.5,23.121454,113.28405
育泉休闲中心,团一大广场,728,0,50,0,3.1,23.129032,113.289444
Cocok,团一大广场,816,0,50,0,4.4,23.121426,113.2772
银海KTV,团一大广场,443,0,75,0,4.5,23.121895,113.28107
活力无限KTV(北京路店),团一大广场,925,0,61,0,3.9,23.127003,113.27603
嘉年华芬兰馆,团一大广场,401,0,328,0,4.4,23.127851,113.2842
I do 烘焙坊(文明路店),团一大广场,621,0,63,0,4.1,23.129412,113.28222
沐足城,团一大广场,575,0,68,0,-1,23.126305,113.2794
益康理疗盲人按摩中心,团一大广场,266,0,105,0,3.3,23.12291,113.28241
熙园休闲中心,团一大广场,792,0,55,0,4,23.120329,113.29104
风吕足道休闲中心,团一大广场,999,0,101,0,3.8,23.127258,113.27535
悦康推拿,团一大广场,558,0,70,0,3.5,23.128586,113.28732
小朱沐足馆(北京路店),团一大广场,904,0,89,0,4.3,23.127487,113.27645
东川休闲俱乐部,团一大广场,922,0,80,0,4,23.127098,113.29304
广州声工场录音棚(扬声影视),团一大广场,856,0,497,0,5,23.129707,113.27866
逃出广州,团一大广场,889,0,68,0,4,23.12757,113.27665
F276,团一大广场,471,0,164,0,4.4,23.121574,113.281
摩斯广州真人密室逃脱,团一大广场,702,0,52,0,3.8,23.118126,113.28288
水都休闲商务酒店,西场,486,0,118,0,3.7,23.147276,113.24308
友明堂棋牌,西场,165,0,50,0,3.9,23.143387,113.24297
古淳,西场,516,0,157,0,3.9,23.141958,113.23967
金濠休闲中心,西场,742,0,80,0,3.2,23.140217,113.238014
足语轩养生馆,西场,955,0,51,0,5,23.13755,113.25168
渔人码头钓虾场,坦尾,681,0,60,0,3.9,23.133755,113.23071
怡心阁,梅花园,122,0,81,0,3.6,23.182095,113.32774
卡卡量贩式KTV,梅花园,352,1.7,51,2,3.3,23.184345,113.32778
金和国际水汇,梅花园,417,0,350,0,3.4,23.184893,113.328026
爱琴海KTV(梅花园店),梅花园,678,0,135,0,4.4,23.187347,113.32753
天上天休闲,梅花园,623,0,250,0,2.8,23.176157,113.324455
天使城桑拿,梅花园,699,0,278,0,3,23.187462,113.328156
梅花园林宾馆-梅园休闲中心,梅花园,435,0,102,0,2.4,23.185131,113.327675
梅宾休闲中心,梅花园,301,0,98,0,3.7,23.183975,113.32719
轩昂阁沐足推拿,梅花园,778,0,80,0,3.5,23.188168,113.328255
国康中医推拿,梅花园,416,0,69,0,4.1,23.182232,113.33089
金豪门KTV,梅花园,985,0,350,0,4.6,23.177874,113.335846
玄和堂养生馆,梅花园,528,0,98,0,3,23.185555,113.329185
华旗纳米养生(圣地大厦店),梅花园,742,0,68,0,-1,23.18786,113.32811
花城广场,大剧院,85,0,140,0,4.7,23.120588,113.331055
广州大剧院,大剧院,266,0,298,0,4.7,23.121054,113.32866
康逸居沐足推拿(花城大道店),大剧院,711,0,143,0,3.7,23.12474,113.325356
非凡足迹(广州珠江新城店),大剧院,953,0,257,0,4.6,23.123901,113.32235
芭黎晚香私人形象定制,大剧院,576,0,348,0,-1,23.12538,113.33479
慧足轩大型休闲中心,大剧院,737,0,80,0,4.2,23.125065,113.32529
博爱盲人推拿(虎门店),朝安,650,0,70,0,-1,23.035095,113.134026
h2真人密室逃脱,朝安,925,0,64,0,4.8,23.03261,113.14917
水玲珑会馆(东山口店),东山口,426,0,236,0,4,23.129494,113.29816
玉清池水疗会所,东山口,741,0,350,0,3.3,23.13678,113.3041
康派沐足中心,东山口,460,0,78,0,3,23.134474,113.302376
秘道Doors实景密室逃脱,东山口,803,0,54,0,4.9,23.137503,113.303276
轻松松推拿中心,东山口,753,0,88,0,3.8,23.128038,113.29529
足满堂(广联店),东山口,904,0,116,0,4,23.13737,113.30666
浪程会大厅KTV,东山口,671,0,50,0,3.9,23.12588,113.29779
夜色俱乐部(艺星大厦),东山口,725,0,60,0,3,23.136812,113.30311
无双电玩租机桌游吧,东山口,454,0,51,0,3,23.126432,113.3009
三意屋DIY CAKE(烟墩路店),东山口,431,0,90,0,-1,23.127281,113.304825
天缘保健,天河客运站,187,0,65,0,3.5,23.175735,113.35203
您想水疗会所,天河客运站,685,0,185,0,2.4,23.181372,113.35444
白梧桐私人定制会所,天河客运站,817,0,87,0,5,23.171837,113.35659
今前养生会所,天河客运站,702,0,72,0,4,23.181631,113.35434
嘉福利晶水疗,天河客运站,790,0,98,0,3.5,23.173634,113.357475
力源堂(元岗店),天河客运站,597,0,65,0,3.7,23.174551,113.35584
海之悦休闲会馆,西朗,516,0,189,0,3,23.066916,113.23617
得悦休闲阁,西朗,723,0,128,0,3.3,23.07725,113.2405
广州金逸国际影城(和业店),陈家祠,477,0,65,0,4,23.127415,113.253746
逸康金阁休闲中心,陈家祠,782,0,169,0,3.1,23.138283,113.25521
康泰休闲按摩,陈家祠,751,0,100,0,2.4,23.126078,113.24856
佰盛堂健康休闲中心,陈家祠,580,0,201,0,4.2,23.131712,113.25845
足采堂健康休闲中心,陈家祠,790,0,65,0,4.3,23.135315,113.25938
良子沐足推拿,陈家祠,748,0,68,0,4.5,23.1323,113.2455
足语轩养生馆,陈家祠,669,0,51,0,5,23.13755,113.25168
美健能量工房,陈家祠,472,0,98,0,4,23.128252,113.25561
利足堂健康休闲中心,陈家祠,734,0,69,0,3.9,23.135267,113.25876
神康盲人保健按摩所,陈家祠,927,0,50,0,5,23.136482,113.26014
九九众康中医养生(中山八分店),陈家祠,817,0,98,0,4.3,23.13007,113.24496
东升医院按摩中心,陈家祠,967,0,64,0,3.6,23.125187,113.259155
九九众康中医养生(文昌南店),陈家祠,958,0,78,0,-1,23.1232,113.25074
泺乐婴儿生活馆,陈家祠,868,0,568,0,4.1,23.128473,113.245
康泰休闲按摩,长寿路,220,0,100,0,2.4,23.126078,113.24856
芝美,长寿路,217,0,139,0,2,23.122446,113.247444
广州金逸国际影城(和业店),长寿路,643,0,65,0,4,23.127415,113.253746
知足常乐(多宝路),长寿路,450,0,66,0,3.9,23.122372,113.244606
良子沐足推拿,长寿路,965,0,68,0,4.5,23.1323,113.2455
九九众康中医养生(文昌南店),长寿路,241,0,78,0,-1,23.1232,113.25074
美健能量工房,长寿路,853,0,98,0,4,23.128252,113.25561
泺乐婴儿生活馆,长寿路,609,0,568,0,4.1,23.128473,113.245
九九众康中医养生(中山八分店),长寿路,760,0,98,0,4.3,23.13007,113.24496
丛桂路,长寿路,745,0,75,0,-1,23.117737,113.24628
金日健康中心,江泰路,101,0,278,0,3.4,23.089302,113.28693
星都会KTV,江泰路,243,0,80,0,4.5,23.089724,113.28511
凤阳休闲健康中心,江泰路,105,0,338,0,2.5,23.088142,113.287994
江南水湾休闲会所,江泰路,923,0,241,0,3,23.081856,113.292564
潇洒皇宫休闲中心,江泰路,796,0,160,0,2.3,23.092018,113.29372
嘉信桑拿保健中心,江泰路,617,0,340,0,2.3,23.083261,113.2847
御安阁,江泰路,674,0,178,0,1.7,23.092508,113.29185
星都养生馆,江泰路,927,0,111,0,3.8,23.094316,113.28062
紫禁之城星都会KTV(润政广场店),江泰路,264,0,66,0,-1,23.090084,113.28519
逸美健养生中心,江泰路,844,0,78,0,4.2,23.0952,113.283325
扶之堂中医推拿馆,江泰路,803,0,97,0,4.7,23.08945,113.27923
脊柱运动梳理(昌岗店),江泰路,867,0,200,0,4.3,23.0962,113.287
花城广场,珠江新城,618,0,140,0,4.7,23.120588,113.331055
广州大剧院,珠江新城,472,0,298,0,4.7,23.121054,113.32866
广州UA花城汇影院,珠江新城,857,0,56,0,4.1,23.132187,113.331276
康逸居沐足推拿(花城大道店),珠江新城,244,0,143,0,3.7,23.12474,113.325356
慧足轩大型休闲中心,珠江新城,246,0,80,0,4.2,23.125065,113.32529
广州金逸国际影城(维家思店),珠江新城,918,0,55,0,4.3,23.130981,113.334114
水汇国际休闲会所,珠江新城,692,0,332,0,3.6,23.129568,113.32285
非凡足迹(广州珠江新城店),珠江新城,565,0,257,0,4.6,23.123901,113.32235
益康推拿,珠江新城,748,0,60,0,4.8,23.123875,113.32052
芭黎晚香私人形象定制,珠江新城,726,0,348,0,-1,23.12538,113.33479
帝王休闲中心,礌岗,960,0,178,0,3.3,23.041334,113.16539
良子按摩馆,礌岗,959,0,227,0,-1,23.057302,113.15825
童康堂,礌岗,876,0,93,0,-1,23.041595,113.160126
妙手扶正养生馆,礌岗,648,0,100,0,-1,23.046333,113.15637
星海音乐学院-音乐厅,大学城北,563,0,80,0,5,23.065163,113.38646
高乐糕DIY烘焙坊,大学城北,889,0,70,0,4.7,23.067316,113.40007
金沙湾沐足城,大沙地,135,0,126,0,3.8,23.109293,113.453804
帝豪量贩KTV音乐会所(黄埔店),大沙地,533,0,53,0,3.6,23.104427,113.45056
康民盲人按摩(大沙地店),大沙地,184,0,65,0,4.7,23.108751,113.45436
永成盲人按摩休闲中心,大沙地,593,0,60,0,4.6,23.107292,113.458115
新港成人之美成人用品店(黄埔分店),大沙地,924,0,95,0,-1,23.111155,113.46126
纳米汗蒸馆,大沙地,846,0,86,0,4.4,23.111921,113.460144
足福堂(雅足堂。 键莱盲人),大沙地,819,0,60,0,3.9,23.108915,113.46058
银丰沐足,黄村,591,0,67,0,3.2,23.13323,113.413795
鼎福休闲中心,黄村,848,0,148,0,3.1,23.130938,113.41425
康逸休闲中心,黄村,689,0,114,0,1,23.132376,113.41429
喜阳真人CS拓展基地,黄村,381,0,65,0,-1,23.1416,113.41542
鼎福休闲酒店-KTV,黄村,851,0,150,0,4.2,23.130905,113.414246
广东奥林匹克大酒店-沐足室,黄村,527,0,128,0,4,23.143213,113.41468
安然纳米汗蒸馆(假日新街店),黄村,829,0,98,0,5,23.132456,113.40902
广州首泰,黄村,833,0,217,0,-1,23.1323,113.4092
花城广场,广州塔,964,0,140,0,4.7,23.120588,113.331055
启源养生会所（琴海居店）,广州塔,667,0,155,0,4.3,23.111126,113.32333
手心足·养生馆,广州塔,731,0,55,0,4.4,23.10566,113.32785
帝景酒店沐足中心,广州塔,516,0,78,0,5,23.109213,113.33384
瑞足轩商务养生会所,广州塔,615,0,75,0,4.4,23.111092,113.32385
鼎足休闲会,沥滘,734,0,118,0,5,23.06722,113.32673
正脊益理疗养生,沥滘,574,0,100,0,1,23.065828,113.32625
浅草健康休闲中心,萧岗,865,0,78,0,3.5,23.206064,113.27847
江美休闲会所,萧岗,988,0,350,0,2.2,23.213402,113.28496
浪漫水乡休闲会所,萧岗,991,0,150,0,2.5,23.211594,113.280685
圆梦高歌,萧岗,945,0,108,0,-1,23.212982,113.28481
九号行馆水疗城,广州东站,141,0,258,0,3.9,23.155704,113.32945
浅水湾休闲会所,广州东站,301,0,95,0,3.9,23.157112,113.328255
广州国会夜总会,广州东站,487,0,842,0,4.2,23.151716,113.33256
大汉休闲会所,广州东站,528,0,98,0,4,23.151712,113.32822
水云宫休闲会所,广州东站,479,0,438,0,3.8,23.15684,113.33539
紫东湾会所,广州东站,837,0,88,0,3.8,23.158264,113.32309
颐康阁养生馆,广州东站,311,0,94,0,4.2,23.153511,113.33257
新力沐足中心,广州东站,927,0,96,0,4.9,23.149067,113.336174
益元中医馆,广州东站,749,0,87,0,4.8,23.15031,113.33507
富城休闲中心,广州东站,919,0,300,0,1.9,23.147688,113.32914
决胜温莎,广州东站,876,0,78,0,3,23.147928,113.33062
资元堂顶级休闲养生会所,广州东站,994,0,90,0,3.7,23.147146,113.32841
名城水疗,广州东站,974,0,138,0,3.7,23.153654,113.321594
粤都保健沐足,广州东站,924,0,98,0,2,23.163336,113.33466
康怡休闲会所,广州东站,991,0,94,0,4,23.14871,113.33671
莉菀养生会所,广州东站,877,0,107,0,4.3,23.160963,113.33733
Yoho Keon,广州东站,388,0,85,0,4.4,23.152342,113.330376
广州UA花城汇影院,天河南,549,0,56,0,4.1,23.132187,113.331276
喻足轩,天河南,177,0,65,0,4,23.136065,113.32936
飞扬电影城(正佳店),天河南,351,0,57,0,3.8,23.138704,113.33366
广州金逸国际影城(维家思店),天河南,764,0,55,0,4.3,23.130981,113.334114
梦之桥休闲中心,天河南,686,0,65,0,4.7,23.135767,113.32414
金瑶池,天河南,466,0,123,0,4.1,23.13597,113.33509
御都SPA休闲会所,天河南,661,3,386,2.6,3.9,23.142708,113.332825
子午中医养生馆,天河南,249,0,73,0,4.2,23.134848,113.33071
国德国际大酒店-水疗桑拿馆,天河南,963,0,500,0,3.8,23.141806,113.33861
保元堂,天河南,377,0,78,0,4.4,23.135412,113.32749
天水伊人,天河南,363,0,172,0,5,23.138884,113.33367
山林间健康养生会所,天河南,618,0,80,0,3.5,23.134018,113.32565
宇星盲人中医推拿,天河南,654,0,72,0,4.3,23.136692,113.33708
御足堂广天店,天河南,734,0,75,0,3.9,23.133175,113.33648
世外桃源至尊国际休闲会所,天河南,962,0,368,0,3.7,23.141787,113.33861
安然纳米汗蒸馆(体育西店),天河南,316,0,58,0,4.5,23.137373,113.327614
优昊家族(时尚天河店),天河南,318,0,52,0,4.5,23.139542,113.33232
一舞爵士汇,天河南,445,0,2042,0,4.8,23.134914,113.33435
名豪盛会量贩KTV,天河南,513,0,167,0,3.5,23.139353,113.32631
道家归真养生堂,天河南,613,0,238,0,4,23.137173,113.33669
丰盈国际休闲会所,嘉禾望岗,760,0,148,0,3.8,23.242697,113.28776
大唐足道,嘉禾望岗,658,0,103,0,4.3,23.245314,113.28887
君港休闲会所,嘉禾望岗,913,0,188,0,3,23.240917,113.28673
康美沐足,嘉禾望岗,745,0,68,0,2.9,23.244144,113.28781
明轩休闲,嘉禾望岗,821,0,50,0,3.7,23.250708,113.292274
嘉荣沐足,嘉禾望岗,652,0,350,0,5,23.246172,113.28926
云水瑶,嘉禾望岗,913,0,198,0,3.3,23.240917,113.28673
大都会KTV,嘉禾望岗,841,0,100,0,3.8,23.251137,113.293076
紫兰会KTV,嘉禾望岗,962,0,350,0,4,23.236723,113.28968
虾虾霸霸钓虾场,龙溪,260,0,69,0,-1,23.071112,113.19678
广州UA花城汇影院,黄埔大道,66,0,56,0,4.1,23.132187,113.331276
广州金逸国际影城(维家思店),黄埔大道,378,0,55,0,4.3,23.130981,113.334114
飞扬电影城(正佳店),黄埔大道,725,0,57,0,3.8,23.138704,113.33366
梦之桥休闲中心,黄埔大道,772,0,65,0,4.7,23.135767,113.32414
金瑶池,黄埔大道,561,0,123,0,4.1,23.13597,113.33509
喻足轩,黄埔大道,408,0,65,0,4,23.136065,113.32936
子午中医养生馆,黄埔大道,241,0,73,0,4.2,23.134848,113.33071
水汇国际休闲会所,黄埔大道,894,0,332,0,3.6,23.129568,113.32285
保元堂,黄埔大道,463,0,78,0,4.4,23.135412,113.32749
山林间健康养生会所,黄埔大道,558,0,80,0,3.5,23.134018,113.32565
御足堂广天店,黄埔大道,571,0,75,0,3.9,23.133175,113.33648
宇星盲人中医推拿,黄埔大道,772,0,72,0,4.3,23.136692,113.33708
天水伊人,黄埔大道,744,0,172,0,5,23.138884,113.33367
恒大院线,黄埔大道,292,0,137,0,-1,23.132713,113.33378
一舞爵士汇,黄埔大道,430,0,2042,0,4.8,23.134914,113.33435
芭黎晚香私人形象定制,黄埔大道,903,0,348,0,-1,23.12538,113.33479
名豪盛会量贩KTV,黄埔大道,878,0,167,0,3.5,23.139353,113.32631
益健棋牌推拿,黄埔大道,861,0,60,0,4.7,23.134722,113.33904
道家归真养生堂,黄埔大道,773,0,238,0,4,23.137173,113.33669
安然纳米汗蒸馆(体育西店),黄埔大道,621,0,58,0,4.5,23.137373,113.327614
金逸国际影城,江南西,197,0,52,0,5,23.101917,113.27966
炳胜金矿食唱KTV,江南西,938,0,66,0,3.5,23.105406,113.2893
聚脚点(前进路),江南西,468,0,61,0,4.3,23.107233,113.28262
健怡足道,江南西,680,0,74,0,4.1,23.103195,113.273705
玉珑泉休闲会馆,江南西,903,0,314,0,3.1,23.105597,113.2889
萤点,江南西,373,0,150,0,4.5,23.100359,113.2814
金太阳(青柳大街),江南西,606,0,78,0,3.8,23.099743,113.27613
金城桑拿,江南西,918,0,318,0,3.6,23.096865,113.275116
青怡足艺,江南西,698,0,88,0,4.5,23.103098,113.27353
金悦足道,江南西,978,0,137,0,4.3,23.103373,113.270775
康城沐足(江南大道中),江南西,737,0,98,0,4.4,23.097336,113.28278
月茗居,江南西,447,0,50,0,4.2,23.104195,113.27602
扶元堂(昌岗中路店),江南西,817,0,172,0,4.4,23.096375,113.28194
众胜棋牌中心,江南西,335,0,60,0,-1,23.100658,113.28116
新汇源沐足休闲,江南西,885,0,73,0,4,23.109106,113.28657
明匠曲DIY蛋糕(穗花新村店),江南西,362,3.3,64,2.8,4.5,23.102926,113.28381
邓老师中医养生馆,江南西,820,0,50,0,4.4,23.0963,113.281654
逸美健养生中心,江南西,980,0,78,0,4.2,23.0952,113.283325
CRISIS怪室真人危机逃生游戏(江南西店),江南西,265,0,107,0,4.9,23.101604,113.2818
林氏扶芫推拿,千灯湖,152,0,138,0,4.1,23.060268,113.161064
良子按摩馆,千灯湖,589,0,227,0,-1,23.057302,113.15825
佛山万达国际影城（南海万达广场店 ）,千灯湖,999,0,55,0,4,23.07034,113.16201
水都休闲商务酒店,西村,555,0,118,0,3.7,23.147276,113.24308
友明堂棋牌,西村,761,0,50,0,3.9,23.143387,113.24297
足安堂,大塘,816,0,328,0,5,23.09098,113.32746
瑞丰棋牌沐足会所,大塘,862,0,80,0,3.7,23.09097,113.32537
I do 烘焙坊(文明路店),农讲所,394,0,63,0,4.1,23.129412,113.28222
活力无限KTV(北京路店),农讲所,883,0,61,0,3.9,23.127003,113.27603
育泉休闲中心,农讲所,896,0,50,0,3.1,23.129032,113.289444
嘉年华芬兰馆,农讲所,617,0,328,0,4.4,23.127851,113.2842
扶元堂(东风中路店),农讲所,630,0,165,0,4.6,23.13767,113.27838
真精彩新派桑拿菜,农讲所,593,0,58,0,4.2,23.13036,113.27669
广州声工场录音棚(扬声影视),农讲所,479,0,497,0,5,23.129707,113.27866
活力无限KTV,农讲所,762,0,61,0,4,23.132915,113.28924
第哥休闲会所,农讲所,929,0,148,0,3.5,23.135609,113.27317
小李盲人按摩(德政北路),农讲所,373,0,56,0,4.8,23.135363,113.27925
沐足城,农讲所,776,0,68,0,-1,23.126305,113.2794
风吕足道休闲中心,农讲所,910,0,101,0,3.8,23.127258,113.27535
小朱沐足馆(北京路店),农讲所,814,0,89,0,4.3,23.127487,113.27645
悦康推拿,农讲所,745,0,70,0,3.5,23.128586,113.28732
广州市越秀区醍思觅生活馆,农讲所,849,0,58,0,-1,23.140562,113.28226
塔罗牌魔法屋,农讲所,871,0,98,0,-1,23.132042,113.27331
逃出广州,农讲所,794,0,68,0,4,23.12757,113.27665
金典酒店-沐足,车陂,56,0,138,0,4.4,23.131077,113.40147
金城桑拿(车陂店),车陂,312,0,188,0,2,23.131325,113.40487
金沙休闲中心,车陂,312,0,156,0,2,23.130592,113.40493
金潮国际,车陂,136,0,100,0,4,23.1306,113.403206
帝壹国际量贩式KTV,车陂,349,0,75,0,3.8,23.133635,113.40322
爱尚量贩式KTV(东圃店),车陂,794,0,141,0,4.4,23.125818,113.4075
逃脱反斗城,车陂,312,0,52,0,4.4,23.128958,113.40424
一品足道,车陂,336,0,55,0,2.9,23.133308,113.40013
露霖轩休闲中心,车陂,729,0,120,0,2.7,23.125967,113.396996
潮安堂,车陂,470,0,80,0,5,23.131357,113.39732
三友中医脊椎推拿馆,车陂,470,0,70,0,-1,23.131357,113.39732
阳光盲人按摩院,车陂,589,0,50,0,5,23.135122,113.39862
德益康经络养生馆,车陂,411,0,130,0,4.7,23.13443,113.40222
瑶都足生堂,车陂,360,0,110,0,4,23.131964,113.39861
天河新会所KTV,车陂,861,0,80,0,3.3,23.12792,113.40972
安然纳米汗蒸馆(假日新街店),车陂,754,0,98,0,5,23.132456,113.40902
广州首泰,车陂,768,0,217,0,-1,23.1323,113.4092
威尼斯国际水汇,黄边,459,0,280,0,3.2,23.224009,113.2937
零点水会,黄边,689,0,111,0,3.7,23.22341,113.29807
玫瑰园桑拿,黄边,607,0,350,0,1.4,23.229927,113.288086
咏乐汇量贩式连锁KTV(白宫店),黄边,873,0,58,0,3.9,23.224741,113.301414
林氏养生堂(总部店),黄边,310,0,148,0,4.2,23.23058,113.29224
伯爵宫馆,黄边,863,0,80,0,4.4,23.224762,113.30132
林氏扶芫专业推拿馆(时代玫瑰园店),黄边,183,0,83,0,3,23.22961,113.2929
乐艺陶坊,黄边,532,0,58,0,4.8,23.224766,113.29742
棕南海SPA水疗,广州火车站,853,0,233,0,3.5,23.146324,113.264366
爱心网盟(王圣堂村大街),广州火车站,943,0,200,0,2.8,23.156235,113.2535
通通健康休闲中心,广州火车站,932,0,108,0,3.5,23.160763,113.2573
成功路卡拉ok歌舞厅,广州火车站,866,0,60,0,4,23.1474,113.26722
水玲珑会馆(东山口店),东湖,936,0,236,0,4,23.129494,113.29816
熙园休闲中心,东湖,450,0,55,0,4,23.120329,113.29104
古法足道,东湖,413,0,123,0,4.1,23.118708,113.29791
东川休闲俱乐部,东湖,661,0,80,0,4,23.127098,113.29304
轻松松推拿中心,东湖,725,0,88,0,3.8,23.128038,113.29529
喜多多健康休闲,东湖,1000,0,130,0,4,23.112787,113.29285
浪程会大厅KTV,东湖,550,0,50,0,3.9,23.12588,113.29779
无双电玩租机桌游吧,东湖,795,0,51,0,3,23.126432,113.3009
雅浴涛桑拿沐足中心,三元里,84,0,62,0,2.5,23.165588,113.26292
樱桃花KTV,三元里,81,0,74,0,2.6,23.165735,113.26302
广州三元里咏乐汇ktv(咏乐汇佰乐店),三元里,138,0,63,0,3.6,23.166342,113.262886
蓝波湾休闲会所,三元里,609,0,60,0,2.8,23.162437,113.25865
浅深SPA会所,三元里,465,0,552,0,4,23.168987,113.261444
美嘉华桑拿中心,三元里,910,0,164,0,3.5,23.173439,113.2651
美嘉华休闲会馆,三元里,902,0,201,0,3.6,23.173346,113.26527
华美休闲中心(瑶台西街),三元里,762,0,80,0,3,23.165396,113.25625
豪发休闲会馆,三元里,894,0,148,0,3.6,23.168251,113.25555
123娱乐场所,三元里,805,0,64,0,3.1,23.160627,113.26968
粤康盲人按摩,三元里,384,0,54,0,4.3,23.167883,113.26113
通通健康休闲中心,三元里,830,0,108,0,3.5,23.160763,113.2573
万富山药浴保健中心,三元里,766,0,168,0,4.6,23.161257,113.26973
咏乐汇量贩式KTV,三元里,988,0,51,0,4.2,23.16638,113.273315
五福足道,三元里,654,0,69,0,3.7,23.166883,113.25752
广州米蒂录音棚,三元里,418,0,150,0,5,23.16848,113.26142
足道王专业修脚堂三元里分店,三元里,419,0,52,0,3.5,23.165642,113.2678
安然纳米汗蒸馆(抗英大街店),三元里,438,0,61,0,3.7,23.164831,113.26796
康尔乐养生堂,三元里,855,0,89,0,4.1,23.172834,113.261765
星龙量贩式KTV,三元里,697,0,58,0,4.4,23.166004,113.27049
新新按摩院(一德路店),一德路,212,0,50,0,5,23.118473,113.261734
东亚会会所,一德路,251,0,146,0,3.7,23.117022,113.26471
足之轩沐足,一德路,312,0,72,0,4.5,23.116335,113.26432
启悦沐足,一德路,719,0,198,0,3.5,23.124104,113.26814
富侨保健(广州旗舰店),一德路,728,0,70,0,3.1,23.11514,113.26939
尚品简道沐足,一德路,864,0,126,0,4.3,23.126677,113.26186
富侨棋牌沐足,一德路,736,0,61,0,3.4,23.115074,113.269424
广州筋骨堂（海珠）总店,一德路,862,0,120,0,5,23.112848,113.26872
东升医院按摩中心,一德路,822,0,64,0,3.6,23.125187,113.259155
力圣足疗会所,黄陂,663,0,118,0,2.8,23.193245,113.44601
K歌王量贩式KTV(天河东路店),体育中心,535,2.8,67,3.1,4.1,23.142649,113.339745
飞扬电影城(正佳店),体育中心,261,0,57,0,3.8,23.138704,113.33366
国德国际大酒店-水疗桑拿馆,体育中心,393,0,500,0,3.8,23.141806,113.33861
御都SPA休闲会所,体育中心,307,3,386,2.6,3.9,23.142708,113.332825
天水伊人,体育中心,243,0,172,0,5,23.138884,113.33367
世外桃源至尊国际休闲会所,体育中心,392,0,368,0,3.7,23.141787,113.33861
金瑶池,体育中心,530,0,123,0,4.1,23.13597,113.33509
宇星盲人中医推拿,体育中心,500,0,72,0,4.3,23.136692,113.33708
广州野战拓展,体育中心,138,0,125,0,5,23.14015,113.33613
喻足轩,体育中心,771,0,65,0,4,23.136065,113.32936
威尔斯国际(商务)娱乐会所,体育中心,438,0,65,0,4.3,23.144674,113.33529
LAVISKI,体育中心,589,0,87,0,5,23.14474,113.33873
优昊家族(时尚天河店),体育中心,298,0,52,0,4.5,23.139542,113.33232
伸适健(天河路店),体育中心,322,0,138,0,3.8,23.1434,113.33369
道家归真养生堂,体育中心,435,0,238,0,4,23.137173,113.33669
新力沐足中心,体育中心,934,0,96,0,4.9,23.149067,113.336174
嘉逸国际酒店-沐足与推拿中心,体育中心,932,0,70,0,-1,23.146582,113.34148
御足堂广天店,体育中心,856,0,75,0,3.9,23.133175,113.33648
华侨友谊酒店懂生沐足中心,体育中心,653,0,131,0,3.4,23.137096,113.33995
富城休闲中心,体育中心,973,0,300,0,1.9,23.147688,113.32914
足心堂健康休闲中心,晓港,72,0,120,0,3.7,23.098848,113.288795
炳胜金矿食唱KTV,晓港,680,0,66,0,3.5,23.105406,113.2893
东晓桑拿,晓港,678,0,138,0,3.1,23.104849,113.291214
玉珑泉休闲会馆,晓港,696,0,314,0,3.1,23.105597,113.2889
潇洒皇宫休闲中心,晓港,983,0,160,0,2.3,23.092018,113.29372
康城沐足(江南大道中),晓港,611,0,98,0,4.4,23.097336,113.28278
根据地休闲中心,晓港,699,0,61,0,4,23.100304,113.2951
魅力喜舍健康养疗,晓港,567,0,59,0,4.7,23.10221,113.292946
扶元堂(昌岗中路店),晓港,733,0,172,0,4.4,23.096375,113.28194
御安阁,晓港,841,0,178,0,1.7,23.092508,113.29185
萤点,晓港,719,0,150,0,4.5,23.100359,113.2814
金逸国际影城,晓港,932,0,52,0,5,23.101917,113.27966
逸美健养生中心,晓港,690,0,78,0,4.2,23.0952,113.283325
星都养生馆,晓港,968,0,111,0,3.8,23.094316,113.28062
明匠曲DIY蛋糕(穗花新村店),晓港,610,3.3,64,2.8,4.5,23.102926,113.28381
脊柱运动梳理(昌岗店),晓港,376,0,200,0,4.3,23.0962,113.287
木易克斯(广州睿媛店),晓港,665,0,137,0,-1,23.102232,113.294044
邓老师中医养生馆,晓港,763,0,50,0,4.4,23.0963,113.281654
众胜棋牌中心,晓港,749,0,60,0,-1,23.100658,113.28116
CRISIS怪室真人危机逃生游戏(江南西店),晓港,714,0,107,0,4.9,23.101604,113.2818
御足坊休闲中心,人和,68,0,188,0,4.2,23.341022,113.30212
健乐盲人按摩,人和,48,0,90,0,4.4,23.341965,113.30262
金龙湾休闲会所,人和,293,0,329,0,2.9,23.343254,113.30026
后宫沐足,人和,108,0,200,0,3.3,23.341951,113.30148
新地休闲中心,人和,217,0,169,0,2.7,23.343369,113.30166
好旺角沐足养生会所,人和,560,0,150,0,4.4,23.337545,113.30579
名馆KTV,人和,230,0,72,0,3.7,23.343458,113.30157
妙手推拿,人和,175,0,80,0,4.5,23.342054,113.30409
青云棋牌室,人和,562,0,50,0,-1,23.337528,113.30579
嘉成轩,人和,599,0,500,0,4,23.337917,113.306786
浅水湾养生会馆,季华园,55,0,77,0,3.9,23.013266,113.11538
安然纳米汗蒸馆(季华园店),季华园,129,0,56,0,3.9,23.013338,113.116234
皇庭国际俱乐部,季华园,865,0,1000,0,3.5,23.012184,113.10666
新满意足,季华园,441,0,218,0,3.8,23.01372,113.1193
云顶天境,季华园,595,0,189,0,3.7,23.007622,113.11379
丽日沐足中心,季华园,989,0,85,0,4.1,23.004162,113.117195
金怡休闲会所,季华园,942,0,99,0,3.8,23.016024,113.12363
福生圆(佛山季华店),季华园,702,0,120,0,3.9,23.017956,113.11105
中泰盲人传统按摩院,季华园,914,0,63,0,4.6,23.01993,113.11961
鸿胜堂,季华园,928,0,59,0,4.4,23.020452,113.11883
安然纳米汗蒸馆(惠景城店),季华园,648,0,156,0,3,23.007183,113.11357
帝王休闲中心,南桂路,513,0,178,0,3.3,23.041334,113.16539
童康堂,南桂路,148,0,93,0,-1,23.041595,113.160126
芭迪雅足浴城桂澜店,南桂路,525,0,78,0,2.6,23.035622,113.16117
同乐歌舞厅,南桂路,517,0,63,0,-1,23.035938,113.16224
新自然养生会馆,南桂路,630,0,88,0,4.1,23.03485,113.1622
怡康盲人按摩中心,南桂路,624,0,55,0,4.7,23.034912,113.16219
康泰盲人推拿,南桂路,860,0,70,0,-1,23.034716,113.15468
妙手扶正养生馆,南桂路,792,0,100,0,-1,23.046333,113.15637
维景水疗会,南村万博,958,0,158,0,2.7,23.016726,113.34814
御足阁,南村万博,932,0,78,0,3.7,23.015842,113.347565
绿然养生会所,南村万博,871,0,105,0,4.3,23.002726,113.35624
好青松盲人推拿中心,南村万博,857,0,60,0,4.5,23.002697,113.35405
得悦休闲阁,鹤洞,603,0,128,0,3.3,23.07725,113.2405
广州UA花城汇影院,体育西路,622,0,56,0,4.1,23.132187,113.331276
喻足轩,体育西路,166,0,65,0,4,23.136065,113.32936
飞扬电影城(正佳店),体育西路,608,0,57,0,3.8,23.138704,113.33366
安然纳米汗蒸馆(体育西店),体育西路,65,0,58,0,4.5,23.137373,113.327614
梦之桥休闲中心,体育西路,417,0,65,0,4.7,23.135767,113.32414
广州金逸国际影城(维家思店),体育西路,907,0,55,0,4.3,23.130981,113.334114
保元堂,体育西路,176,0,78,0,4.4,23.135412,113.32749
御都SPA休闲会所,体育西路,808,3,386,2.6,3.9,23.142708,113.332825
金瑶池,体育西路,729,0,123,0,4.1,23.13597,113.33509
山林间健康养生会所,体育西路,403,0,80,0,3.5,23.134018,113.32565
水汇国际休闲会所,体育西路,973,0,332,0,3.6,23.129568,113.32285
名豪盛会量贩KTV,体育西路,322,0,167,0,3.5,23.139353,113.32631
天水伊人,体育西路,617,0,172,0,5,23.138884,113.33367
子午中医养生馆,体育西路,358,0,73,0,4.2,23.134848,113.33071
优昊家族(时尚天河店),体育西路,527,0,52,0,4.5,23.139542,113.33232
皇家轩尼诗俱乐部,体育西路,595,0,200,0,4,23.140657,113.32386
一舞爵士汇,体育西路,684,0,2042,0,4.8,23.134914,113.33435
恒大院线,体育西路,751,0,137,0,-1,23.132713,113.33378
宇星盲人中医推拿,体育西路,926,0,72,0,4.3,23.136692,113.33708
御足堂广天店,体育西路,959,0,75,0,3.9,23.133175,113.33648
丽影盛会量贩式KTV,客村,84,2.6,56,3,3.6,23.101645,113.32646
喜康盲人按摩,客村,123,0,64,0,4.7,23.102213,113.32592
新乐轩水会,客村,922,0,211,0,3.8,23.096882,113.334114
足道乐休闲中心,客村,603,0,78,0,2.5,23.102837,113.32127
永安堂盲人按摩,客村,246,0,57,0,4.4,23.101503,113.32943
坚真休闲中心,客村,999,0,188,0,2.9,23.093145,113.32648
御足轩休闲馆,客村,703,0,130,0,4,23.100574,113.333786
手心足·养生馆,客村,401,0,55,0,4.4,23.10566,113.32785
德馨阁,客村,883,0,50,0,4.3,23.096357,113.32116
和顺堂,客村,925,0,108,0,4.4,23.106667,113.31954
海健盲人按摩,客村,711,0,50,0,5,23.101328,113.32021
名星会量贩式KTV,洛溪,303,0,245,0,4,23.049334,113.30818
健桥盲人按摩,洛溪,179,0,91,0,4.8,23.049942,113.303604
尚雅荟汗蒸养生馆,洛溪,153,0,124,0,4.3,23.050507,113.30445
阳光沐足城,洛溪,572,0,108,0,2.7,23.045855,113.309364
权健秘方养生会所,洛溪,231,0,88,0,4.5,23.050976,113.30386
福兴盲人推拿,洛溪,238,0,60,0,4.3,23.051,113.30378
同辉棋牌,洛溪,295,0,260,0,3,23.048883,113.30806
华康按摩,洛溪,407,0,60,0,4,23.04748,113.30866
嘉泉休闲会所,洛溪,983,0,152,0,3.2,23.045153,113.3137
泽道经络养生,洛溪,290,0,74,0,-1,23.047085,113.306694
广州UA花城汇影院,妇儿中心,434,0,56,0,4.1,23.132187,113.331276
花城广场,妇儿中心,854,0,140,0,4.7,23.120588,113.331055
广州大剧院,妇儿中心,844,0,298,0,4.7,23.121054,113.32866
广州金逸国际影城(维家思店),妇儿中心,422,0,55,0,4.3,23.130981,113.334114
水汇国际休闲会所,妇儿中心,866,0,332,0,3.6,23.129568,113.32285
康逸居沐足推拿(花城大道店),妇儿中心,716,0,143,0,3.7,23.12474,113.325356
金瑶池,妇儿中心,942,0,123,0,4.1,23.13597,113.33509
芭黎晚香私人形象定制,妇儿中心,487,0,348,0,-1,23.12538,113.33479
喻足轩,妇儿中心,886,0,65,0,4,23.136065,113.32936
御足堂广天店,妇儿中心,765,0,75,0,3.9,23.133175,113.33648
慧足轩大型休闲中心,妇儿中心,703,0,80,0,4.2,23.125065,113.32529
山林间健康养生会所,妇儿中心,855,0,80,0,3.5,23.134018,113.32565
保元堂,妇儿中心,880,0,78,0,4.4,23.135412,113.32749
润元堂,妇儿中心,916,0,132,0,4,23.12588,113.33979
子午中医养生馆,妇儿中心,732,0,73,0,4.2,23.134848,113.33071
恒大院线,妇儿中心,558,0,137,0,-1,23.132713,113.33378
一舞爵士汇,妇儿中心,805,0,2042,0,4.8,23.134914,113.33435
沐谷休闲会所,大石,381,0,83,0,2.7,23.02025,113.32695
金玉泉沐足休闲中心,大石,715,0,68,0,4.4,23.026566,113.32194
金爵水疗,大石,638,0,280,0,2.6,23.028044,113.32424
维加斯休闲会,大石,891,0,214,0,3.1,23.01615,113.33152
碧缘轩休闲中心,大石,451,0,66,0,4,23.020716,113.3249
悦色沐足,大石,959,0,100,0,3.4,23.01979,113.31963
万盛名家酒店-沐足桑拿,大石,949,0,60,0,1,23.018108,113.32091
碧缘轩养生堂,大石,806,0,66,0,1,23.016945,113.33143
成鹏休闲中心,中山八,371,0,200,0,2.5,23.134396,113.240616
良子沐足推拿,中山八,629,0,68,0,4.5,23.1323,113.2455
岭南会休闲中心,中山八,704,0,80,0,3.7,23.125591,113.23631
九九众康中医养生(中山八分店),中山八,577,0,98,0,4.3,23.13007,113.24496
泺乐婴儿生活馆,中山八,644,0,568,0,4.1,23.128473,113.245
渔人码头钓虾场,中山八,936,0,60,0,3.9,23.133755,113.23071
易嘉休闲会所,钟村,886,0,88,0,3.8,22.984179,113.32301
新港成人之美成人用品店（番禺分店）,钟村,958,0,86,0,1,22.983591,113.321815
威尼斯国际水汇,江夏,827,0,280,0,3.2,23.224009,113.2937
江美休闲会所,江夏,666,0,350,0,2.2,23.213402,113.28496
尚美足道生活馆,江夏,867,0,80,0,4.4,23.211044,113.29428
维加斯会所,江夏,875,0,120,0,2.9,23.211872,113.295555
安然纳米汗蒸馆(江夏店),江夏,499,0,68,0,4.6,23.21378,113.28702
圆梦高歌,江夏,710,0,108,0,-1,23.212982,113.28481
得悦休闲阁,坑口,834,0,128,0,3.3,23.07725,113.2405
佰音KTV,潭村,560,0,51,0,3.9,23.128069,113.351906
尚水国际水疗会馆,潭村,554,0,218,0,3.8,23.127989,113.35176
在水一方至尊国际休闲会所,潭村,910,0,155,0,3.7,23.129877,113.34764
柏高沐足,潭村,768,0,68,0,4,23.126022,113.35936
Gate关真人密室逃脱(员村店),潭村,976,0,58,0,4.6,23.128899,113.359695
活力无限KTV(北京路店),北京路,235,0,61,0,3.9,23.127003,113.27603
Cocok,北京路,396,0,50,0,4.4,23.121426,113.2772
南方剧院,北京路,668,0,50,0,4.2,23.129725,113.27254
风吕足道休闲中心,北京路,283,0,101,0,3.8,23.127258,113.27535
唐潮棋牌,北京路,341,0,50,0,3.3,23.125984,113.273346
银海KTV,北京路,578,0,75,0,4.5,23.121895,113.28107
沐足城,北京路,335,0,68,0,-1,23.126305,113.2794
小朱沐足馆(北京路店),北京路,284,0,89,0,4.3,23.127487,113.27645
P-PASS派歌量贩式KTV,北京路,865,0,65,0,4.5,23.121454,113.28405
I do 烘焙坊(文明路店),北京路,769,0,63,0,4.1,23.129412,113.28222
嘉年华芬兰馆,北京路,853,0,328,0,4.4,23.127851,113.2842
真精彩新派桑拿菜,北京路,603,0,58,0,4.2,23.13036,113.27669
平步青云沐足堂,北京路,815,0,135,0,4.5,23.122515,113.284004
启悦沐足,北京路,857,0,198,0,3.5,23.124104,113.26814
逃出广州,北京路,293,0,68,0,4,23.12757,113.27665
X先生密室,北京路,950,0,87,0,4.1,23.131378,113.27037
广州声工场录音棚(扬声影视),北京路,576,0,497,0,5,23.129707,113.27866
塔罗牌魔法屋,北京路,854,0,98,0,-1,23.132042,113.27331
谜室,北京路,385,0,53,0,-1,23.127342,113.27377
F276,北京路,593,0,164,0,4.4,23.121574,113.281
K歌王量贩式KTV(天河东路店),石牌桥,437,2.8,67,3.1,4.1,23.142649,113.339745
飞扬电影城(正佳店),石牌桥,465,0,57,0,3.8,23.138704,113.33366
国德国际大酒店-水疗桑拿馆,石牌桥,316,0,500,0,3.8,23.141806,113.33861
世外桃源至尊国际休闲会所,石牌桥,314,0,368,0,3.7,23.141787,113.33861
金瑶池,石牌桥,461,0,123,0,4.1,23.13597,113.33509
广州金逸国际影城(维家思店),石牌桥,982,0,55,0,4.3,23.130981,113.334114
御都SPA休闲会所,石牌桥,688,3,386,2.6,3.9,23.142708,113.332825
嘉年华桑拿,石牌桥,832,0,406,0,3.1,23.134438,113.344666
宇星盲人中医推拿,石牌桥,278,0,72,0,4.3,23.136692,113.33708
御都桑拿,石牌桥,927,0,269,0,4.2,23.131964,113.3431
天水伊人,石牌桥,463,0,172,0,5,23.138884,113.33367
广州野战拓展,石牌桥,248,0,125,0,5,23.14015,113.33613
道家归真养生堂,石牌桥,253,0,238,0,4,23.137173,113.33669
华侨友谊酒店懂生沐足中心,石牌桥,275,0,131,0,3.4,23.137096,113.33995
御足堂广天店,石牌桥,669,0,75,0,3.9,23.133175,113.33648
LAVISKI,石牌桥,642,0,87,0,5,23.14474,113.33873
喻足轩,石牌桥,960,0,65,0,4,23.136065,113.32936
嘉逸国际酒店-沐足与推拿中心,石牌桥,909,0,70,0,-1,23.146582,113.34148
益健棋牌推拿,石牌桥,481,0,60,0,4.7,23.134722,113.33904
威尔斯国际(商务)娱乐会所,石牌桥,699,0,65,0,4.3,23.144674,113.33529
飞龙桑拿,鹭江,153,0,200,0,3.1,23.101477,113.31326
名城贵足,鹭江,812,0,161,0,4.3,23.108555,113.31619
足道乐休闲中心,鹭江,685,0,78,0,2.5,23.102837,113.32127
德馨阁,鹭江,860,0,50,0,4.3,23.096357,113.32116
和顺堂,鹭江,765,0,108,0,4.4,23.106667,113.31954
龙城推拿浴药沐足,鹭江,989,0,300,0,2.9,23.097778,113.30591
德林堂经络养生馆,鹭江,573,0,67,0,4.1,23.097612,113.31859
祝安盲人按摩院,鹭江,787,0,50,0,4.3,23.108324,113.31328
海健盲人按摩,鹭江,558,0,50,0,5,23.101328,113.32021
新珠江大酒店-休闲会所,鹭江,811,0,566,0,4,23.108662,113.31503
广州加洲影院,新港东,954,0,100,0,3.6,23.110558,113.35711
广州太古仓电影库,沙园,799,0,80,0,1,23.095448,113.25919
泰殿水会,沙园,539,0,309,0,3.4,23.090258,113.26909
翠逸阁足浴中心,沙园,321,0,55,0,5,23.09687,113.26905
金城桑拿,沙园,867,0,318,0,3.6,23.096865,113.275116
足绿阁沐足,沙园,675,0,80,0,4.1,23.097921,113.27257
逸之泉沐足休闲中心,沙园,902,0,65,0,4.1,23.102673,113.26531
盲人推拿,沙园,321,0,80,0,5,23.092031,113.26576
吉利盲人按摩,沙园,453,0,55,0,4.5,23.098776,113.26703
百莲凯(昌岗中路),沙园,907,0,113,0,3,23.091846,113.275276
金逸桑拿(广新路),文冲,522,0,250,0,2.5,23.104809,113.47596
水悦休闲会所,文冲,741,0,138,0,3.7,23.106585,113.46897
皇马俱乐部,文冲,826,0,115,0,4.5,23.102179,113.477005
龙城水疗会所,文冲,923,0,179,0,2.7,23.101858,113.47908
海上明珠,文冲,984,0,100,0,3.6,23.101301,113.47917
乐园沐足城,文冲,719,0,180,0,2.5,23.103014,113.47534
足悦沐足休闲中心,文冲,803,0,58,0,3,23.10638,113.46841
景运盲人按摩（黄埔店）,文冲,776,0,60,0,4,23.10964,113.4679
广州UA花城汇影院,体育中心南,857,0,56,0,4.1,23.132187,113.331276
飞扬电影城(正佳店),体育中心南,375,0,57,0,3.8,23.138704,113.33366
catwalk酒吧,体育中心南,947,0,100,0,4.3,23.147676,113.32657
御都SPA休闲会所,体育中心南,417,3,386,2.6,3.9,23.142708,113.332825
梦之桥休闲中心,体育中心南,766,0,65,0,4.7,23.135767,113.32414
国德国际大酒店-水疗桑拿馆,体育中心南,887,0,500,0,3.8,23.141806,113.33861
喻足轩,体育中心南,427,0,65,0,4,23.136065,113.32936
金瑶池,体育中心南,659,0,123,0,4.1,23.13597,113.33509
天水伊人,体育中心南,371,0,172,0,5,23.138884,113.33367
保元堂,体育中心南,563,0,78,0,4.4,23.135412,113.32749
世外桃源至尊国际休闲会所,体育中心南,887,0,368,0,3.7,23.141787,113.33861
名豪盛会量贩KTV,体育中心南,400,0,167,0,3.5,23.139353,113.32631
山林间健康养生会所,体育中心南,795,0,80,0,3.5,23.134018,113.32565
宇星盲人中医推拿,体育中心南,786,0,72,0,4.3,23.136692,113.33708
优昊家族(时尚天河店),体育中心南,220,0,52,0,4.5,23.139542,113.33232
安然纳米汗蒸馆(体育西店),体育中心南,379,0,58,0,4.5,23.137373,113.327614
伸适健(天河路店),体育中心南,534,0,138,0,3.8,23.1434,113.33369
子午中医养生馆,体育中心南,556,0,73,0,4.2,23.134848,113.33071
资元堂顶级休闲养生会所,体育中心南,833,0,90,0,3.7,23.147146,113.32841
富城休闲中心,体育中心南,879,0,300,0,1.9,23.147688,113.32914
成鹏休闲中心,滘口,393,0,200,0,2.5,23.134396,113.240616
良子沐足推拿,滘口,622,0,68,0,4.5,23.1323,113.2455
岭南会休闲中心,滘口,687,0,80,0,3.7,23.125591,113.23631
九九众康中医养生(中山八分店),滘口,559,0,98,0,4.3,23.13007,113.24496
泺乐婴儿生活馆,滘口,620,0,568,0,4.1,23.128473,113.245
渔人码头钓虾场,滘口,957,0,60,0,3.9,23.133755,113.23071
圣贤堂(诚安店),天平架,91,0,80,0,3.5,23.16484,113.32869
豪廷国际KTV,天平架,141,0,230,0,4.2,23.166407,113.32738
神州休闲会馆,天平架,160,0,1364,0,2.5,23.166681,113.32786
怡足坊,天平架,159,0,80,0,4.3,23.166674,113.327866
步云阁休闲会所,天平架,543,0,150,0,3.3,23.168257,113.32373
浅水湾休闲会所,天平架,904,0,95,0,3.9,23.157112,113.328255
金园商务休闲会馆,天平架,683,0,300,0,3,23.169703,113.32332
紫东湾会所,天平架,919,0,88,0,3.8,23.158264,113.32309
皇廷俱乐部(兴华路),天平架,154,0,300,0,-1,23.16513,113.32641
足域休闲会馆,天平架,494,0,78,0,1,23.162813,113.32386
银河大酒店休闲服务中心,天平架,859,0,88,0,1,23.17181,113.33233
粤都保健沐足,天平架,722,0,98,0,2,23.163336,113.33466
燕岭自然养生堂,天平架,499,0,78,0,5,23.165207,113.3328
青松健盲人按摩所,天平架,693,0,55,0,4,23.161839,113.32223
鼎龙国际俱乐部,天平架,817,0,300,0,5,23.161055,113.32134
安然纳米汗蒸馆(五仙花园店),天平架,753,0,76,0,4.6,23.171993,113.32726
X先生密室,公园前,40,0,87,0,4.1,23.131378,113.27037
南方剧院,公园前,288,0,50,0,4.2,23.129725,113.27254
活力无限KTV(北京路店),公园前,754,0,61,0,3.9,23.127003,113.27603
第哥休闲会所,公园前,510,0,148,0,3.5,23.135609,113.27317
风吕足道休闲中心,公园前,685,0,101,0,3.8,23.127258,113.27535
唐潮棋牌,公园前,687,0,50,0,3.3,23.125984,113.273346
广州五航商务服务有限公司,公园前,62,0,5000,0,-1,23.131256,113.2702
真精彩新派桑拿菜,公园前,634,0,58,0,4.2,23.13036,113.27669
塔罗牌魔法屋,公园前,276,0,98,0,-1,23.132042,113.27331
聚脚点沐足棋艺光塔路连锁旗舰店,公园前,827,0,58,0,4.3,23.12962,113.262856
康乐盲人按摩中心,公园前,447,0,91,0,4.5,23.131824,113.26627
小朱沐足馆(北京路店),公园前,752,0,89,0,4.3,23.127487,113.27645
启悦沐足,公园前,876,0,198,0,3.5,23.124104,113.26814
瓦匠工社,公园前,767,0,61,0,4.7,23.133406,113.26339
广州声工场录音棚(扬声影视),公园前,847,0,497,0,5,23.129707,113.27866
逃出广州,公园前,763,0,68,0,4,23.12757,113.27665
谜室,公园前,575,0,53,0,-1,23.127342,113.27377
小李盲人按摩(德政北路),公园前,972,0,56,0,4.8,23.135363,113.27925
艺水坊会所,京溪南方医院,37,0,110,0,3.9,23.191319,113.33281
广州金逸国际影城(太阳城店),京溪南方医院,293,0,50,0,4,23.193323,113.334045
美康休闲,京溪南方医院,130,0,108,0,3.6,23.190908,113.331406
鼎宝国际休闲会所,京溪南方医院,208,0,317,0,3.5,23.189419,113.33158
爱琴海KTV(梅花园店),京溪南方医院,664,0,135,0,4.4,23.187347,113.32753
客家王休闲会馆,京溪南方医院,822,0,326,0,2.1,23.19835,113.33358
天使城桑拿,京溪南方医院,606,0,278,0,3,23.187462,113.328156
金和国际水汇,京溪南方医院,828,0,350,0,3.4,23.184893,113.328026
卡卡量贩式KTV,京溪南方医院,893,1.7,51,2,3.3,23.184345,113.32778
康足园,京溪南方医院,681,0,61,0,4.1,23.19706,113.33369
尚御堂(京溪店),京溪南方医院,649,0,117,0,4.7,23.187866,113.33803
梅花园林宾馆-梅园休闲中心,京溪南方医院,828,0,102,0,2.4,23.185131,113.327675
轩昂阁沐足推拿,京溪南方医院,550,0,80,0,3.5,23.188168,113.328255
云景名都会所,京溪南方医院,386,0,53,0,4.5,23.188831,113.33563
林氏扶芫总院,京溪南方医院,424,0,130,0,3.5,23.188148,113.33543
梅宾休闲中心,京溪南方医院,962,0,98,0,3.7,23.183975,113.32719
合一棋牌沐足,京溪南方医院,814,0,58,0,4,23.197924,113.33527
华旗纳米养生(圣地大厦店),京溪南方医院,582,0,68,0,-1,23.18786,113.32811
玄和堂养生馆,京溪南方医院,702,0,98,0,3,23.185555,113.329185
国康中医推拿,京溪南方医院,992,0,69,0,4.1,23.182232,113.33089
沙湾水汇,沙贝,329,0,268,0,2.6,23.156782,113.21495
月都城桑拿沐足,沙贝,808,0,220,0,3,23.165016,113.216415
魅力金莎KTV,沙贝,814,0,159,0,4.4,23.165112,113.21662
福康盲人按摩沐足,沙贝,622,0,78,0,4.7,23.162357,113.21428
安然纳米汗蒸馆(金沙洲店),沙贝,822,0,96,0,4.4,23.165005,113.21577
翡翠国际水会,暹岗,840,0,231,0,4.3,23.17695,113.4586
战国沐足(高德汇店),暹岗,968,0,108,0,3.5,23.17398,113.458405
粤明休闲会馆,东晓南,411,0,380,0,2.6,23.073801,113.30009
盈通国际水会,东晓南,774,0,198,0,3.5,23.08025,113.29392
劲派KTV,东晓南,519,0,57,0,3.4,23.073755,113.29772
水晶宫商务休闲会馆,东晓南,655,0,323,0,3.4,23.07272,113.3047
富侨健康休闲中心,东晓南,294,0,87,0,3.3,23.077213,113.30372
岸尚水堂水疗会馆,东晓南,962,0,404,0,2.3,23.069464,113.304504
南悦休闲会所,东晓南,584,0,280,0,2.8,23.07495,113.30588
泰丰休闲会所,东晓南,530,0,100,0,2.9,23.073473,113.29795
江南水湾休闲会所,东晓南,979,0,241,0,3,23.081856,113.292564
维雅沐足,东晓南,460,0,65,0,3.2,23.077463,113.30535
东晶富足堂,东晓南,528,0,108,0,3.9,23.072731,113.30011
大唐远足,东晓南,457,0,98,0,4.6,23.075785,113.29675
盈通桑拿有限公司,东晓南,769,0,198,0,5,23.079914,113.29382
嘉乐城休闲中心,东晓南,876,0,68,0,3.2,23.076603,113.309364
露霖轩休闲中心,车陂南,447,0,120,0,2.7,23.125967,113.396996
靓之堂(骏景欣颜坊店),车陂南,838,0,96,0,5,23.12701,113.39053
南美休闲会馆(滨江西路店),文化公园,564,4,170,3.5,3.7,23.110128,113.25717
玉龙阁桑拿健康中心,文化公园,436,0,316,0,2.6,23.11384,113.25215
新新按摩院(一德路店),文化公园,678,0,50,0,5,23.118473,113.261734
东亚会会所,文化公园,897,0,146,0,3.7,23.117022,113.26471
沙面保健中心,文化公园,883,0,128,0,5,23.113974,113.24763
足之轩沐足,文化公园,843,0,72,0,4.5,23.116335,113.26432
广州大剧院,五羊邨,960,0,298,0,4.7,23.121054,113.32866
益康推拿,五羊邨,212,0,60,0,4.8,23.123875,113.32052
水汇国际休闲会所,五羊邨,471,0,332,0,3.6,23.129568,113.32285
非凡足迹(广州珠江新城店),五羊邨,261,0,257,0,4.6,23.123901,113.32235
新花桑拿中心,五羊邨,757,0,500,0,3,23.125631,113.31339
康逸居沐足推拿(花城大道店),五羊邨,479,0,143,0,3.7,23.12474,113.325356
东兴沐足休闲阁,五羊邨,606,0,53,0,4.4,23.122149,113.31635
慧足轩大型休闲中心,五羊邨,465,0,80,0,4.2,23.125065,113.32529
汉园春水疗会所,五羊邨,787,0,200,0,5,23.119877,113.31653
清水沐居,五羊邨,582,0,66,0,4.2,23.122604,113.31626
御足堂(五羊店),五羊邨,696,0,97,0,3.9,23.12597,113.31399
乐驰棋艺馆,五羊邨,749,0,50,0,5,23.131514,113.316956
金燊汗蒸养生馆,五羊邨,751,0,88,0,4.5,23.126554,113.31349
金瑰休闲中心,桂城,666,0,88,0,3.3,23.043692,113.1486
皇都名钻KTV,桂城,657,0,475,0,2.6,23.043657,113.14794
h2真人密室逃脱,桂城,587,0,64,0,4.8,23.03261,113.14917
康泰盲人推拿,桂城,780,0,70,0,-1,23.034716,113.15468
龙之泉国际会所,鱼珠,807,0,196,0,3.8,23.112679,113.43541
熙棋沐足推拿城,鱼珠,322,0,218,0,3.3,23.1052,113.43574
天缘休闲中心第三分店,龙洞,978,0,63,0,3.7,23.19868,113.374725
新域夜总会,龙洞,870,0,96,0,3.9,23.199644,113.37605
富足阁,大沙东,52,0,88,0,3,23.111479,113.46479
水悦休闲会所,大沙东,731,0,138,0,3.7,23.106585,113.46897
新港成人之美成人用品店(黄埔分店),大沙东,376,0,95,0,-1,23.111155,113.46126
游戏天地,大沙东,604,0,100,0,4.3,23.106806,113.46293
足悦沐足休闲中心,大沙东,718,0,58,0,3,23.10638,113.46841
纳米汗蒸馆,大沙东,480,0,86,0,4.4,23.111921,113.460144
安康盲人推拿,大沙东,376,0,70,0,4.5,23.115131,113.46357
景运盲人按摩（黄埔店）,大沙东,405,0,60,0,4,23.10964,113.4679
足福堂(雅足堂。 键莱盲人),大沙东,550,0,60,0,3.9,23.108915,113.46058
永成盲人按摩休闲中心,大沙东,861,0,60,0,4.6,23.107292,113.458115
广州雅居乐花园会所,员岗,667,0,120,0,3,23.016006,113.37144
秀珊足,员岗,780,0,50,0,3.4,23.0168,113.367355
丽日沐足中心,魁奇路,520,0,85,0,4.1,23.004162,113.117195
湖城休闲会,魁奇路,808,0,58,0,1,22.999662,113.107285
云顶天境,魁奇路,873,0,189,0,3.7,23.007622,113.11379
吕师养生整脊中心(丽日店),魁奇路,511,0,88,0,3,22.999275,113.12013
安然纳米汗蒸馆(惠景城店),魁奇路,830,0,156,0,3,23.007183,113.11357
雅悦沐足阁,黄花岗,130,0,96,0,4.2,23.148455,113.30715
华旗纳米生活馆(黄花岗店),黄花岗,290,0,88,0,4.7,23.146582,113.303825
华山沐足休闲中心,黄花岗,891,0,80,0,3.5,23.140507,113.302124
健一推拿(水荫直街),黄花岗,975,0,59,0,4.2,23.144842,113.31563
暗流酒馆密室逃脱,黄花岗,892,0,73,0,5,23.140501,113.302124
金淘沐足中心,黄花岗,862,0,62,0,5,23.147594,113.29808
枕边游戏(环市东店),黄花岗,986,0,200,0,3.5,23.140446,113.312454
catwalk酒吧,林和西,390,0,100,0,4.3,23.147676,113.32657
决胜温莎,林和西,91,0,78,0,3,23.147928,113.33062
富城休闲中心,林和西,137,0,300,0,1.9,23.147688,113.32914
广州国会夜总会,林和西,556,0,842,0,4.2,23.151716,113.33256
御都SPA休闲会所,林和西,554,3,386,2.6,3.9,23.142708,113.332825
大汉休闲会所,林和西,552,0,98,0,4,23.151712,113.32822
九号行馆水疗城,林和西,956,0,258,0,3.9,23.155704,113.32945
飞扬电影城(正佳店),林和西,997,0,57,0,3.8,23.138704,113.33366
资元堂顶级休闲养生会所,林和西,198,0,90,0,3.7,23.147146,113.32841
新力沐足中心,林和西,633,0,96,0,4.9,23.149067,113.336174
天上皇宫休闲中心,林和西,826,0,79,0,4.2,23.14649,113.32229
逸安保健休闲中心,林和西,965,0,262,0,4.4,23.149311,113.33949
益元中医馆,林和西,597,0,87,0,4.8,23.15031,113.33507
威尔斯国际(商务)娱乐会所,林和西,574,0,65,0,4.3,23.144674,113.33529
圣丰索菲特大酒店-水疗中心,林和西,925,0,1500,0,5,23.144041,113.32195
康怡休闲会所,林和西,673,0,94,0,4,23.14871,113.33671
保络堂养生馆,林和西,529,0,126,0,4.9,23.145422,113.325516
伸适健(天河路店),林和西,538,0,138,0,3.8,23.1434,113.33369
Yoho Keon,林和西,578,0,85,0,4.4,23.152342,113.330376
颐康阁养生馆,林和西,743,0,94,0,4.2,23.153511,113.33257
华山沐足休闲中心,区庄,135,0,80,0,3.5,23.140507,113.302124
玉清池水疗会所,区庄,386,0,350,0,3.3,23.13678,113.3041
暗流酒馆密室逃脱,区庄,135,0,73,0,5,23.140501,113.302124
海上皇宫水疗会所,区庄,558,0,291,0,3.4,23.140924,113.298004
秘道Doors实景密室逃脱,区庄,299,0,54,0,4.9,23.137503,113.303276
御足堂(华粤店),区庄,461,0,113,0,4.4,23.140251,113.29889
康派沐足中心,区庄,644,0,78,0,3,23.134474,113.302376
足满堂(广联店),区庄,458,0,116,0,4,23.13737,113.30666
雅悦沐足阁,区庄,995,0,96,0,4.2,23.148455,113.30715
华旗纳米生活馆(黄花岗店),区庄,711,0,88,0,4.7,23.146582,113.303825
夜色俱乐部(艺星大厦),区庄,377,0,60,0,3,23.136812,113.30311
IMIX私加花园,区庄,819,0,64,0,4.2,23.142979,113.29598
金淘沐足中心,区庄,986,0,62,0,5,23.147594,113.29808
日康推拿,区庄,996,0,60,0,4.2,23.139599,113.29368
枕边游戏(环市东店),区庄,925,0,200,0,3.5,23.140446,113.312454
客家王休闲会馆,同和,529,0,326,0,2.1,23.19835,113.33358
德医行,同和,351,0,90,0,4.6,23.204884,113.33554
德安源沐足,同和,273,0,55,0,3.7,23.200605,113.33303
康足园,同和,672,0,61,0,4.1,23.19706,113.33369
合一棋牌沐足,同和,626,0,58,0,4,23.197924,113.33527
足盛堂,同和,341,0,97,0,5,23.20165,113.329765
安然纳米汗蒸馆(蟹石路),同和,404,0,55,0,5,23.199594,113.331505
逸康推拿理疗,杨箕,169,0,68,0,5,23.133585,113.313065
新花桑拿中心,杨箕,856,0,500,0,3,23.125631,113.31339
朝歌KTV,杨箕,795,0,69,0,3.8,23.140308,113.31349
健康人休闲中心(中山一分店),杨箕,383,0,74,0,3.4,23.134808,113.318016
水汇国际休闲会所,杨箕,930,0,332,0,3.6,23.129568,113.32285
乐驰棋艺馆,杨箕,301,0,50,0,5,23.131514,113.316956
东浚水汇,杨箕,497,0,326,0,2.9,23.137571,113.31346
足满堂(广联店),杨箕,939,0,116,0,4,23.13737,113.30666
金燊汗蒸养生馆,杨箕,752,0,88,0,4.5,23.126554,113.31349
御足堂(五羊店),杨箕,811,0,97,0,3.9,23.12597,113.31399
枕边游戏(环市东店),杨箕,833,0,200,0,3.5,23.140446,113.312454
安然纳米汗蒸馆(金沙洲店),浔峰岗,952,0,96,0,4.4,23.165005,113.21577
康城沐足(江南大道中),昌岗,68,0,98,0,4.4,23.097336,113.28278
扶元堂(昌岗中路店),昌岗,153,0,172,0,4.4,23.096375,113.28194
星都会KTV,昌岗,824,0,80,0,4.5,23.089724,113.28511
金城桑拿,昌岗,837,0,318,0,3.6,23.096865,113.275116
星都养生馆,昌岗,401,0,111,0,3.8,23.094316,113.28062
金日健康中心,昌岗,927,0,278,0,3.4,23.089302,113.28693
萤点,昌岗,425,0,150,0,4.5,23.100359,113.2814
逸美健养生中心,昌岗,194,0,78,0,4.2,23.0952,113.283325
金逸国际影城,昌岗,665,0,52,0,5,23.101917,113.27966
金太阳(青柳大街),昌岗,796,0,78,0,3.8,23.099743,113.27613
足心堂健康休闲中心,昌岗,600,0,120,0,3.7,23.098848,113.288795
邓老师中医养生馆,昌岗,183,0,50,0,4.4,23.0963,113.281654
众胜棋牌中心,昌岗,466,0,60,0,-1,23.100658,113.28116
脊柱运动梳理(昌岗店),昌岗,387,0,200,0,4.3,23.0962,113.287
明匠曲DIY蛋糕(穗花新村店),昌岗,666,3.3,64,2.8,4.5,23.102926,113.28381
CRISIS怪室真人危机逃生游戏(江南西店),昌岗,539,0,107,0,4.9,23.101604,113.2818
紫禁之城星都会KTV(润政广场店),昌岗,787,0,66,0,-1,23.090084,113.28519
扶之堂中医推拿馆,昌岗,932,0,97,0,4.7,23.08945,113.27923
百莲凯(昌岗中路),昌岗,998,0,113,0,3,23.091846,113.275276
广州太古仓电影库,凤凰新村,667,0,80,0,1,23.095448,113.25919
逸之泉沐足休闲中心,凤凰新村,360,0,65,0,4.1,23.102673,113.26531
金悦足道,凤凰新村,888,0,137,0,4.3,23.103373,113.270775
翠逸阁足浴中心,凤凰新村,769,0,55,0,5,23.09687,113.26905
吉利盲人按摩,凤凰新村,487,0,55,0,4.5,23.098776,113.26703
聚龙湾温泉广州办,凤凰新村,999,0,83,0,5,23.106434,113.270035
兴隆盲人按摩院,凤凰新村,821,0,53,0,-1,23.10511,113.26896
盲人推拿,凤凰新村,996,0,80,0,5,23.092031,113.26576
润龙健康中心,河沙,176,0,100,0,3.7,23.14152,113.22562
鸿盛沐足休闲中心,河沙,286,0,96,0,3,23.143127,113.2253
鸿盛阁休闲保健中心,河沙,275,0,96,0,4,23.143213,113.22474
安然纳米汗蒸馆,河沙,174,0,78,0,4.6,23.1412,113.22572
足福保健中心,东涌,936,0,50,0,4.2,22.884846,113.47972
您想水疗会所,长湴,349,0,185,0,2.4,23.181372,113.35444
今前养生会所,长湴,327,0,72,0,4,23.181631,113.35434
天天沐足,长湴,805,0,81,0,4.7,23.178207,113.36034
沙面保健中心,黄沙,207,0,128,0,5,23.113974,113.24763
玉龙阁桑拿健康中心,黄沙,571,0,316,0,2.6,23.11384,113.25215
芝美,黄沙,748,0,139,0,2,23.122446,113.247444
知足常乐(多宝路),黄沙,776,0,66,0,3.9,23.122372,113.244606
丛桂路,黄沙,233,0,75,0,-1,23.117737,113.24628
九九众康中医养生(文昌南店),黄沙,916,0,78,0,-1,23.1232,113.25074
龙氏脊椎康复治疗中心,板桥,837,0,150,0,5,23.015871,113.39705
御来堂沐足推拿,沙河顶,377,0,50,0,4,23.152088,113.316956
金怡足道(水荫路店),沙河顶,876,0,100,0,3.6,23.147524,113.319466
广东歌舞剧院,沙河顶,224,0,50,0,2.2,23.153517,113.3156
雅悦沐足阁,沙河顶,827,0,96,0,4.2,23.148455,113.30715
健一推拿(水荫直街),沙河顶,948,0,59,0,4.2,23.144842,113.31563
名城水疗,沙河顶,836,0,138,0,3.7,23.153654,113.321594
龙腾休闲会所,沙河顶,918,0,352,0,-1,23.14671,113.319084
御灌堂,沙河顶,445,0,100,0,4,23.151985,113.31761
金燊汗蒸养生馆(水荫路店),沙河顶,972,0,88,0,4.4,23.145536,113.318146
聚脚点沐足棋艺光塔路连锁旗舰店,西门口,193,0,58,0,4.3,23.12962,113.262856
广州金逸国际影城(和业店),西门口,985,0,65,0,4,23.127415,113.253746
碧澄健康中心(越秀店),西门口,850,0,68,0,4.5,23.138954,113.26242
尚品简道沐足,西门口,517,0,126,0,4.3,23.126677,113.26186
足采堂健康休闲中心,西门口,542,0,65,0,4.3,23.135315,113.25938
瓦匠工社,西门口,254,0,61,0,4.7,23.133406,113.26339
佰盛堂健康休闲中心,西门口,406,0,201,0,4.2,23.131712,113.25845
X先生密室,西门口,815,0,87,0,4.1,23.131378,113.27037
康乐盲人按摩中心,西门口,399,0,91,0,4.5,23.131824,113.26627
启悦沐足,西门口,992,0,198,0,3.5,23.124104,113.26814
利足堂健康休闲中心,西门口,576,0,69,0,3.9,23.135267,113.25876
神康盲人保健按摩所,西门口,620,0,50,0,5,23.136482,113.26014
美健能量工房,西门口,773,0,98,0,4,23.128252,113.25561
东升医院按摩中心,西门口,756,0,64,0,3.6,23.125187,113.259155
广州五航商务服务有限公司,西门口,797,0,5000,0,-1,23.131256,113.2702
K-PARTY量贩式KTV,市桥,839,0,56,0,3.8,22.953077,113.37612
康自来沐足休闲会所,市桥,855,0,115,0,4.4,22.94915,113.3731
聚隆休闲中心,市桥,581,0,60,0,2.8,22.96024,113.370735
悦云养生堂,市桥,331,0,100,0,2,22.957697,113.36617
益足康富华店,市桥,301,0,78,0,4.7,22.953138,113.36689
富华沐足休闲中心,市桥,896,0,103,0,3.1,22.95295,113.37666
康泰盲人按摩中心,市桥,309,0,50,0,3.8,22.952703,113.36845
广州市番禺区市桥尔莱按摩店,市桥,451,0,68,0,5,22.957272,113.372314
尊尚公馆,市桥,776,0,800,0,4.3,22.96222,113.366325
康乐按摩院,市桥,911,0,74,0,3.8,22.947737,113.36546
聚元阁养生连锁(丽康店),市桥,440,0,84,0,-1,22.95727,113.3722
蓄元堂中医养生馆,市桥,328,0,232,0,4.6,22.953463,113.36602
3A国康堂,市桥,455,0,67,0,4.5,22.95144,113.36765
育泉休闲中心,烈士陵园,516,0,50,0,3.1,23.129032,113.289444
水玲珑会馆(东山口店),烈士陵园,720,0,236,0,4,23.129494,113.29816
活力无限KTV,烈士陵园,301,0,61,0,4,23.132915,113.28924
骑士养生馆,烈士陵园,629,0,93,0,4.4,23.138584,113.29255
千里行沐足中心,烈士陵园,776,0,81,0,4.5,23.13992,113.292076
闲庭信步养生保健会所,烈士陵园,791,0,155,0,3.5,23.140005,113.291306
嘉年华芬兰馆,烈士陵园,992,0,328,0,4.4,23.127851,113.2842
轻松松推拿中心,烈士陵园,630,0,88,0,3.8,23.128038,113.29529
东川休闲俱乐部,烈士陵园,654,0,80,0,4,23.127098,113.29304
悦康推拿,烈士陵园,693,0,70,0,3.5,23.128586,113.28732
日康推拿,烈士陵园,756,0,60,0,4.2,23.139599,113.29368
浪程会大厅KTV,烈士陵园,971,0,50,0,3.9,23.12588,113.29779
健晖君悦酒店足疗部,金融高新区,255,0,300,0,3.9,41.8207,123.44266
柏高浴宫,金融高新区,894,0,53,0,4.6,41.830788,123.445305
帝豪斯,金融高新区,616,0,890,0,-1,41.81761,123.440865
心乐纯K量贩式KTV,金融高新区,653,0,64,0,4.2,41.817146,123.44186
金谛健康会所,金融高新区,949,0,300,0,2.6,41.82283,123.454025
辽沈晚报,金融高新区,739,0,112,0,-1,41.82612,123.45046
良之子足道,金融高新区,988,0,59,0,4.4,41.815517,123.43614
程华按摩推拿馆,金融高新区,477,0,50,0,4.3,41.82061,123.43779
莎莎足道养生会馆(华府店),金融高新区,693,0,396,0,-1,41.81714,123.43974
千惠良子足道,金融高新区,929,0,90,0,4.5,41.82424,123.43148
地德艾灸推拿馆,金融高新区,539,0,60,0,4.3,41.818993,123.4389
雅姿妈妈产后恢复中心(华府店),金融高新区,585,0,4580,0,-1,41.81873,123.438446
水缘国际休闲会馆,厦滘,842,0,277,0,4.1,23.041658,113.335304
豪门,厦滘,642,0,200,0,-1,23.041498,113.33323
新派KTV(惠信大厦店),厦滘,715,0,56,0,3.6,23.041716,113.334045
康宁推拿,厦滘,632,0,157,0,4,23.041592,113.33316
星海音乐学院-音乐厅,官洲,941,0,80,0,5,23.065163,113.38646
名人会,飞翔公园,412,0,500,0,4,23.176474,113.26635
美嘉华桑拿中心,飞翔公园,542,0,164,0,3.5,23.173439,113.2651
南美休闲会馆机场路店,飞翔公园,781,0,221,0,2.7,23.178976,113.263725
美嘉华休闲会馆,飞翔公园,530,0,201,0,3.6,23.173346,113.26527
龙泉休闲会馆,飞翔公园,554,0,180,0,4.2,23.175524,113.26469
足福堂推拿休闲中心,飞翔公园,606,0,168,0,4.1,23.17089,113.27389
雅涛阁沐足休闲中心,飞翔公园,705,0,65,0,4,23.169937,113.274124
今前养生会所(桃园店),飞翔公园,523,0,137,0,4,23.175047,113.27522
云盛康乐城,飞翔公园,575,0,65,0,3.7,23.17211,113.2747
康之宝推拿沐足,飞翔公园,948,0,78,0,4.8,23.179653,113.26226
平步青云美发沐足中心,飞翔公园,812,0,55,0,4,23.176966,113.262405
康健按摩中心,飞翔公园,564,0,399,0,5,23.176874,113.26492
美堂康宝养生馆,飞翔公园,641,0,65,0,5,23.174461,113.26386
康健盲人按摩中心,飞翔公园,755,0,52,0,4.3,23.171892,113.27661
康尔乐养生堂,飞翔公园,887,0,89,0,4.1,23.172834,113.261765
益康,飞翔公园,904,0,142,0,4.2,23.173468,113.26143
权健自然养生馆,飞翔公园,863,0,57,0,4.7,23.17085,113.277176
君媛轩,飞翔公园,770,0,59,0,4.5,23.176352,113.26268
广州宝氏配音公司录音棚,飞翔公园,874,0,150,0,-1,23.167303,113.26893
怡凯酒店-桑拿洗浴中心,燕岗,910,0,180,0,4.5,23.077026,113.283394
嘉信桑拿保健中心,燕岗,777,0,340,0,2.3,23.083261,113.2847
怡然沐足阁,燕岗,902,0,130,0,5,23.077183,113.283455
扶之堂中医推拿馆,燕岗,768,0,97,0,4.7,23.08945,113.27923
yoyopark儿童主题乐园,燕岗,783,0,64,0,4.1,23.089815,113.276215
益健棋牌推拿,岗顶,973,0,60,0,4.7,23.134722,113.33904
正和堂中医养生会所,岗顶,929,0,128,0,4.2,23.145819,113.339096
华侨友谊酒店懂生沐足中心,天河南,946,0,131,0,3.4,23.137096,113.33995
威尔斯国际(商务)娱乐会所,天河南,964,0,65,0,4.3,23.144674,113.33529
益健棋牌推拿,天河南,893,0,60,0,4.7,23.134722,113.33904
皇家轩尼诗俱乐部,天河南,803,0,200,0,4,23.140657,113.32386
恒大院线,天河南,580,0,137,0,-1,23.132713,113.33378
广州野战拓展,天河南,651,0,125,0,5,23.14015,113.33613
伸适健(天河路店),天河南,764,0,138,0,3.8,23.1434,113.33369
广州野战拓展,黄埔大道,986,0,125,0,5,23.14015,113.33613
优昊家族(时尚天河店),黄埔大道,776,0,52,0,4.5,23.139542,113.33232
益康,三元里,931,0,142,0,4.2,23.173468,113.26143
广州宝氏配音公司录音棚,三元里,576,0,150,0,-1,23.167303,113.26893
资元堂顶级休闲养生会所,体育中心,976,0,90,0,3.7,23.147146,113.32841
广州市龙康盲人推拿店,体育中心,746,0,66,0,5,23.146658,113.33838
保元堂,体育中心,964,0,78,0,4.4,23.135412,113.32749
决胜温莎,体育中心,912,0,78,0,3,23.147928,113.33062
一舞爵士汇,体育中心,650,0,2042,0,4.8,23.134914,113.33435
益健棋牌推拿,体育中心,790,0,60,0,4.7,23.134722,113.33904
康怡休闲会所,体育中心,904,0,94,0,4,23.14871,113.33671
广州市正骨盲人推拿店,体育中心,595,0,140,0,4.4,23.14595,113.33629
正和堂中医养生会所,体育中心,706,0,128,0,4.2,23.145819,113.339096
名豪盛会量贩KTV,体育中心,895,0,167,0,3.5,23.139353,113.32631
子午中医养生馆,体育中心,784,0,73,0,4.2,23.134848,113.33071
青城承道推拿,体育中心,591,0,198,0,-1,23.14184,113.34059
安然纳米汗蒸馆(体育西店),体育中心,837,0,58,0,4.5,23.137373,113.327614
恒大院线,体育中心,900,0,137,0,-1,23.132713,113.33378
保络堂养生馆,体育西路,979,0,126,0,4.9,23.145422,113.325516
广州塞纳河之夜,体育西路,952,0,1300,0,3.5,23.143694,113.32232
道家归真养生堂,体育西路,886,0,238,0,4,23.137173,113.33669
广州野战拓展,体育西路,903,0,125,0,5,23.14015,113.33613
伸适健(天河路店),体育西路,924,0,138,0,3.8,23.1434,113.33369
益康理疗盲人按摩中心,北京路,646,0,105,0,3.3,23.12291,113.28241
广州五航商务服务有限公司,北京路,952,0,5000,0,-1,23.131256,113.2702
摩斯广州真人密室逃脱,北京路,1000,0,52,0,3.8,23.118126,113.28288
一舞爵士汇,石牌桥,599,0,2042,0,4.8,23.134914,113.33435
丽柏国际酒店柏悦棋牌足浴会所,石牌桥,891,0,85,0,4.9,23.142351,113.34611
广州市龙康盲人推拿店,石牌桥,853,0,66,0,5,23.146658,113.33838
正和堂中医养生会所,石牌桥,765,0,128,0,4.2,23.145819,113.339096
青城承道推拿,石牌桥,401,0,198,0,-1,23.14184,113.34059
广州市正骨盲人推拿店,石牌桥,799,0,140,0,4.4,23.14595,113.33629
子午中医养生馆,石牌桥,892,0,73,0,4.2,23.134848,113.33071
捷硕科技,石牌桥,677,0,80,0,5,23.138968,113.344826
伸适健(天河路店),石牌桥,674,0,138,0,3.8,23.1434,113.33369
恒大院线,石牌桥,830,0,137,0,-1,23.132713,113.33378
优昊家族(时尚天河店),石牌桥,604,0,52,0,4.5,23.139542,113.33232
圣丰索菲特大酒店-水疗中心,体育中心南,963,0,1500,0,5,23.144041,113.32195
威尔斯国际(商务)娱乐会所,体育中心南,749,0,65,0,4.3,23.144674,113.33529
御足堂广天店,体育中心南,980,0,75,0,3.9,23.133175,113.33648
决胜温莎,体育中心南,901,0,78,0,3,23.147928,113.33062
一舞爵士汇,体育中心南,693,0,2042,0,4.8,23.134914,113.33435
保络堂养生馆,体育中心南,784,0,126,0,4.9,23.145422,113.325516
皇家轩尼诗俱乐部,体育中心南,653,0,200,0,4,23.140657,113.32386
道家归真养生堂,体育中心南,727,0,238,0,4,23.137173,113.33669
广州塞纳河之夜,体育中心南,912,0,1300,0,3.5,23.143694,113.32232
广州野战拓展,体育中心南,608,0,125,0,5,23.14015,113.33613
恒大院线,体育中心南,872,0,137,0,-1,23.132713,113.33378
君怡国际KTV,体育中心南,915,0,80,0,5,23.146358,113.32473
广州市正骨盲人推拿店,体育中心南,922,0,140,0,4.4,23.14595,113.33629
安然纳米汗蒸馆(蟹石路),京溪南方医院,962,0,55,0,5,23.199594,113.331505
LAVISKI,林和西,897,0,87,0,5,23.14474,113.33873
广州市龙康盲人推拿店,林和西,823,0,66,0,5,23.146658,113.33838
天水伊人,林和西,979,0,172,0,5,23.138884,113.33367
广州市正骨盲人推拿店,林和西,621,0,140,0,4.4,23.14595,113.33629
名豪盛会量贩KTV,林和西,959,0,167,0,3.5,23.139353,113.32631
广州塞纳河之夜,林和西,906,0,1300,0,3.5,23.143694,113.32232
正和堂中医养生会所,林和西,906,0,128,0,4.2,23.145819,113.339096
君怡国际KTV,林和西,580,0,80,0,5,23.146358,113.32473
皇家轩尼诗俱乐部,林和西,980,0,200,0,4,23.140657,113.32386
广州野战拓展,林和西,976,0,125,0,5,23.14015,113.33613
优昊家族(时尚天河店),林和西,869,0,52,0,4.5,23.139542,113.33232
